"ID","Address","City","State","Zip","lat","long","id","input_address","match_indicator","match_type","matched_address","tiger_line_id","tiger_side"
22001,"11094 LEE HWY STE A103","FAIRFAX","VA",22030,38.8523084070001,-77.327825165,1,"11094 LEE HWY STE A103, FAIRFAX, VA, 22030","Match","Exact","11094 LEE HWY, FAIRFAX, VA, 22030",613093760,"R"
22002,"11096 S SHILLING AVE APT 1395","SOUTH JORDAN","UT",84095,40.5498572700001,-111.904811717,2,"11096 S SHILLING AVE APT 1395, SOUTH JORDAN, UT, 84095","Match","Non_Exact","11096 S SHILLING AVE, SOUTH JORDAN, UT, 84095",176141814,"R"
22003,"11096 TANGERINE BLVD","WEST PALM BEACH","FL",33412,26.773197241,-80.2159104259999,3,"11096 TANGERINE BLVD, WEST PALM BEACH, FL, 33412","Match","Exact","11096 TANGERINE BLVD, WEST PALM BEACH, FL, 33412",115347799,"L"
22004,"11097 SAINT CHARLES ROCK ROAD","SAINT ANN","MO",63074,38.736189516,-90.3963194729999,4,"11097 SAINT CHARLES ROCK ROAD, SAINT ANN, MO, 63074","Match","Exact","11097 SAINT CHARLES ROCK RD, SAINT ANN, MO, 63074",648258434,"R"
22005,"11099 EASTRIDGE DR NE F101","REDMOND","WA",98053,47.6976883500001,-122.019271775,5,"11099 EASTRIDGE DR NE F101, REDMOND, WA, 98053","Match","Exact","11099 EASTRIDGE DR NE, REDMOND, WA, 98053",630036487,"L"
22006,"11099 SCOTTS LANING RD","LAUREL","MD",20723,39.1353892110001,-76.894215744,6,"11099 SCOTTS LANING RD, LAUREL, MD, 20723","Match","Non_Exact","11099 SCOTTS LANDING RD, LAUREL, MD, 20723",158933424,"R"
22007,"110A SOUTH MAIN STREET","UNIONVILLE","CT",6085,41.7546702130001,-72.886818256,7,"110A SOUTH MAIN STREET, UNIONVILLE, CT, 6085","Match","Exact","110 S MAIN ST, UNIONVILLE, CT, 06085",3503237,"R"
22008,"110B SCARBOROUGH STREET","MANTEO","NC",27954,35.9055732510001,-75.681216638,8,"110B SCARBOROUGH STREET, MANTEO, NC, 27954","Match","Exact","110 SCARBOROUGH ST, MANTEO, NC, 27954",81313793,"L"
22009,"110QUAPPAW CIR","LOUDON","TN",37774,NA,NA,9,"110QUAPPAW CIR, LOUDON, TN, 37774","No_Match",NA,NA,NA,NA
22010,"111  MEADOW WAY","CONVERSE","TX",78109,29.5231892080001,-98.316142391,10,"111  MEADOW WAY, CONVERSE, TX, 78109","Match","Exact","111 MEADOW WAY, CONVERSE, TX, 78109",101504390,"L"
22011,"111 1/2 S 9TH ST","DEKALB","IL",60115,41.9272965050001,-88.7433778669999,11,"111 1/2 S 9TH ST, DEKALB, IL, 60115","Match","Exact","111 S 9TH ST, DEKALB, IL, 60115",52259376,"L"
22012,"111 18 86TH AVE / APT 3A","FOREST HILLS","NY",11375,NA,NA,12,"111 18 86TH AVE / APT 3A, FOREST HILLS, NY, 11375","No_Match",NA,NA,NA,NA
22013,"111 19TH STREET NORTH","BIRMINGHAM","AL",35203,33.513926498,-86.8071710579999,13,"111 19TH STREET NORTH, BIRMINGHAM, AL, 35203","Match","Exact","111 19TH ST N, BIRMINGHAM, AL, 35203",81575766,"R"
22014,"111 1ST ST NW","FARLEY","IA",52046,42.443530206,-91.006160562,14,"111 1ST ST NW, FARLEY, IA, 52046","Match","Exact","111 1ST ST NW, FARLEY, IA, 52046",16900105,"R"
22015,"111 2ND AVE NE 360","SAINT PETERSBURG","FL",33701,27.7735481880001,-82.633801066,15,"111 2ND AVE NE 360, SAINT PETERSBURG, FL, 33701","Match","Exact","111 2ND AVE NE, SAINT PETERSBURG, FL, 33701",124713646,"L"
22016,"111 2ND AVE NE SUITE 360","SAINT PETERSBURG","FL",33701,27.7735481880001,-82.633801066,16,"111 2ND AVE NE SUITE 360, SAINT PETERSBURG, FL, 33701","Match","Exact","111 2ND AVE NE, SAINT PETERSBURG, FL, 33701",124713646,"L"
22017,"111 2ND AVENUE NE SUITE 400","ST PETERSBURG","FL",33701,27.7735481880001,-82.633801066,17,"111 2ND AVENUE NE SUITE 400, ST PETERSBURG, FL, 33701","Match","Exact","111 2ND AVE NE, SAINT PETERSBURG, FL, 33701",124713646,"L"
22018,"111 2ND ST W","DICKINSON","ND",58601,46.8809032250001,-102.786975268,18,"111 2ND ST W, DICKINSON, ND, 58601","Match","Exact","111 2ND ST W, DICKINSON, ND, 58601",199272880,"R"
22019,"111 3RD ST NE","CONOVER","NC",28613,35.7104731790001,-81.2181189679999,19,"111 3RD ST NE, CONOVER, NC, 28613","Match","Exact","111 3RD ST NE, CONOVER, NC, 28613",45909033,"L"
22020,"111 4TH AVE E","POLSON","MT",59860,47.692318475,-114.161582154,20,"111 4TH AVE E, POLSON, MT, 59860","Match","Exact","111 4TH AVE E, POLSON, MT, 59860",206887778,"R"
22021,"111 4TH ST NE","WAVERLY","IA",50677,42.726734326,-92.465651835,21,"111 4TH ST NE, WAVERLY, IA, 50677","Match","Exact","111 4TH ST NE, WAVERLY, IA, 50677",77354238,"L"
22022,"111 4TH ST NW","WASECA","MN",56093,44.077729101,-93.51192816,22,"111 4TH ST NW, WASECA, MN, 56093","Match","Exact","111 4TH ST NW, WASECA, MN, 56093",28722062,"L"
22023,"111 7TH AVE","KURE BEACH","NC",28449,33.998874932,-77.91085617,23,"111 7TH AVE, KURE BEACH, NC, 28449","Match","Non_Exact","111 S 7TH AVE, KURE BEACH, NC, 28449",152728305,"L"
22024,"111 8TH AVENUE","NEW YORK","NY",10011,40.740720851,-74.001823915,24,"111 8TH AVENUE, NEW YORK, NY, 10011","Match","Exact","111 8TH AVE, NEW YORK, NY, 10011",59659957,"L"
22025,"111 8TH STREET WEST","KETCHUM","ID",83340,NA,NA,25,"111 8TH STREET WEST, KETCHUM, ID, 83340","No_Match",NA,NA,NA,NA
22026,"111 A STREET NE","QUINCY","WA",98848,47.2386057950001,-119.851406099,26,"111 A STREET NE, QUINCY, WA, 98848","Match","Exact","111 A ST NE, QUINCY, WA, 98848",157088179,"R"
22027,"111 ACKLEN PARK DRIVE APT 260","NASHVILLE","TN",37203,36.1428261990001,-86.8200865439999,27,"111 ACKLEN PARK DRIVE APT 260, NASHVILLE, TN, 37203","Match","Exact","111 ACKLEN PARK DR, NASHVILLE, TN, 37203",606827857,"L"
22028,"111 ADAM CIRCLE","RUSTON","LA",71270,32.5968612840001,-92.611600923,28,"111 ADAM CIRCLE, RUSTON, LA, 71270","Match","Exact","111 ADAM CIR, RUSTON, LA, 71270",164098283,"L"
22029,"111 AFFIRMED CT","BUSH","LA",70431,30.586465875,-89.984222965,29,"111 AFFIRMED CT, BUSH, LA, 70431","Match","Exact","111 AFFIRMED CT, BUSH, LA, 70431",111296460,"R"
22030,"111 ALVARADO DR SE  8644","ALBUQUERQUE","NM",87108,35.0769506730001,-106.5818171,30,"111 ALVARADO DR SE  8644, ALBUQUERQUE, NM, 87108","Match","Exact","111 ALVARADO DR SE, ALBUQUERQUE, NM, 87108",636454426,"R"
22031,"111 AMHERST ST","WORCESTER","MA",1602,42.2763394350001,-71.8247848199999,31,"111 AMHERST ST, WORCESTER, MA, 1602","Match","Exact","111 AMHERST ST, WORCESTER, MA, 01602",40066691,"L"
22032,"111 ANTELOPE DRIVE","COLUMBIA","MO",65202,38.9857118460001,-92.335644187,32,"111 ANTELOPE DRIVE, COLUMBIA, MO, 65202","Match","Exact","111 ANTELOPE DR, COLUMBIA, MO, 65202",604847437,"L"
22033,"111 ARBOR DR","SOUTHPORT","CT",6890,41.1391453840001,-73.297249157,33,"111 ARBOR DR, SOUTHPORT, CT, 6890","Match","Exact","111 ARBOR DR, SOUTHPORT, CT, 06890",3240547,"L"
22034,"111 ARLENE TERRACE","SAN RAFAEL","CA",94903,38.007477571,-122.567890554,34,"111 ARLENE TERRACE, SAN RAFAEL, CA, 94903","Match","Exact","111 ARLENE TER, SAN RAFAEL, CA, 94903",192762030,"R"
22035,"111 ASBURY LOOP","MIDDLETOWN","DE",19709,39.5090322040001,-75.653752101,35,"111 ASBURY LOOP, MIDDLETOWN, DE, 19709","Match","Exact","111 ASBURY LOOP, MIDDLETOWN, DE, 19709",633689344,"L"
22036,"111 AUDUBON PARK","DAYTON","OH",45402,39.7646432610001,-84.210204942,36,"111 AUDUBON PARK, DAYTON, OH, 45402","Match","Exact","111 AUDUBON PARK, DAYTON, OH, 45402",637801232,"R"
22037,"111 AVE O WEST","FORT DODGE","IA",50501,42.486800257,-94.2091544579999,37,"111 AVE O WEST, FORT DODGE, IA, 50501","Match","Exact","111 AVE O W, FORT DODGE, IA, 50501",66083894,"R"
22038,"111 AVE R NE","WINTER HAVEN","FL",33881,28.0412873180001,-81.725940926,38,"111 AVE R NE, WINTER HAVEN, FL, 33881","Match","Exact","111 AVE R NE, WINTER HAVEN, FL, 33881",104823593,"L"
22039,"111 AVENUE R NE","WINTER HAVEN","FL",33881,28.0412873180001,-81.725940926,39,"111 AVENUE R NE, WINTER HAVEN, FL, 33881","Match","Exact","111 AVE R NE, WINTER HAVEN, FL, 33881",104823593,"L"
22040,"111 B WEST BOUND STREET","STARKVILLE","MS",39759,33.4463024080001,-88.849630484,40,"111 B WEST BOUND STREET, STARKVILLE, MS, 39759","Match","Exact","111 W BOUND ST, STARKVILLE, MS, 39759",805949,"L"
22041,"111 BAGADUCE RD","BROOKSVILLE","ME",4617,44.35448065,-68.6839792069999,41,"111 BAGADUCE RD, BROOKSVILLE, ME, 4617","Match","Exact","111 BAGADUCE RD, BROOKSVILLE, ME, 04617",110283826,"R"
22042,"111 BAINBRIDGE LANE","PERRY","GA",31069,32.474494491,-83.7103006089999,42,"111 BAINBRIDGE LANE, PERRY, GA, 31069","Match","Exact","111 BAINBRIDGE LN, PERRY, GA, 31069",217649056,"R"
22043,"111 BALTIMORE AVENUE","LARKSPUR","CA",94939,37.931652683,-122.534307958,43,"111 BALTIMORE AVENUE, LARKSPUR, CA, 94939","Match","Exact","111 BALTIMORE AVE, LARKSPUR, CA, 94939",192766029,"L"
22044,"111 BAYSHORE DRIVE","PENSACOLA","FL",32507,30.39625088,-87.244496156,44,"111 BAYSHORE DRIVE, PENSACOLA, FL, 32507","Match","Exact","111 BAYSHORE DR, PENSACOLA, FL, 32507",640542963,"R"
22045,"111 BAYVIEW DRIVE","POLSON","MT",59860,47.6928249790001,-114.127988525,45,"111 BAYVIEW DRIVE, POLSON, MT, 59860","Match","Exact","111 BAYVIEW DR, POLSON, MT, 59860",206934871,"L"
22046,"111 BEACH STREET SUITE 1A","BOSTON","MA",2111,42.350778259,-71.0579480169999,46,"111 BEACH STREET SUITE 1A, BOSTON, MA, 2111","Match","Exact","111 BEACH ST, BOSTON, MA, 02111",85710686,"R"
22047,"111 BECKWORTH DRIVE","TAYLORS","SC",29687,34.9331164000001,-82.359285287,47,"111 BECKWORTH DRIVE, TAYLORS, SC, 29687","Match","Exact","111 BECKWORTH DR, TAYLORS, SC, 29687",38339219,"L"
22048,"111 BELLAMY COURT","CLARKSVILLE","TN",37043,36.5704576150001,-87.2816683199999,48,"111 BELLAMY COURT, CLARKSVILLE, TN, 37043","Match","Exact","111 BELLAMY CT, CLARKSVILLE, TN, 37043",31827267,"L"
22049,"111 BELVALE DRIVE","LOS GATOS","CA",95032,37.2325549820001,-121.913391801,49,"111 BELVALE DRIVE, LOS GATOS, CA, 95032","Match","Exact","111 BELVALE DR, LOS GATOS, CA, 95032",122946411,"R"
22050,"111 BETHUNE STREET SOUTH","GREENWOOD","SC",29646,34.19628362,-82.1379745959999,50,"111 BETHUNE STREET SOUTH, GREENWOOD, SC, 29646","Match","Exact","111 BETHUNE ST S, GREENWOOD, SC, 29646",50805829,"L"
22051,"111 BEVELED GLASS LN","GEORGETOWN","KY",40324,38.2297649970001,-84.5468914639999,51,"111 BEVELED GLASS LN, GEORGETOWN, KY, 40324","Match","Exact","111 BEVELED GLASS LN, GEORGETOWN, KY, 40324",41239319,"L"
22052,"111 BIRDSONG LANE","BUENA VISTA","VA",24416,37.812335751,-79.358050157,52,"111 BIRDSONG LANE, BUENA VISTA, VA, 24416","Match","Exact","111 BIRDSONG LN, BUENA VISTA, VA, 24416",63130145,"R"
22053,"111 BLACKBURN DRIVE","LITTLE ROCK","AR",72211,34.768665087,-92.445222281,53,"111 BLACKBURN DRIVE, LITTLE ROCK, AR, 72211","Match","Exact","111 BLACKBURN DR, LITTLE ROCK, AR, 72211",616393903,"L"
22054,"111 BLACKHEAD RD","MONHEGAN","ME",4852,NA,NA,54,"111 BLACKHEAD RD, MONHEGAN, ME, 4852","No_Match",NA,NA,NA,NA
22055,"111 BLAIR AVE S","HINCKLEY","MN",55037,46.015073595,-92.935730913,55,"111 BLAIR AVE S, HINCKLEY, MN, 55037","Match","Exact","111 BLAIR AVE S, HINCKLEY, MN, 55037",636506760,"R"
22056,"111 BLYTHEWOOD POINT DRIVE","BLYTHEWOOD","SC",29016,34.1927097070001,-81.029063416,56,"111 BLYTHEWOOD POINT DRIVE, BLYTHEWOOD, SC, 29016","Match","Exact","111 BLYTHEWOOD POINT DR, BLYTHEWOOD, SC, 29016",633746731,"L"
22057,"111 BONAIR ST","FREDERICKSBURG","VA",22405,38.3068389790001,-77.430540564,57,"111 BONAIR ST, FREDERICKSBURG, VA, 22405","Match","Exact","111 BONAIR ST, FREDERICKSBURG, VA, 22405",25565160,"L"
22058,"111 BONNEAU CT","SUMMERVILLE","SC",29485,32.9790220100001,-80.189445427,58,"111 BONNEAU CT, SUMMERVILLE, SC, 29485","Match","Exact","111 BONNEAU CT, SUMMERVILLE, SC, 29485",178464479,"L"
22059,"111 BOWENS MILL ROAD","DOUGLAS","GA",31533,31.512869376,-82.870901894,59,"111 BOWENS MILL ROAD, DOUGLAS, GA, 31533","Match","Exact","111 BOWENS MILL RD, DOUGLAS, GA, 31533",6927377,"L"
22060,"111 BRENT SPENCE SQUARE SUITE 501","COVINGTON","KY",41011,39.087250038,-84.511527042,60,"111 BRENT SPENCE SQUARE SUITE 501, COVINGTON, KY, 41011","Match","Exact","111 BRENT SPENCE SQ, COVINGTON, KY, 41011",103876102,"L"
22061,"111 BRENTWOOD COURT","ALLEN","TX",75013,33.1002480930001,-96.69434083,61,"111 BRENTWOOD COURT, ALLEN, TX, 75013","Match","Exact","111 BRENTWOOD CT, ALLEN, TX, 75013",123525483,"R"
22062,"111 BRIDGE DR","PONDEROSA","NM",87044,35.6525560320001,-106.674062555,62,"111 BRIDGE DR, PONDEROSA, NM, 87044","Match","Exact","111 BRIDGE DR, PONDEROSA, NM, 87044",611355385,"R"
22063,"111 BRIDGEPOINT PLAZA  SUITE 300","ROME","GA",30161,34.2538777450001,-85.174427668,63,"111 BRIDGEPOINT PLAZA  SUITE 300, ROME, GA, 30161","Match","Exact","111 BRIDGEPOINT PLZ, ROME, GA, 30161",30699213,"R"
22064,"111 BRILL ST","LAKEWOOD","NJ",8701,40.0832736580001,-74.230941359,64,"111 BRILL ST, LAKEWOOD, NJ, 8701","Match","Exact","111 BRILL ST, LAKEWOOD, NJ, 08701",203723941,"L"
22065,"111 BRINKLEY DRIVE","SELLERSVILLE","PA",18960,40.3379151410001,-75.2788603129999,65,"111 BRINKLEY DRIVE, SELLERSVILLE, PA, 18960","Match","Exact","111 BRINKLEY DR, SELLERSVILLE, PA, 18960",134782005,"L"
22066,"111 BRISTOL FOREST TRAIL","SANFORD","FL",32771,28.8202042980001,-81.305753787,66,"111 BRISTOL FOREST TRAIL, SANFORD, FL, 32771","Match","Exact","111 BRISTOL FOREST TRL, SANFORD, FL, 32771",618451560,"L"
22067,"111 BROAD ST","KINGSPORT","TN",37660,36.5452232310001,-82.561801152,67,"111 BROAD ST, KINGSPORT, TN, 37660","Match","Exact","111 BROAD ST, KINGSPORT, TN, 37660",604774681,"R"
22068,"111 BROADWAY RM 1801","NEW YORK","NY",10006,40.708534743,-74.011067171,68,"111 BROADWAY RM 1801, NEW YORK, NY, 10006","Match","Exact","111 BROADWAY, NEW YORK, NY, 10006",59659634,"L"
22069,"111 BRONTE CIR","LITTLE ROCK","AR",72223,34.8105103070001,-92.495300086,69,"111 BRONTE CIR, LITTLE ROCK, AR, 72223","Match","Exact","111 BRONTE CIR, LITTLE ROCK, AR, 72223",618977765,"R"
22070,"111 BROOK STREET 2ND FLOOR","SCARSDALE","NY",10583,40.9778041480001,-73.806401109,70,"111 BROOK STREET 2ND FLOOR, SCARSDALE, NY, 10583","Match","Exact","111 BROOK ST, SCARSDALE, NY, 10583",139739884,"L"
22071,"111 BROOKHAVEN COVE","PALM COAST","FL",32164,29.4781416770001,-81.20123233,71,"111 BROOKHAVEN COVE, PALM COAST, FL, 32164","Match","Exact","111 BROOKHAVEN COVE, PALM COAST, FL, 32164",648112282,"L"
22072,"111 BROOKLYN AVENUE","KANSAS CITY","MO",64124,39.1135177190001,-94.5554399709999,72,"111 BROOKLYN AVENUE, KANSAS CITY, MO, 64124","Match","Exact","111 BROOKLYN AVE, KANSAS CITY, MO, 64124",91448849,"L"
22073,"111 BROOKWOOD DR","ENTERPRISE","AL",36330,31.2862583950001,-85.8453939839999,73,"111 BROOKWOOD DR, ENTERPRISE, AL, 36330","Match","Exact","111 BROOKWOOD DR, ENTERPRISE, AL, 36330",627349877,"R"
22074,"111 BRUCETON ROAD PO BOX 242","MARKLEYSBURG","PA",15459,39.7543108580001,-79.443074388,74,"111 BRUCETON ROAD PO BOX 242, MARKLEYSBURG, PA, 15459","Match","Exact","111 BRUCETON RD, MARKLEYSBURG, PA, 15459",613533013,"R"
22075,"111 BRUSH HOLLOW RD","RYE BROOK","NY",10573,NA,NA,75,"111 BRUSH HOLLOW RD, RYE BROOK, NY, 10573","Tie",NA,NA,NA,NA
22076,"111 BUCK ROAD UNIT 600","HUNTINGDON VALLEY","PA",19006,40.1499059290001,-75.0257564189999,76,"111 BUCK ROAD UNIT 600, HUNTINGDON VALLEY, PA, 19006","Match","Exact","111 BUCK RD, HUNTINGDON VALLEY, PA, 19006",134708554,"R"
22077,"111 BUNCHE AVE","GLASGOW","KY",42141,36.9897656860001,-85.915460181,77,"111 BUNCHE AVE, GLASGOW, KY, 42141","Match","Exact","111 BUNCHE AVE, GLASGOW, KY, 42141",29508750,"L"
22078,"111 BYWOOD ROAD","ELKTON","MD",21921,39.6063934310001,-75.8030102279999,78,"111 BYWOOD ROAD, ELKTON, MD, 21921","Match","Exact","111 BYWOOD RD, ELKTON, MD, 21921",648741006,"R"
22079,"111 CALLOWHILL ROAD","CENTERPORT","PA",19561,NA,NA,79,"111 CALLOWHILL ROAD, CENTERPORT, PA, 19561","No_Match",NA,NA,NA,NA
22080,"111 CANYON DRIVE","MILLINOCKET","DC",4462,NA,NA,80,"111 CANYON DRIVE, MILLINOCKET, DC, 4462","No_Match",NA,NA,NA,NA
22081,"111 CANYON DRIVE","MILLINOCKET","ME",4462,45.667255964,-68.694931189,81,"111 CANYON DRIVE, MILLINOCKET, ME, 4462","Match","Exact","111 CANYON DR, MILLINOCKET, ME, 04462",123637985,"R"
22082,"111 CARAWAY ROAD APT 1A","REISTERTOWN","MD",21136,39.4469779250001,-76.824868882,82,"111 CARAWAY ROAD APT 1A, REISTERTOWN, MD, 21136","Match","Non_Exact","111 CARAWAY RD, REISTERSTOWN, MD, 21136",191462580,"L"
22083,"111 CARTER ROAD","SANTA CRUZ","CA",95060,37.054296396,-122.158250224,83,"111 CARTER ROAD, SANTA CRUZ, CA, 95060","Match","Exact","111 CARTER RD, SANTA CRUZ, CA, 95060",125502953,"L"
22084,"111 CASTLEWOOD ESTATES DR","OFALLON","MO",63368,38.7447227860001,-90.7654900759999,84,"111 CASTLEWOOD ESTATES DR, OFALLON, MO, 63368","Match","Non_Exact","111 CASTLEWOOD ESTATES DR, O FALLON, MO, 63368",653450789,"L"
22085,"111 CENTER ST STE 2200","LITTLE ROCK","AR",72201,34.7481912530001,-92.2727398119999,85,"111 CENTER ST STE 2200, LITTLE ROCK, AR, 72201","Match","Exact","111 CENTER ST, LITTLE ROCK, AR, 72201",83564171,"L"
22086,"111 CENTRAL PARKWAY","AYLETT","VA",23009,37.7462878440001,-77.138735238,86,"111 CENTRAL PARKWAY, AYLETT, VA, 23009","Match","Exact","111 CENTRAL PKWY, AYLETT, VA, 23009",627252628,"L"
22087,"111 CHADWYCK COURT","MADISON","MS",39110,32.5150110710001,-90.175851801,87,"111 CHADWYCK COURT, MADISON, MS, 39110","Match","Exact","111 CHADWYCK CT, MADISON, MS, 39110",627506112,"L"
22088,"111 CHALAN BALAKO PMB 312","DEDEDO","GU",96929,13.5624607440001,144.854863674,88,"111 CHALAN BALAKO PMB 312, DEDEDO, GU, 96929","Match","Exact","111 CHALAN BALAKO, DEDEDO, GU, 96929",641526947,"R"
22089,"111 CHANNEL COVE","STAFFORD","VA",22554,38.451718574,-77.38682577,89,"111 CHANNEL COVE, STAFFORD, VA, 22554","Match","Exact","111 CHANNEL COVE, STAFFORD, VA, 22554",25570228,"R"
22090,"111 CHEROKEE WAY","BOULDER","CO",80303,39.988471428,-105.230878233,90,"111 CHEROKEE WAY, BOULDER, CO, 80303","Match","Exact","111 CHEROKEE WAY, BOULDER, CO, 80303",188173400,"L"
22091,"111 CHERRY ROAD","BEREA","KY",40403,37.5657359730001,-84.301630621,91,"111 CHERRY ROAD, BEREA, KY, 40403","Match","Exact","111 CHERRY RD, BEREA, KY, 40403",31988710,"R"
22092,"111 CHESAPEAKE ST","NORMAN","OK",73019,35.1892521230001,-97.44097611,92,"111 CHESAPEAKE ST, NORMAN, OK, 73019","Match","Non_Exact","111 CHESAPEAKE ST, NORMAN, OK, 73072",99911807,"L"
22093,"111 CHURCH STREET SUITE 210","FERGUSON","MO",63135,38.7450897210001,-90.303343846,93,"111 CHURCH STREET SUITE 210, FERGUSON, MO, 63135","Match","Exact","111 CHURCH ST, FERGUSON, MO, 63135",100161056,"L"
22094,"111 CHURCH STREET","RED SPRINGS","NC",28377,34.8173085610001,-79.185624902,94,"111 CHURCH STREET, RED SPRINGS, NC, 28377","Match","Exact","111 CHURCH ST, RED SPRINGS, NC, 28377",49130769,"L"
22095,"111 CLARKS RD","NEW BERN","NC",28562,35.1481870490001,-77.1581266649999,95,"111 CLARKS RD, NEW BERN, NC, 28562","Match","Exact","111 CLARKS RD, NEW BERN, NC, 28562",34110117,"R"
22096,"111 COATBRIDGE CIRCLE","CARY","NC",27511,35.759569997,-78.811511422,96,"111 COATBRIDGE CIRCLE, CARY, NC, 27511","Match","Exact","111 COATBRIDGE CIR, CARY, NC, 27511",72569374,"R"
22097,"111 COLBY STREET","BRADFORD","MA",1835,42.7616586140001,-71.0769961249999,97,"111 COLBY STREET, BRADFORD, MA, 1835","Match","Exact","111 COLBY ST, BRADFORD, MA, 01835",86618252,"R"
22098,"111 COLLETT ST","NORTH HAVEN","CT",6473,41.3712878910001,-72.902668209,98,"111 COLLETT ST, NORTH HAVEN, CT, 6473","Match","Exact","111 COLLETT ST, NORTH HAVEN, CT, 06473",3757655,"R"
22099,"111 COMMANCHE COURT","STATESVILLE","NC",28677,35.7421895840001,-81.03901479,99,"111 COMMANCHE COURT, STATESVILLE, NC, 28677","Match","Exact","111 COMMANCHE CT, STATESVILLE, NC, 28677",46015868,"L"
22100,"111 COMMERCIAL ST","STRAWBERRY POINT","IA",52076,42.682823253,-91.534471678,100,"111 COMMERCIAL ST, STRAWBERRY POINT, IA, 52076","Match","Exact","111 COMMERCIAL ST, STRAWBERRY POINT, IA, 52076",634231900,"L"
22101,"111 COOK LANE","NEWPORT","VA",24128,37.2695963900001,-80.567971872,101,"111 COOK LANE, NEWPORT, VA, 24128","Match","Exact","111 COOK LN, NEWPORT, VA, 24128",46998570,"R"
22102,"111 COSMOS LANE","GREER","SC",29651,34.92267193,-82.2082532439999,102,"111 COSMOS LANE, GREER, SC, 29651","Match","Exact","111 COSMOS LN, GREER, SC, 29651",624931297,"L"
22103,"111 COTTON BEND DR","HUNTSVILLE","AL",35824,34.6332632200001,-86.7315805219999,103,"111 COTTON BEND DR, HUNTSVILLE, AL, 35824","Match","Exact","111 COTTON BEND DR, HUNTSVILLE, AL, 35824",58139639,"R"
22104,"111 COUNTRY BEND ROAD","DUNCANVILLE","TX",75137,32.6366570060001,-96.90865271,104,"111 COUNTRY BEND ROAD, DUNCANVILLE, TX, 75137","Match","Exact","111 COUNTRY BEND, DUNCANVILLE, TX, 75137",102972291,"R"
22105,"111 COUNTRY FLOWER RD","NEWARK","DE",19711,39.7599949090001,-75.740715468,105,"111 COUNTRY FLOWER RD, NEWARK, DE, 19711","Match","Exact","111 COUNTRY FLOWER RD, NEWARK, DE, 19711",187251763,"L"
22106,"111 COUNTY ROAD 2160","JEROMESVILLE","OH",44840,40.747810976,-82.144467999,106,"111 COUNTY ROAD 2160, JEROMESVILLE, OH, 44840","Match","Non_Exact","111 CO HWY 2160, JEROMESVILLE, OH, 44840",30159748,"R"
22107,"111 COURT STREET SUITE 1B","CYNTHIANA","KY",41031,38.390396922,-84.2981559899999,107,"111 COURT STREET SUITE 1B, CYNTHIANA, KY, 41031","Match","Exact","111 COURT ST, CYNTHIANA, KY, 41031",57893531,"L"
22108,"111 CROSSFIELD DRIVE","WARNER ROBINS","GA",31088,32.5688237950001,-83.665893495,108,"111 CROSSFIELD DRIVE, WARNER ROBINS, GA, 31088","Match","Exact","111 CROSSFIELD DR, WARNER ROBINS, GA, 31088",91237568,"R"
22109,"111 D WILSON RD","PINEVILLE","LA",71360,31.257725282,-92.3223094639999,109,"111 D WILSON RD, PINEVILLE, LA, 71360","Match","Non_Exact","111 D WILSON LN, PINEVILLE, LA, 71360",11786967,"L"
22110,"111 DAFFODIL TRAIL","ROCHESTER","NY",14626,43.230734162,-77.741215289,110,"111 DAFFODIL TRAIL, ROCHESTER, NY, 14626","Match","Exact","111 DAFFODIL TRL, ROCHESTER, NY, 14626",14589441,"R"
22111,"111 DALTON LANE","TUSCUMBIA","AL",35674,34.709192634,-87.6357958739999,111,"111 DALTON LANE, TUSCUMBIA, AL, 35674","Match","Exact","111 DALTON LN, TUSCUMBIA, AL, 35674",651989265,"L"
22112,"111 DAVIS BRIDGE ROAD PO BOX 6491","WYOMISSING","PA",19610,NA,NA,112,"111 DAVIS BRIDGE ROAD PO BOX 6491, WYOMISSING, PA, 19610","No_Match",NA,NA,NA,NA
22113,"111 DAVIS STREET D","ASHEBORO","NC",27203,35.7061078290001,-79.81887582,113,"111 DAVIS STREET D, ASHEBORO, NC, 27203","Match","Exact","111 DAVIS ST, ASHEBORO, NC, 27203",20405873,"L"
22114,"111 DEAN AVE","SUDAN","TX",79371,34.0617163970001,-102.515755944,114,"111 DEAN AVE, SUDAN, TX, 79371","Match","Exact","111 DEAN AVE, SUDAN, TX, 79371",185836596,"R"
22115,"111 DEERHAVEN RD","MAHWAH","NJ",7430,41.0635879340001,-74.2159134629999,115,"111 DEERHAVEN RD, MAHWAH, NJ, 7430","Match","Exact","111 DEERHAVEN RD, MAHWAH, NJ, 07430",64399826,"R"
22116,"111 DEERWOOD RD STE 325","SAN RAMON","CA",94583,37.7735040160001,-121.988346865,116,"111 DEERWOOD RD STE 325, SAN RAMON, CA, 94583","Match","Non_Exact","111 DEERWOOD PL, SAN RAMON, CA, 94583",192065604,"L"
22117,"111 DEERWOOD RD SUITE 340","SAN RAMON","CA",94583,37.7735040160001,-121.988346865,117,"111 DEERWOOD RD SUITE 340, SAN RAMON, CA, 94583","Match","Non_Exact","111 DEERWOOD PL, SAN RAMON, CA, 94583",192065604,"L"
22118,"111 DEERWOOD ROAD SUITE 200","SAN RAMON","CA",94583,37.7735040160001,-121.988346865,118,"111 DEERWOOD ROAD SUITE 200, SAN RAMON, CA, 94583","Match","Non_Exact","111 DEERWOOD PL, SAN RAMON, CA, 94583",192065604,"L"
22119,"111 DELAWARE AVENUE","JAMES CITY","PA",16734,41.6201182230001,-78.8394619549999,119,"111 DELAWARE AVENUE, JAMES CITY, PA, 16734","Match","Exact","111 DELAWARE AVE, JAMES CITY, PA, 16734",157841021,"R"
22120,"111 DELTA BLUES","INDIANOLA","MS",38751,33.436421538,-90.643194847,120,"111 DELTA BLUES, INDIANOLA, MS, 38751","Match","Non_Exact","111 DELTA BLUES ST, INDIANOLA, MS, 38751",2735449,"R"
22121,"111 DEVONSHIRE CT","LAREDO","TX",78041,27.563810371,-99.495472401,121,"111 DEVONSHIRE CT, LAREDO, TX, 78041","Match","Exact","111 DEVONSHIRE CT, LAREDO, TX, 78041",21679245,"L"
22122,"111 DONCASTER ROAD","JOPPA","MD",21085,39.4135594470001,-76.3655274179999,122,"111 DONCASTER ROAD, JOPPA, MD, 21085","Match","Exact","111 DONCASTER RD, JOPPA, MD, 21085",191644145,"R"
22123,"111 DORNICK DRIVE","LIGONIER","PA",15658,NA,NA,123,"111 DORNICK DRIVE, LIGONIER, PA, 15658","No_Match",NA,NA,NA,NA
22124,"111 DOUVAINE COURT","THE WOODLANDS","TX",77382,30.1849723930001,-95.538618635,124,"111 DOUVAINE COURT, THE WOODLANDS, TX, 77382","Match","Exact","111 DOUVAINE CT, THE WOODLANDS, TX, 77382",79339926,"L"
22125,"111 DR FERMIN CALDERON BLVD","DEL RIO","TX",78840,29.365227744,-100.883284362,125,"111 DR FERMIN CALDERON BLVD, DEL RIO, TX, 78840","Match","Exact","111 DR FERMIN CALDERON BLVD, DEL RIO, TX, 78840",173575256,"L"
22126,"111 DRAHOS DR","ALTAMONT","NY",12009,42.711970959,-73.93844962,126,"111 DRAHOS DR, ALTAMONT, NY, 12009","Match","Exact","111 DRAHOS DR, ALTAMONT, NY, 12009",18362843,"R"
22127,"111 DUNCAN LANE","WINCHESTER","TN",37398,35.18641904,-86.1251499429999,127,"111 DUNCAN LANE, WINCHESTER, TN, 37398","Match","Exact","111 DUNCAN LN, WINCHESTER, TN, 37398",57973131,"R"
22128,"111 E 10TH AVE","N KANSAS CITY","MO",64116,39.126922559,-94.579600241,128,"111 E 10TH AVE, N KANSAS CITY, MO, 64116","Match","Exact","111 E 10TH AVE, N KANSAS CITY, MO, 64116",642650469,"R"
22129,"111 E 14TH STREET - 215","NEW YORK","NY",10003,40.734237627,-73.989406988,129,"111 E 14TH STREET - 215, NEW YORK, NY, 10003","Match","Non_Exact","111 E 14TH ST, NEW YORK, NY, 10003",639490743,"L"
22130,"111 E 16TH STREET APT 503","INDIANAPOLIS","IN",46202,NA,NA,130,"111 E 16TH STREET APT 503, INDIANAPOLIS, IN, 46202","No_Match",NA,NA,NA,NA
22131,"111 E 1ST ST","ELMHURST","IL",60126,41.8997518570001,-87.939499083,131,"111 E 1ST ST, ELMHURST, IL, 60126","Match","Exact","111 E 1ST ST, ELMHURST, IL, 60126",112545075,"L"
22132,"111 E 3RD ST","LANCASTER","TX",75146,32.5951538320001,-96.746901601,132,"111 E 3RD ST, LANCASTER, TX, 75146","Match","Exact","111 E THIRD ST, LANCASTER, TX, 75146",102989997,"L"
22133,"111 E 3RD STREET","LANCASTER","TX",75146,32.5951538320001,-96.746901601,133,"111 E 3RD STREET, LANCASTER, TX, 75146","Match","Exact","111 E THIRD ST, LANCASTER, TX, 75146",102989997,"L"
22134,"111 E 48TH STREET","GARDEN CITY","ID",83714,43.639800522,-116.261071299,134,"111 E 48TH STREET, GARDEN CITY, ID, 83714","Match","Exact","111 E 48TH ST, GARDEN CITY, ID, 83714",117890254,"R"
22135,"111 E 7TH STREET APT 62","NEW YORK","NY",10009,40.7266745220001,-73.984988378,135,"111 E 7TH STREET APT 62, NEW YORK, NY, 10009","Match","Non_Exact","111 E 7TH ST, NEW YORK, NY, 10009",59654064,"L"
22136,"111 E BARKER ST","TUSCOLA","IL",61953,39.8044041480001,-88.286758777,136,"111 E BARKER ST, TUSCOLA, IL, 61953","Match","Exact","111 E BARKER ST, TUSCOLA, IL, 61953",606285392,"L"
22137,"111 E BRIARWOOD DR","DAVIS","OK",73030,34.4670676110001,-97.129371006,137,"111 E BRIARWOOD DR, DAVIS, OK, 73030","Match","Exact","111 E BRIARWOOD DR, DAVIS, OK, 73030",58467452,"L"
22138,"111 E BROADWAY ST SUITE A","NORTH BALTIMORE","OH",45872,NA,NA,138,"111 E BROADWAY ST SUITE A, NORTH BALTIMORE, OH, 45872","Tie",NA,NA,NA,NA
22139,"111 E BURLESON ST","MARSHALL","TX",75670,32.5475463060001,-94.3671255469999,139,"111 E BURLESON ST, MARSHALL, TX, 75670","Match","Exact","111 E BURLESON ST, MARSHALL, TX, 75670",141174093,"R"
22140,"111 E CARSON STREET  STE 8-76","CARSON","CA",90745,NA,NA,140,"111 E CARSON STREET  STE 8-76, CARSON, CA, 90745","Tie",NA,NA,NA,NA
22141,"111 E COMMERCIAL AVE UNIT 4","ANACONDA","MT",59711,NA,NA,141,"111 E COMMERCIAL AVE UNIT 4, ANACONDA, MT, 59711","Tie",NA,NA,NA,NA
22142,"111 E DIVISION STREET","WATERTOWN","NY",13601,NA,NA,142,"111 E DIVISION STREET, WATERTOWN, NY, 13601","Tie",NA,NA,NA,NA
22143,"111 E DUNLAP AVE 1-281","PHOENIX","AZ",85020,33.5677432250001,-112.072494003,143,"111 E DUNLAP AVE 1-281, PHOENIX, AZ, 85020","Match","Non_Exact","111 E DUNLAP AVE, PHOENIX, AZ, 85020",128206467,"R"
22144,"111 E DUNLAP AVE 1-293","PHOENIX","AZ",85020,33.5677432250001,-112.072494003,144,"111 E DUNLAP AVE 1-293, PHOENIX, AZ, 85020","Match","Non_Exact","111 E DUNLAP AVE, PHOENIX, AZ, 85020",128206467,"R"
22145,"111 E DUNLAP AVE STE 1-149","PHOENIX","AZ",85020,33.5677432250001,-112.072494003,145,"111 E DUNLAP AVE STE 1-149, PHOENIX, AZ, 85020","Match","Non_Exact","111 E DUNLAP AVE, PHOENIX, AZ, 85020",128206467,"R"
22146,"111 E GISH ROAD","SAN JOSE","CA",95112,37.3628581230001,-121.907554999,146,"111 E GISH ROAD, SAN JOSE, CA, 95112","Match","Exact","111 E GISH RD, SAN JOSE, CA, 95112",122906833,"L"
22147,"111 E HAZEL ST","MONETT","MO",65708,36.903113385,-93.926682375,147,"111 E HAZEL ST, MONETT, MO, 65708","Match","Exact","111 E HAZEL ST, MONETT, MO, 65708",49406866,"R"
22148,"111 E HIGH ST E","GLASSBORO","NJ",8028,39.7021254810001,-75.1092158229999,148,"111 E HIGH ST E, GLASSBORO, NJ, 8028","Match","Exact","111 HIGH ST E, GLASSBORO, NJ, 08028",134589325,"L"
22149,"111 E KIRBY ST","DETROIT","MI",48202,42.3604895880001,-83.0652463759999,149,"111 E KIRBY ST, DETROIT, MI, 48202","Match","Exact","111 E KIRBY ST, DETROIT, MI, 48202",95477453,"L"
22150,"111 E KIRBY STREET","DETROIT","MI",48202,42.3604895880001,-83.0652463759999,150,"111 E KIRBY STREET, DETROIT, MI, 48202","Match","Exact","111 E KIRBY ST, DETROIT, MI, 48202",95477453,"L"
22151,"111 E KIRBY","DETROIT","MI",48202,42.3604895880001,-83.0652463759999,151,"111 E KIRBY, DETROIT, MI, 48202","Match","Non_Exact","111 E KIRBY ST, DETROIT, MI, 48202",95477453,"L"
22152,"111 E KNIGHT STREET SUITE A","EATON RAPIDS","MI",48827,NA,NA,152,"111 E KNIGHT STREET SUITE A, EATON RAPIDS, MI, 48827","Tie",NA,NA,NA,NA
22153,"111 E LAKE MARY BLVD STE 107","SANFORD","FL",32773,NA,NA,153,"111 E LAKE MARY BLVD STE 107, SANFORD, FL, 32773","Tie",NA,NA,NA,NA
22154,"111 E LOCUST STREET SUITE 315A","ANGLETON","TX",77515,NA,NA,154,"111 E LOCUST STREET SUITE 315A, ANGLETON, TX, 77515","Tie",NA,NA,NA,NA
22155,"111 E MAIN ST","OAK CREEK","CO",80467,40.2759929040001,-106.958815776,155,"111 E MAIN ST, OAK CREEK, CO, 80467","Match","Non_Exact","111 W MAIN ST, OAK CREEK, CO, 80467",105990267,"R"
22156,"111 E MASON ST","MABANK","TX",75147,32.365460657,-96.100931365,156,"111 E MASON ST, MABANK, TX, 75147","Match","Exact","111 E MASON ST, MABANK, TX, 75147",123731991,"R"
22157,"111 E MCCARTY STREET","INDIANAPOLIS","IN",46225,39.7564635750001,-86.156083187,157,"111 E MCCARTY STREET, INDIANAPOLIS, IN, 46225","Match","Exact","111 E MCCARTY ST, INDIANAPOLIS, IN, 46225",647260209,"R"
22158,"111 E MONUMENT AVE 401","KISSIMMEE","FL",34741,NA,NA,158,"111 E MONUMENT AVE 401, KISSIMMEE, FL, 34741","Tie",NA,NA,NA,NA
22159,"111 E SOUTHERN AVE UNIT 15411","COVINGTON","KY",41015,NA,NA,159,"111 E SOUTHERN AVE UNIT 15411, COVINGTON, KY, 41015","Tie",NA,NA,NA,NA
22160,"111 E TAYLOR ST  SUITE 120  MC8520","PHOENIX","AZ",85004,33.4534890690001,-112.072329678,160,"111 E TAYLOR ST  SUITE 120  MC8520, PHOENIX, AZ, 85004","Match","Non_Exact","111 E TAYLOR ST, PHOENIX, AZ, 85004",128213438,"R"
22161,"111 E TAYLOR ST STE 120  MC8520","PHOENIX","AZ",85004,33.4534890690001,-112.072329678,161,"111 E TAYLOR ST STE 120  MC8520, PHOENIX, AZ, 85004","Match","Non_Exact","111 E TAYLOR ST, PHOENIX, AZ, 85004",128213438,"R"
22162,"111 E UNION ST SUITE 100","SOMERSET","PA",15501,NA,NA,162,"111 E UNION ST SUITE 100, SOMERSET, PA, 15501","Tie",NA,NA,NA,NA
22163,"111 E WACKER DRIVE - SUITE 2800","CHICAGO","IL",60601,NA,NA,163,"111 E WACKER DRIVE - SUITE 2800, CHICAGO, IL, 60601","Tie",NA,NA,NA,NA
22164,"111 E WACKER DRIVE SUITE 2800","CHICAGO","IL",60601,NA,NA,164,"111 E WACKER DRIVE SUITE 2800, CHICAGO, IL, 60601","Tie",NA,NA,NA,NA
22165,"111 E WISCONSIN AVE  SUITE 1800","MILWAUKEE","WI",53202,43.038540293,-87.909659532,165,"111 E WISCONSIN AVE  SUITE 1800, MILWAUKEE, WI, 53202","Match","Non_Exact","111 E WISCONSIN AVE, MILWAUKEE, WI, 53202",77744619,"R"
22166,"111 EAGLE RIDGE WAY","NANUET","NY",10954,41.115132429,-74.020247207,166,"111 EAGLE RIDGE WAY, NANUET, NY, 10954","Match","Exact","111 EAGLE RIDGE WAY, NANUET, NY, 10954",626726088,"L"
22167,"111 EAST 210TH STREET","BRONX","NY",10467,40.879945928,-73.880789896,167,"111 EAST 210TH STREET, BRONX, NY, 10467","Match","Exact","111 E 210TH ST, BRONX, NY, 10467",639349001,"L"
22168,"111 EAST 21ST STREET UNIT B1","BROOKLYN","NY",11226,40.652006084,-73.960310329,168,"111 EAST 21ST STREET UNIT B1, BROOKLYN, NY, 11226","Match","Exact","111 E 21ST ST, BROOKLYN, NY, 11226",59103076,"L"
22169,"111 EAST 50TH STREET D","KANSAS CITY","MO",64112,39.0366220120001,-94.585894975,169,"111 EAST 50TH STREET D, KANSAS CITY, MO, 64112","Match","Exact","111 E 50TH ST, KANSAS CITY, MO, 64112",91448167,"R"
22170,"111 EAST CHESAPEAKE STREET","TULSA","OK",73019,NA,NA,170,"111 EAST CHESAPEAKE STREET, TULSA, OK, 73019","No_Match",NA,NA,NA,NA
22171,"111 EAST CHURCHILL ST","BALTIMORE","MD",21230,39.279471185,-76.612429471,171,"111 EAST CHURCHILL ST, BALTIMORE, MD, 21230","Match","Exact","111 E CHURCHILL ST, BALTIMORE, MD, 21230",206421118,"R"
22172,"111 EAST COURT STREET SUITE 3D","FLINT","MI",48502,43.0126456300001,-83.6875930739999,172,"111 EAST COURT STREET SUITE 3D, FLINT, MI, 48502","Match","Exact","111 E COURT ST, FLINT, MI, 48502",69568130,"L"
22173,"111 EAST FRONT STREET","BURLINGTON","NC",27215,36.0936917990001,-79.436604057,173,"111 EAST FRONT STREET, BURLINGTON, NC, 27215","Match","Exact","111 E FRONT ST, BURLINGTON, NC, 27215",71663703,"R"
22174,"111 EAST HILO STREET","NAPLES","FL",34113,25.982504793,-81.72799255,174,"111 EAST HILO STREET, NAPLES, FL, 34113","Match","Exact","111 E HILO ST, NAPLES, FL, 34113",115122127,"R"
22175,"111 EAST MAGNOLIA STREE","ANGLETON","TX",77515,29.1665208640001,-95.431696839,175,"111 EAST MAGNOLIA STREE, ANGLETON, TX, 77515","Match","Non_Exact","111 E MAGNOLIA ST, ANGLETON, TX, 77515",116578350,"L"
22176,"111 EAST MAIN STREET","DOTHAN","AL",36301,31.22354355,-85.391887212,176,"111 EAST MAIN STREET, DOTHAN, AL, 36301","Match","Exact","111 E MAIN ST, DOTHAN, AL, 36301",101215385,"L"
22177,"111 EAST MAIN STREET","HORSE CAVE","KY",42749,NA,NA,177,"111 EAST MAIN STREET, HORSE CAVE, KY, 42749","Tie",NA,NA,NA,NA
22178,"111 EAST MAIN STREET","MINERAL","IL",61344,41.382580391,-89.8377464389999,178,"111 EAST MAIN STREET, MINERAL, IL, 61344","Match","Non_Exact","111 MAIN ST, MINERAL, IL, 61344",8475280,"R"
22179,"111 EAST MARKET STREET","POTTSVILLE","PA",17901,40.685773936,-76.1955266809999,179,"111 EAST MARKET STREET, POTTSVILLE, PA, 17901","Match","Exact","111 E MARKET ST, POTTSVILLE, PA, 17901",70947564,"R"
22180,"111 EAST NINE MILE","HAZEL PARK","MI",48030,42.4614185140001,-83.103559026,180,"111 EAST NINE MILE, HAZEL PARK, MI, 48030","Match","Non_Exact","111 E 9 MILE RD, HAZEL PARK, MI, 48030",69807290,"L"
22181,"111 EAST OLD SETTLERS RD","ROUND ROCK","TX",76664,NA,NA,181,"111 EAST OLD SETTLERS RD, ROUND ROCK, TX, 76664","No_Match",NA,NA,NA,NA
22182,"111 EAST WINTER PARK STREET","ORLANDO","FL",32804,28.5749703750001,-81.376908379,182,"111 EAST WINTER PARK STREET, ORLANDO, FL, 32804","Match","Exact","111 E WINTER PARK ST, ORLANDO, FL, 32804",637815687,"L"
22183,"111 EAST WISCONSIN AVENUE STE 1800","MILWAUKEE","WI",53202,43.0385404720001,-87.909660677,183,"111 EAST WISCONSIN AVENUE STE 1800, MILWAUKEE, WI, 53202","Match","Exact","111 E WISCONSIN AVE, MILWAUKEE, WI, 53202",77744619,"R"
22184,"111 EIGHTH AVENUE 13TH FLOOR","NEW YORK","NY",10011,40.740720851,-74.001823915,184,"111 EIGHTH AVENUE 13TH FLOOR, NEW YORK, NY, 10011","Match","Exact","111 8TH AVE, NEW YORK, NY, 10011",59659957,"L"
22185,"111 ELDERS POND CIRCLE APT 11H","COLUMBIA","SC",29229,34.1495846490001,-80.906613982,185,"111 ELDERS POND CIRCLE APT 11H, COLUMBIA, SC, 29229","Match","Exact","111 ELDERS POND CIR, COLUMBIA, SC, 29229",635474427,"R"
22186,"111 ELMWOOD ROAD","SOUTH SALEM","NY",10590,41.240723573,-73.516847759,186,"111 ELMWOOD ROAD, SOUTH SALEM, NY, 10590","Match","Exact","111 ELMWOOD RD, SOUTH SALEM, NY, 10590",139820553,"R"
22187,"111 ENGLISH VILLAGE RD 301","MANCHESTER","NH",3102,43.010030783,-71.485882401,187,"111 ENGLISH VILLAGE RD 301, MANCHESTER, NH, 3102","Match","Exact","111 ENGLISH VILLAGE RD, MANCHESTER, NH, 03102",641485068,"R"
22188,"111 FAIRFIELD DRIVE","HATTIESURG","MS",39402,31.321845281,-89.367597105,188,"111 FAIRFIELD DRIVE, HATTIESURG, MS, 39402","Match","Non_Exact","111 FAIRFIELD DR, HATTIESBURG, MS, 39402",505444,"R"
22189,"111 FAIRRIDGE RD","JOHNSON CITY","TN",37604,36.323055244,-82.405434473,189,"111 FAIRRIDGE RD, JOHNSON CITY, TN, 37604","Match","Exact","111 FAIRRIDGE RD, JOHNSON CITY, TN, 37604",127948871,"L"
22190,"111 FALLS AVENUE","WABASH","IN",46992,40.7996887570001,-85.827129097,190,"111 FALLS AVENUE, WABASH, IN, 46992","Match","Exact","111 FALLS AVE, WABASH, IN, 46992",15529655,"R"
22191,"111 FLINN ST","BATAVIA","IL",60510,NA,NA,191,"111 FLINN ST, BATAVIA, IL, 60510","No_Match",NA,NA,NA,NA
22192,"111 FLORENCE STREET","COLUMBUS","MS",39701,33.4950148500001,-88.3717637619999,192,"111 FLORENCE STREET, COLUMBUS, MS, 39701","Match","Non_Exact","111 FLORENCE ST, COLUMBUS, MS, 39702",742135,"L"
22193,"111 FORD ST","CHESAPEAKE","VA",23323,36.770843251,-76.3112520559999,193,"111 FORD ST, CHESAPEAKE, VA, 23323","Match","Exact","111 FORD ST, CHESAPEAKE, VA, 23323",121769513,"R"
22194,"111 FOREST GRV S","PRINCETON","TX",75407,33.1881347400001,-96.533176125,194,"111 FOREST GRV S, PRINCETON, TX, 75407","Match","Exact","111 FOREST GROVE S, PRINCETON, TX, 75407",210516144,"R"
22195,"111 FOREST LAKE DRIVE N","BYRAM TOWNSHIP","NJ",7821,40.9766649600001,-74.728835392,195,"111 FOREST LAKE DRIVE N, BYRAM TOWNSHIP, NJ, 7821","Match","Exact","111 FOREST LAKE DR N, BYRAM TOWNSHIP, NJ, 07821",98023709,"L"
22196,"111 FOREST ROAD","VALLEY STREAM","NY",11581,40.6587916230001,-73.723435084,196,"111 FOREST ROAD, VALLEY STREAM, NY, 11581","Match","Exact","111 FOREST RD, VALLEY STREAM, NY, 11581",147668452,"L"
22197,"111 FORSEN PARK ROAD","SUNRISE BEACH","MO",65079,38.128047849,-92.79523159,197,"111 FORSEN PARK ROAD, SUNRISE BEACH, MO, 65079","Match","Exact","111 FORSEN PARK RD, SUNRISE BEACH, MO, 65079",636239856,"L"
22198,"111 FOX RUN DR","MANDEVILLE","LA",70471,30.398960431,-90.061638565,198,"111 FOX RUN DR, MANDEVILLE, LA, 70471","Match","Exact","111 FOX RUN DR, MANDEVILLE, LA, 70471",111263239,"R"
22199,"111 FRANKLIN ROAD SE SUITE 333","ROANOKE","VA",24011,37.2695646130001,-79.938963931,199,"111 FRANKLIN ROAD SE SUITE 333, ROANOKE, VA, 24011","Match","Exact","111 FRANKLIN RD SE, ROANOKE, VA, 24011",62939857,"R"
22200,"111 FRANKLIN STREET","PITTSFIELD","ME",4967,44.7764608960001,-69.385460659,200,"111 FRANKLIN STREET, PITTSFIELD, ME, 4967","Match","Exact","111 FRANKLIN ST, PITTSFIELD, ME, 04967",124139841,"L"
22201,"111 FRIENDSHIP CHURCH ROAD","DELANO","TN",37325,35.253825722,-84.632521754,201,"111 FRIENDSHIP CHURCH ROAD, DELANO, TN, 37325","Match","Exact","111 FRIENDSHIP CHURCH RD, DELANO, TN, 37325",57639449,"L"
22202,"111 FRONTENAC FOREST DRIVE","SAINT LOUIS","MO",63131,38.6247588190001,-90.4301811399999,202,"111 FRONTENAC FOREST DRIVE, SAINT LOUIS, MO, 63131","Match","Non_Exact","111 FRONTENAC FOREST ST, SAINT LOUIS, MO, 63131",100193682,"L"
22203,"111 GAIL DR","LAPLACE","LA",70068,30.085700231,-90.464697988,203,"111 GAIL DR, LAPLACE, LA, 70068","Match","Non_Exact","111 GAIL DR, LA PLACE, LA, 70068",614108478,"R"
22204,"111 GAINSBOROUGH ST - SUITE 208","BOSTON","MA",2115,42.3424969690001,-71.089598139,204,"111 GAINSBOROUGH ST - SUITE 208, BOSTON, MA, 2115","Match","Exact","111 GAINSBOROUGH ST, BOSTON, MA, 02115",637166152,"R"
22205,"111 GARLAND STREET","SPRINGFIELD","MA",1118,42.0877321310001,-72.5332696409999,205,"111 GARLAND STREET, SPRINGFIELD, MA, 1118","Match","Exact","111 GARLAND ST, SPRINGFIELD, MA, 01118",4037081,"L"
22206,"111 GEIGER DRIVE","TEWKSBURY","MA",1876,42.5975447760001,-71.192323743,206,"111 GEIGER DRIVE, TEWKSBURY, MA, 1876","Match","Exact","111 GEIGER DR, TEWKSBURY, MA, 01876",87174287,"R"
22207,"111 GIFFORD AVENUE","JERSEY CITY","NJ",7304,40.722060255,-74.077220626,207,"111 GIFFORD AVENUE, JERSEY CITY, NJ, 7304","Match","Exact","111 GIFFORD AVE, JERSEY CITY, NJ, 07304",59604222,"L"
22208,"111 GLEASON STREET","GOUVERNEUR","NY",13642,44.3414724150001,-75.45812383,208,"111 GLEASON STREET, GOUVERNEUR, NY, 13642","Match","Exact","111 GLEASON ST, GOUVERNEUR, NY, 13642",155170390,"L"
22209,"111 GLEN DAVID DRIVE","PITTSBURGH","PA",15238,40.532085437,-79.914699188,209,"111 GLEN DAVID DRIVE, PITTSBURGH, PA, 15238","Match","Exact","111 GLEN DAVID DR, PITTSBURGH, PA, 15238",617242010,"L"
22210,"111 GLENN MEADOW COURT","GARNER","NC",27529,35.7066067040001,-78.631308496,210,"111 GLENN MEADOW COURT, GARNER, NC, 27529","Match","Exact","111 GLENN MEADOW CT, GARNER, NC, 27529",72538340,"L"
22211,"111 GRAND VALLEY AVE WEST","ORWELL","OH",44076,41.544827334,-80.862045199,211,"111 GRAND VALLEY AVE WEST, ORWELL, OH, 44076","Match","Non_Exact","111 GRAND VALLEY AVE, ORWELL, OH, 44076",117329049,"L"
22212,"111 GRANDVUE DR","BEAVER","DE",15009,NA,NA,212,"111 GRANDVUE DR, BEAVER, DE, 15009","No_Match",NA,NA,NA,NA
22213,"111 GREEN OAK LANE","PITTSBURGH","PA",15220,40.4023852110001,-80.0641622809999,213,"111 GREEN OAK LANE, PITTSBURGH, PA, 15220","Match","Exact","111 GREEN OAK LN, PITTSBURGH, PA, 15220",51629678,"L"
22214,"111 GREENBUSH RD","WARWICK","RI",2818,41.675613793,-71.48103603,214,"111 GREENBUSH RD, WARWICK, RI, 2818","Match","Non_Exact","111 GREEN BUSH RD, EAST GREENWICH, RI, 02818",159169614,"R"
22215,"111 GUILDHALL ROAD","ROCHESTER","NY",14623,43.0721779630001,-77.5891721409999,215,"111 GUILDHALL ROAD, ROCHESTER, NY, 14623","Match","Exact","111 GUILDHALL RD, ROCHESTER, NY, 14623",14544410,"R"
22216,"111 HAMLET HILL ROAD UNIT 212","BALTIMORE","MD",21210,39.3569511600001,-76.645191344,216,"111 HAMLET HILL ROAD UNIT 212, BALTIMORE, MD, 21210","Match","Exact","111 HAMLET HILL RD, BALTIMORE, MD, 21210",206432515,"L"
22217,"111 HAMLET STREET SUITE 202","LOS ANGELES","CA",90042,34.116419529,-118.18506602,217,"111 HAMLET STREET SUITE 202, LOS ANGELES, CA, 90042","Match","Exact","111 HAMLET ST, LOS ANGELES, CA, 90042",141615054,"L"
22218,"111 HAMPTON AVE","GREENVILLE","SC",29601,34.853761858,-82.402579423,218,"111 HAMPTON AVE, GREENVILLE, SC, 29601","Match","Exact","111 HAMPTON AVE, GREENVILLE, SC, 29601",636713398,"L"
22219,"111 HARDWICKE LANE","LITTLE ELM","TX",75068,33.158924271,-96.938352853,219,"111 HARDWICKE LANE, LITTLE ELM, TX, 75068","Match","Exact","111 HARDWICKE LN, LITTLE ELM, TX, 75068",103350084,"L"
22220,"111 HARMONY LANE","FOREST","VA",24551,37.3439500470001,-79.3259066319999,220,"111 HARMONY LANE, FOREST, VA, 24551","Match","Exact","111 HARMONY LN, FOREST, VA, 24551",62663762,"R"
22221,"111 HARVEST RIDGE DRIVE","WINCHESTER","VA",22601,39.1588576980001,-78.195681532,221,"111 HARVEST RIDGE DRIVE, WINCHESTER, VA, 22601","Match","Exact","111 HARVEST RIDGE DR, WINCHESTER, VA, 22601",619151772,"L"
22222,"111 HARVEST WAY","CRANDALL","TX",75114,32.604937874,-96.4452694409999,222,"111 HARVEST WAY, CRANDALL, TX, 75114","Match","Exact","111 HARVEST WAY, CRANDALL, TX, 75114",627210500,"L"
22223,"111 HAYS HILL ROAD","CONWAY","AR",72032,35.1226599560001,-92.35427703,223,"111 HAYS HILL ROAD, CONWAY, AR, 72032","Match","Exact","111 HAYS HILL RD, CONWAY, AR, 72032",141065985,"L"
22224,"111 HEATHER LN","PANDORA","OH",45877,40.9532503090001,-83.962508997,224,"111 HEATHER LN, PANDORA, OH, 45877","Match","Exact","111 HEATHER LN, PANDORA, OH, 45877",208940967,"L"
22225,"111 HEKILI STREET  SUITE A 220","KAILUA","HI",96734,21.392316398,-157.743591343,225,"111 HEKILI STREET  SUITE A 220, KAILUA, HI, 96734","Match","Exact","111 HEKILI ST, KAILUA, HI, 96734",203240097,"R"
22226,"111 HEKILI STREET / 501 / SUITE 5A","KAILUA","HI",96734,21.392316398,-157.743591343,226,"111 HEKILI STREET / 501 / SUITE 5A, KAILUA, HI, 96734","Match","Exact","111 HEKILI ST, KAILUA, HI, 96734",203240097,"R"
22227,"111 HENFIELD AVENUE","CHERRY HILL","NJ",8003,39.882791309,-74.933601833,227,"111 HENFIELD AVENUE, CHERRY HILL, NJ, 8003","Match","Exact","111 HENFIELD AVE, CHERRY HILL, NJ, 08003",134363471,"L"
22228,"111 HERITAGE CT","VERSAILLES","OH",45380,40.2155808260001,-84.4737460009999,228,"111 HERITAGE CT, VERSAILLES, OH, 45380","Match","Exact","111 HERITAGE CT, VERSAILLES, OH, 45380",54547130,"L"
22229,"111 HERITAGE HOLLOW DR","FRANKLIN","NC",28734,35.178842026,-83.382662238,229,"111 HERITAGE HOLLOW DR, FRANKLIN, NC, 28734","Match","Exact","111 HERITAGE HOLLOW DR, FRANKLIN, NC, 28734",35498308,"R"
22230,"111 HERITAGE RESERVE STE 100","MENOMONEE FALLS","WI",53051,NA,NA,230,"111 HERITAGE RESERVE STE 100, MENOMONEE FALLS, WI, 53051","No_Match",NA,NA,NA,NA
22231,"111 HERON CT","BRANDON","MS",39047,32.380376846,-90.008175696,231,"111 HERON CT, BRANDON, MS, 39047","Match","Exact","111 HERON CT, BRANDON, MS, 39047",116906212,"R"
22232,"111 HERON CV","SHELTON","WA",98584,47.2247810320001,-122.916095101,232,"111 HERON CV, SHELTON, WA, 98584","Match","Non_Exact","111 E HERON COVE, SHELTON, WA, 98584",180863355,"L"
22233,"111 HICKORY HILL","HELENA","AR",72342,NA,NA,233,"111 HICKORY HILL, HELENA, AR, 72342","No_Match",NA,NA,NA,NA
22234,"111 HICKORY HOLLOW LANE","PORT MATILDA","PA",16870,40.772229096,-78.109101288,234,"111 HICKORY HOLLOW LANE, PORT MATILDA, PA, 16870","Match","Exact","111 HICKORY HOLLOW LN, PORT MATILDA, PA, 16870",50401522,"L"
22235,"111 HIGH SIERRA DR","EXETER","CA",93221,36.319185356,-119.087307693,235,"111 HIGH SIERRA DR, EXETER, CA, 93221","Match","Exact","111 HIGH SIERRA DR, EXETER, CA, 93221",202798646,"L"
22236,"111 HIGHWAY 164","LUCIEN","OK",73757,36.2754444920001,-97.452199731,236,"111 HIGHWAY 164, LUCIEN, OK, 73757","Match","Non_Exact","111 STATE HWY 164, LUCIEN, OK, 73757",154996580,"R"
22237,"111 HIGHWAY 70 EAST","DICKSON","TN",37055,36.0724764010001,-87.373799135,237,"111 HIGHWAY 70 EAST, DICKSON, TN, 37055","Match","Exact","111 HWY 70 E, DICKSON, TN, 37055",72766903,"L"
22238,"111 HILL SPUR","CALVERTON","NY",11933,40.898932039,-72.739065836,238,"111 HILL SPUR, CALVERTON, NY, 11933","Match","Non_Exact","111 HILL SPR, CALVERTON, NY, 11933",114022147,"L"
22239,"111 HOLLING DRIVE APT 2","FREDERICK","MD",21701,39.4309047890001,-77.402223423,239,"111 HOLLING DRIVE APT 2, FREDERICK, MD, 21701","Match","Exact","111 HOLLING DR, FREDERICK, MD, 21701",649139362,"L"
22240,"111 HOLLOW BROOK DRIVE","FLORISSANT","MO",63034,38.8158031340001,-90.2770732819999,240,"111 HOLLOW BROOK DRIVE, FLORISSANT, MO, 63034","Match","Exact","111 HOLLOW BROOK DR, FLORISSANT, MO, 63034",624620818,"R"
22241,"111 HONUHULA PLACE","KIHEI","HI",96753,20.7794918160001,-156.458776374,241,"111 HONUHULA PLACE, KIHEI, HI, 96753","Match","Non_Exact","111 HONUHULA ST, KIHEI, HI, 96753",624907410,"L"
22242,"111 HORST ROAD","BRANDON","FL",33510,27.9390362880001,-82.320213752,242,"111 HORST ROAD, BRANDON, FL, 33510","Match","Exact","111 HORST RD, BRANDON, FL, 33510",104594329,"R"
22243,"111 HOWARD BLVD  SUITE 100","MT ARLINGTON","NJ",7856,NA,NA,243,"111 HOWARD BLVD  SUITE 100, MT ARLINGTON, NJ, 7856","No_Match",NA,NA,NA,NA
22244,"111 HUNTINGTON AVE NINTH FLOOR","BOSTON","MA",2199,42.345870222,-71.081236647,244,"111 HUNTINGTON AVE NINTH FLOOR, BOSTON, MA, 2199","Match","Exact","111 HUNTINGTON AVE, BOSTON, MA, 02199",85728096,"R"
22245,"111 HUNTINGTON AVE","BOSTON","MA",2199,42.345870222,-71.081236647,245,"111 HUNTINGTON AVE, BOSTON, MA, 2199","Match","Exact","111 HUNTINGTON AVE, BOSTON, MA, 02199",85728096,"R"
22246,"111 HUNTINGTON ROAD","WORTHINGTON","MA",1098,42.4024432030001,-72.938323039,246,"111 HUNTINGTON ROAD, WORTHINGTON, MA, 1098","Match","Exact","111 HUNTINGTON RD, WORTHINGTON, MA, 01098",39860632,"L"
22247,"111 IMPERIAL WAY","MAUMELLE","AR",72113,34.87091285,-92.4135444469999,247,"111 IMPERIAL WAY, MAUMELLE, AR, 72113","Match","Exact","111 IMPERIAL WAY, MAUMELLE, AR, 72113",633266869,"R"
22248,"111 INTERVILLA AVE","WEST LAWN","PA",19609,40.3279584360001,-75.9975046,248,"111 INTERVILLA AVE, WEST LAWN, PA, 19609","Match","Exact","111 INTERVILLA AVE, WEST LAWN, PA, 19609",80372186,"L"
22249,"111 ISLETA BOULEVARD SW","ALBUQUERQUE","NM",87105,35.068261788,-106.666346241,249,"111 ISLETA BOULEVARD SW, ALBUQUERQUE, NM, 87105","Match","Exact","111 ISLETA BLVD SW, ALBUQUERQUE, NM, 87105",647324109,"R"
22250,"111 IVY CHASE LN","PEACHTREE CORNERS","GA",30092,33.9663453680001,-84.261992984,250,"111 IVY CHASE LN, PEACHTREE CORNERS, GA, 30092","Match","Exact","111 IVY CHASE LN, PEACHTREE CORNERS, GA, 30092",88933861,"L"
22251,"111 JACKSON ST","ORIENT","IL",62874,37.919961884,-88.97811611,251,"111 JACKSON ST, ORIENT, IL, 62874","Match","Exact","111 JACKSON ST, ORIENT, IL, 62874",92939682,"R"
22252,"111 JACKSON STREET","HAYWARD","CA",94544,37.658390051,-122.086391076,252,"111 JACKSON STREET, HAYWARD, CA, 94544","Match","Exact","111 JACKSON ST, HAYWARD, CA, 94544",633929076,"R"
22253,"111 JAMES ST","SMITHVILLE","MO",64089,39.373959601,-94.5863885099999,253,"111 JAMES ST, SMITHVILLE, MO, 64089","Match","Exact","111 JAMES ST, SMITHVILLE, MO, 64089",89769010,"R"
22254,"111 JOE WIMBERLEY BLVD","WIMBERLEY","TX",78676,30.0034991630001,-98.101825291,254,"111 JOE WIMBERLEY BLVD, WIMBERLEY, TX, 78676","Match","Exact","111 JOE WIMBERLEY BLVD, WIMBERLEY, TX, 78676",63832623,"L"
22255,"111 JOHN STREET SUITE 1720","NEW YORK","NY",10038,40.7076764330001,-74.005770293,255,"111 JOHN STREET SUITE 1720, NEW YORK, NY, 10038","Match","Exact","111 JOHN ST, NEW YORK, NY, 10038",59660480,"L"
22256,"111 JOHNSON ST","WOLF POINT","MT",59201,48.100417473,-105.637200866,256,"111 JOHNSON ST, WOLF POINT, MT, 59201","Match","Exact","111 JOHNSON ST, WOLF POINT, MT, 59201",167557008,"L"
22257,"111 JULIAN POND LANE","KERNERSVILLE","NC",27284,36.1403035480001,-80.066980342,257,"111 JULIAN POND LANE, KERNERSVILLE, NC, 27284","Match","Exact","111 JULIAN POND LN, KERNERSVILLE, NC, 27284",84678663,"L"
22258,"111 KATHY DRIVE","YARDLEY","PA",19067,40.2407039830001,-74.826538317,258,"111 KATHY DRIVE, YARDLEY, PA, 19067","Match","Exact","111 KATHY DR, YARDLEY, PA, 19067",134742149,"L"
22259,"111 KAYADEROSSERAS DR","BALLSTON SPA","NY",12020,43.037944587,-73.876510361,259,"111 KAYADEROSSERAS DR, BALLSTON SPA, NY, 12020","Match","Exact","111 KAYADEROSSERAS DR, BALLSTON SPA, NY, 12020",18783382,"R"
22260,"111 KENDALL OAKS DRIVE","BOERNE","TX",78006,29.82031255,-98.740962833,260,"111 KENDALL OAKS DRIVE, BOERNE, TX, 78006","Match","Exact","111 KENDALL OAKS DR, BOERNE, TX, 78006",102767566,"R"
22261,"111 KINDERKAMACK RD STE 303","RIVER EDGE","NJ",7661,NA,NA,261,"111 KINDERKAMACK RD STE 303, RIVER EDGE, NJ, 7661","No_Match",NA,NA,NA,NA
22262,"111 KLINE CT","COLUMBIA","SC",29223,34.0929211650001,-80.934568873,262,"111 KLINE CT, COLUMBIA, SC, 29223","Match","Exact","111 KLINE CT, COLUMBIA, SC, 29223",71825399,"L"
22263,"111 KNOLL RD","AMES","IA",50014,42.0286643900001,-93.643701978,263,"111 KNOLL RD, AMES, IA, 50014","Match","Exact","111 KNOLL RD, AMES, IA, 50014",649977855,"L"
22264,"111 LAKE HOLLINGSWORTH DRIVE","LAKELAND","FL",33801,28.0291508650001,-81.9470976229999,264,"111 LAKE HOLLINGSWORTH DRIVE, LAKELAND, FL, 33801","Match","Exact","111 LAKE HOLLINGSWORTH DR, LAKELAND, FL, 33801",104811801,"R"
22265,"111 LAMON STREET SUITE 127B","FAYETTEVILLE","NC",28301,35.0592054620001,-78.87594094,265,"111 LAMON STREET SUITE 127B, FAYETTEVILLE, NC, 28301","Match","Exact","111 LAMON ST, FAYETTEVILLE, NC, 28301",64201745,"L"
22266,"111 LAMPE DR 400 DANIELS HALL","RALEIGH","NC",27695,NA,NA,266,"111 LAMPE DR 400 DANIELS HALL, RALEIGH, NC, 27695","No_Match",NA,NA,NA,NA
22267,"111 LANCEWOOD ROAD","COLUMBIA","SC",29210,34.0300915440001,-81.094690725,267,"111 LANCEWOOD ROAD, COLUMBIA, SC, 29210","Match","Exact","111 LANCEWOOD RD, COLUMBIA, SC, 29210",71817660,"L"
22268,"111 LANGDON BEND","MADISON","MS",39110,32.5186935240001,-90.189171484,268,"111 LANGDON BEND, MADISON, MS, 39110","Match","Exact","111 LANGDON BEND, MADISON, MS, 39110",629308194,"L"
22269,"111 LARKIN LANE APT 1","GREENVILLE","NC",27834,35.5809180970001,-77.389803399,269,"111 LARKIN LANE APT 1, GREENVILLE, NC, 27834","Match","Exact","111 LARKIN LN, GREENVILLE, NC, 27834",80042635,"L"
22270,"111 LAWSON RD","SCITUATE","MA",2066,42.2079661130001,-70.7560874229999,270,"111 LAWSON RD, SCITUATE, MA, 2066","Match","Exact","111 LAWSON RD, SCITUATE, MA, 02066",636135255,"R"
22271,"111 LEGION ROAD","BLOOMSBURG","PA",17815,40.953809236,-76.475787865,271,"111 LEGION ROAD, BLOOMSBURG, PA, 17815","Match","Exact","111 LEGION RD, BLOOMSBURG, PA, 17815",59240280,"L"
22272,"111 LEON AVENUE","NORWOOD","PA",19074,39.8939631100001,-75.2991923069999,272,"111 LEON AVENUE, NORWOOD, PA, 19074","Match","Exact","111 LEON AVE, NORWOOD, PA, 19074",134884088,"R"
22273,"111 LEXINGTON ROAD SUITE 2","SHIRLEY","NY",11951,NA,NA,273,"111 LEXINGTON ROAD SUITE 2, SHIRLEY, NY, 11951","No_Match",NA,NA,NA,NA
22274,"111 LEXINGTON ROAD","SHIRLEY","NY",11967,40.787887572,-72.8596573459999,274,"111 LEXINGTON ROAD, SHIRLEY, NY, 11967","Match","Non_Exact","111 LEXINGTON RD N, SHIRLEY, NY, 11967",114019283,"L"
22275,"111 LIBERTY STREET STE 101","COLUMBUS","OH",43215,39.951023897,-83.002172924,275,"111 LIBERTY STREET STE 101, COLUMBUS, OH, 43215","Match","Exact","111 LIBERTY ST, COLUMBUS, OH, 43215",642841314,"L"
22276,"111 LIBERTY WOODS CT","JOHNSTOWN","OH",43031,40.150192448,-82.615821309,276,"111 LIBERTY WOODS CT, JOHNSTOWN, OH, 43031","Match","Exact","111 LIBERTY WOODS CT, JOHNSTOWN, OH, 43031",624569017,"L"
22277,"111 LINCOLN ROAD","MIAMI BEACH","FL",33139,25.790752259,-80.1294262,277,"111 LINCOLN ROAD, MIAMI BEACH, FL, 33139","Match","Exact","111 LINCOLN RD, MIAMI BEACH, FL, 33139",116020550,"R"
22278,"111 LINDA AVENUE","LUCASVILLE","OH",45648,38.8850630540001,-82.9781565279999,278,"111 LINDA AVENUE, LUCASVILLE, OH, 45648","Match","Exact","111 LINDA AVE, LUCASVILLE, OH, 45648",55124539,"L"
22279,"111 LINK DRIVE","SIKESTON","MO",63801,36.890637956,-89.576055491,279,"111 LINK DRIVE, SIKESTON, MO, 63801","Match","Exact","111 LINK DR, SIKESTON, MO, 63801",38939479,"R"
22280,"111 LINN STREET","MARSHALLTOWN","IA",50158,NA,NA,280,"111 LINN STREET, MARSHALLTOWN, IA, 50158","Tie",NA,NA,NA,NA
22281,"111 LIVE OAK LANE","SPICEWOOD","TX",78669,30.437884556,-98.167370471,281,"111 LIVE OAK LANE, SPICEWOOD, TX, 78669","Match","Exact","111 LIVE OAK LN, SPICEWOOD, TX, 78669",146497477,"L"
22282,"111 LOCUS ST B50 APT C2","WOBURN","MA",1801,NA,NA,282,"111 LOCUS ST B50 APT C2, WOBURN, MA, 1801","No_Match",NA,NA,NA,NA
22283,"111 LOCUST ST-TH 108","WOBURN","MA",1801,42.475777513,-71.178806569,283,"111 LOCUST ST-TH 108, WOBURN, MA, 1801","Match","Non_Exact","111 LOCUST ST, WOBURN, MA, 01801",87121875,"R"
22284,"111 LORD BOULEVARD","LAFAYETTE","LA",70503,30.1312426160001,-92.1049090989999,284,"111 LORD BOULEVARD, LAFAYETTE, LA, 70503","Match","Exact","111 LORD BLVD, LAFAYETTE, LA, 70503",85642181,"L"
22285,"111 LOWNDES HILL ROAD","GREENVILLE","SC",29607,34.854233161,-82.376225967,285,"111 LOWNDES HILL ROAD, GREENVILLE, SC, 29607","Match","Exact","111 LOWNDES HILL RD, GREENVILLE, SC, 29607",38357871,"L"
22286,"111 LUCY STREET","THOMASVILLE","GA",31792,30.831200187,-83.966962278,286,"111 LUCY STREET, THOMASVILLE, GA, 31792","Match","Exact","111 LUCY ST, THOMASVILLE, GA, 31792",83103360,"R"
22287,"111 LYRAE DRIVE","GETZVILLE","NY",14068,43.032168835,-78.7420100109999,287,"111 LYRAE DRIVE, GETZVILLE, NY, 14068","Match","Exact","111 LYRAE DR, GETZVILLE, NY, 14068",48337119,"R"
22288,"111 MAIDEN LANE","LEXINGTON","SC",29072,33.9809707370001,-81.237820326,288,"111 MAIDEN LANE, LEXINGTON, SC, 29072","Match","Exact","111 MAIDEN LN, LEXINGTON, SC, 29072",70063250,"R"
22289,"111 MAIN ST  PO BOX 661","NASHUA","IA",50658,42.954250976,-92.53630051,289,"111 MAIN ST  PO BOX 661, NASHUA, IA, 50658","Match","Exact","111 MAIN ST, NASHUA, IA, 50658",9733698,"R"
22290,"111 MAIN ST PO BOX 213","MAXWELL","IA",50161,41.887902205,-93.399621655,290,"111 MAIN ST PO BOX 213, MAXWELL, IA, 50161","Match","Exact","111 MAIN ST, MAXWELL, IA, 50161",65944151,"R"
22291,"111 MAIN ST","MAXWELL","IA",50161,41.887902205,-93.399621655,291,"111 MAIN ST, MAXWELL, IA, 50161","Match","Exact","111 MAIN ST, MAXWELL, IA, 50161",65944151,"R"
22292,"111 MAIN STREET STE 1","AMESBURY","MA",1913,42.8544937610001,-70.933043147,292,"111 MAIN STREET STE 1, AMESBURY, MA, 1913","Match","Exact","111 MAIN ST, AMESBURY, MA, 01913",86619461,"R"
22293,"111 MAINE AVE","CHERRY HILL","NJ",8002,39.9169865220001,-75.0133754349999,293,"111 MAINE AVE, CHERRY HILL, NJ, 8002","Match","Exact","111 MAINE AVE, CHERRY HILL, NJ, 08002",134354749,"R"
22294,"111 MAJORCA AVENUE","CORAL GABLES","FL",33134,25.7552800770001,-80.2572000649999,294,"111 MAJORCA AVENUE, CORAL GABLES, FL, 33134","Match","Exact","111 MAJORCA AVE, CORAL GABLES, FL, 33134",116265558,"R"
22295,"111 MAPLE RIDGE ROAD","REISTERSTOWN","MD",21136,39.4694678070001,-76.832163322,295,"111 MAPLE RIDGE ROAD, REISTERSTOWN, MD, 21136","Match","Exact","111 MAPLE RIDGE RD, REISTERSTOWN, MD, 21136",633842016,"L"
22296,"111 MAPLEWOOD DRIVE","LAFAYETTE","LA",70503,30.1806198720001,-92.0686598349999,296,"111 MAPLEWOOD DRIVE, LAFAYETTE, LA, 70503","Match","Exact","111 MAPLEWOOD DR, LAFAYETTE, LA, 70503",85612806,"L"
22297,"111 MARKET STREET","PETERSTOWN","WV",24963,37.39709731,-80.798971041,297,"111 MARKET STREET, PETERSTOWN, WV, 24963","Match","Exact","111 MARKET ST, PETERSTOWN, WV, 24963",647685540,"R"
22298,"111 MARQUEZ PL STE 109","PACIFIC PALISADES","CA",90272,34.041648476,-118.549093195,298,"111 MARQUEZ PL STE 109, PACIFIC PALISADES, CA, 90272","Match","Exact","111 MARQUEZ PL, PACIFIC PALISADES, CA, 90272",141557581,"R"
22299,"111 MARQUEZ PL STE 207","PACIFIC PALISADES","CA",90272,34.041648476,-118.549093195,299,"111 MARQUEZ PL STE 207, PACIFIC PALISADES, CA, 90272","Match","Exact","111 MARQUEZ PL, PACIFIC PALISADES, CA, 90272",141557581,"R"
22300,"111 MAY HILL ROAD","MONSON","MA",1057,42.05843903,-72.3357110169999,300,"111 MAY HILL ROAD, MONSON, MA, 1057","Match","Exact","111 MAY HILL RD, MONSON, MA, 01057",4014763,"R"
22301,"111 MCDONALD DR","AMES","IA",50014,42.02316216,-93.671155029,301,"111 MCDONALD DR, AMES, IA, 50014","Match","Exact","111 MCDONALD DR, AMES, IA, 50014",638634816,"R"
22302,"111 MEADOW ST","WOODSTOCK","GA",30188,34.0888348450001,-84.513670024,302,"111 MEADOW ST, WOODSTOCK, GA, 30188","Match","Exact","111 MEADOW ST, WOODSTOCK, GA, 30188",68840482,"L"
22303,"111 MEADOWRUE LANE","WENONAH","NJ",8090,39.7923382330001,-75.1362475569999,303,"111 MEADOWRUE LANE, WENONAH, NJ, 8090","Match","Exact","111 MEADOWRUE LN, WENONAH, NJ, 08090",134603801,"L"
22304,"111 MENDEL DRIVE","SMITHFIELD","NC",27577,35.5380273910001,-78.4518466219999,304,"111 MENDEL DRIVE, SMITHFIELD, NC, 27577","Match","Exact","111 MENDEL DR, SMITHFIELD, NC, 27577",26554854,"L"
22305,"111 METAIRIE COURT","METAIRIE","LA",70001,29.987523921,-90.1487832559999,305,"111 METAIRIE COURT, METAIRIE, LA, 70001","Match","Exact","111 METAIRIE CT, METAIRIE, LA, 70001",93503084,"L"
22306,"111 METAIRIE CT","METAIRIE","LA",70001,29.987523921,-90.1487832559999,306,"111 METAIRIE CT, METAIRIE, LA, 70001","Match","Exact","111 METAIRIE CT, METAIRIE, LA, 70001",93503084,"L"
22307,"111 MICHELLE DRIVE","SANTA FE","NM",87501,35.697488192,-105.958707531,307,"111 MICHELLE DRIVE, SANTA FE, NM, 87501","Match","Exact","111 MICHELLE DR, SANTA FE, NM, 87501",169396986,"L"
22308,"111 MID HILL RD","GREENTOWN","PA",18426,41.368144369,-75.2807233079999,308,"111 MID HILL RD, GREENTOWN, PA, 18426","Match","Exact","111 MID HILL RD, GREENTOWN, PA, 18426",191396134,"L"
22309,"111 MIDDLE STREET","WEYMOUTH","MA",2190,NA,NA,309,"111 MIDDLE STREET, WEYMOUTH, MA, 2190","No_Match",NA,NA,NA,NA
22310,"111 MONARCH CT","WAXAHACHIE","TX",75165,32.4625575110001,-96.820845064,310,"111 MONARCH CT, WAXAHACHIE, TX, 75165","Match","Exact","111 MONARCH CT, WAXAHACHIE, TX, 75165",608420134,"L"
22311,"111 MONROE VIEW TRAIL","SANFORD","FL",32771,28.8195338400001,-81.291928175,311,"111 MONROE VIEW TRAIL, SANFORD, FL, 32771","Match","Exact","111 MONROE VIEW TRL, SANFORD, FL, 32771",630180184,"L"
22312,"111 MOREDUN RD","PHILADELPHIA","PA",19115,40.093430707,-75.067019246,312,"111 MOREDUN RD, PHILADELPHIA, PA, 19115","Match","Exact","111 MOREDUN RD, PHILADELPHIA, PA, 19115",131414627,"L"
22313,"111 MOUNTAIN AVE","PRINCETON","NJ",8540,40.356380598,-74.673524518,313,"111 MOUNTAIN AVE, PRINCETON, NJ, 8540","Match","Exact","111 MOUNTAIN AVE, PRINCETON, NJ, 08540",60170536,"R"
22314,"111 MULBERRY STREET APT 2P","NEWARK","NJ",7102,40.7352949250001,-74.1689962299999,314,"111 MULBERRY STREET APT 2P, NEWARK, NJ, 7102","Match","Exact","111 MULBERRY ST, NEWARK, NJ, 07102",636218816,"R"
22315,"111 MULBERRY STREET","NEWARK","NJ",7102,40.7352949250001,-74.1689962299999,315,"111 MULBERRY STREET, NEWARK, NJ, 7102","Match","Exact","111 MULBERRY ST, NEWARK, NJ, 07102",636218816,"R"
22316,"111 MURRAY FORK","FAYETTEVILLE","NC",28314,35.077748236,-78.992397146,316,"111 MURRAY FORK, FAYETTEVILLE, NC, 28314","Match","Non_Exact","111 MURRAY FORK DR, FAYETTEVILLE, NC, 28314",64194512,"L"
22317,"111 N 12TH ST UNIT 1406","TAMPA","FL",33602,NA,NA,317,"111 N 12TH ST UNIT 1406, TAMPA, FL, 33602","Tie",NA,NA,NA,NA
22318,"111 N 30TH ST STE 223","BILLINGS","MT",59101,NA,NA,318,"111 N 30TH ST STE 223, BILLINGS, MT, 59101","Tie",NA,NA,NA,NA
22319,"111 N 6TH ST -1542","ROCKFORD","IL",61110,NA,NA,319,"111 N 6TH ST -1542, ROCKFORD, IL, 61110","No_Match",NA,NA,NA,NA
22320,"111 N 6TH STREET","CAMDEN","NJ",8102,39.9455452830001,-75.119406974,320,"111 N 6TH STREET, CAMDEN, NJ, 8102","Match","Exact","111 N 6TH ST, CAMDEN, NJ, 08102",134341183,"L"
22321,"111 N 7TH ST   NUM 711","COEUR D ALENE","ID",83814,NA,NA,321,"111 N 7TH ST   NUM 711, COEUR D ALENE, ID, 83814","Tie",NA,NA,NA,NA
22322,"111 N ATLANTIC BLVD STE 247","MONTEREY PARK","CA",91754,NA,NA,322,"111 N ATLANTIC BLVD STE 247, MONTEREY PARK, CA, 91754","Tie",NA,NA,NA,NA
22323,"111 N ATLANTIC BLVD SUITE 105","MONTEREY PARK","CA",91745,NA,NA,323,"111 N ATLANTIC BLVD SUITE 105, MONTEREY PARK, CA, 91745","No_Match",NA,NA,NA,NA
22324,"111 N BARKSDALE STREET","MEMPHIS","TN",38104,35.1406847150001,-89.997817692,324,"111 N BARKSDALE STREET, MEMPHIS, TN, 38104","Match","Exact","111 N BARKSDALE ST, MEMPHIS, TN, 38104",607425408,"L"
22325,"111 N CENTER ST","PLYMOUTH","IN",46563,41.3399901010001,-86.310338588,325,"111 N CENTER ST, PLYMOUTH, IN, 46563","Match","Exact","111 N CENTER ST, PLYMOUTH, IN, 46563",7642239,"L"
22326,"111 N CHESTNUT STREET","ROCHESTER","NY",14604,NA,NA,326,"111 N CHESTNUT STREET, ROCHESTER, NY, 14604","Tie",NA,NA,NA,NA
22327,"111 N COUNTY FARM ROAD","WHEATON","IL",60187,41.869815214,-88.144496713,327,"111 N COUNTY FARM ROAD, WHEATON, IL, 60187","Match","Exact","111 COUNTY FARM RD, WHEATON, IL, 60187",112704271,"R"
22328,"111 N CROSSWELL","BRADLEY","IL",60915,41.1455071450001,-87.878196408,328,"111 N CROSSWELL, BRADLEY, IL, 60915","Match","Non_Exact","111 CROSWELL AVE, BRADLEY, IL, 60915",647417653,"L"
22329,"111 N DEWEY ST","PHILADELPHIA, PA","NJ",19139,NA,NA,329,"111 N DEWEY ST, PHILADELPHIA, PA, NJ, 19139","No_Match",NA,NA,NA,NA
22330,"111 N DODGE STREET","ALGONA","IA",50511,43.0694030290001,-94.2367093129999,330,"111 N DODGE STREET, ALGONA, IA, 50511","Match","Exact","111 N DODGE ST, ALGONA, IA, 50511",9838584,"L"
22331,"111 N EAST STREET","GETTYSBURG","SD",57442,45.011552179,-99.954203018,331,"111 N EAST STREET, GETTYSBURG, SD, 57442","Match","Exact","111 N EAST ST, GETTYSBURG, SD, 57442",198465675,"R"
22332,"111 N FRONTAGE RD/PO BOX 246","WAPATO","WA",98951,46.429725945,-120.419630042,332,"111 N FRONTAGE RD/PO BOX 246, WAPATO, WA, 98951","Match","Non_Exact","111 NORTH ST, WAPATO, WA, 98951",184969979,"R"
22333,"111 N GILBERT ROAD APT 2096","MESA","AZ",85203,33.4170855510001,-111.788216393,333,"111 N GILBERT ROAD APT 2096, MESA, AZ, 85203","Match","Non_Exact","111 N GILBERT RD, MESA, AZ, 85203",128924966,"R"
22334,"111 N LA BREA AVE  SUITE 608","INGLEWOOD","CA",90301,33.962579659,-118.353334173,334,"111 N LA BREA AVE  SUITE 608, INGLEWOOD, CA, 90301","Match","Non_Exact","111 N LA BREA AVE, INGLEWOOD, CA, 90301",241109657,"R"
22335,"111 N LA BREA AVE 406B","INGLEWOOD","CA",90301,33.962579659,-118.353334173,335,"111 N LA BREA AVE 406B, INGLEWOOD, CA, 90301","Match","Non_Exact","111 N LA BREA AVE, INGLEWOOD, CA, 90301",241109657,"R"
22336,"111 N LA BREA AVE STE 406B","INGLEWOOD","CA",90301,33.962579659,-118.353334173,336,"111 N LA BREA AVE STE 406B, INGLEWOOD, CA, 90301","Match","Non_Exact","111 N LA BREA AVE, INGLEWOOD, CA, 90301",241109657,"R"
22337,"111 N LAVERGNE AVE  APT 1","CHICAGO","IL",60644,NA,NA,337,"111 N LAVERGNE AVE  APT 1, CHICAGO, IL, 60644","Tie",NA,NA,NA,NA
22338,"111 N MAIN ST","MAYVILLE","WI",53050,43.494642866,-88.544103107,338,"111 N MAIN ST, MAYVILLE, WI, 53050","Match","Non_Exact","111 S MAIN ST, MAYVILLE, WI, 53050",53530436,"L"
22339,"111 N MAIN STREET","HARLAN","KY",40831,36.847231057,-83.322824071,339,"111 N MAIN STREET, HARLAN, KY, 40831","Match","Exact","111 N MAIN ST, HARLAN, KY, 40831",87889009,"L"
22340,"111 N MAIN STREET","LEXINGTON","TN",38351,35.6520746420001,-88.396457493,340,"111 N MAIN STREET, LEXINGTON, TN, 38351","Match","Exact","111 N MAIN ST, LEXINGTON, TN, 38351",607972460,"L"
22341,"111 N MAIN","CAPAC","MI",48014,43.0128589970001,-82.928446397,341,"111 N MAIN, CAPAC, MI, 48014","Match","Non_Exact","111 N MAIN ST, CAPAC, MI, 48014",110965352,"L"
22342,"111 N MARKET ST STE 300","SAN JOSE","CA",95113,NA,NA,342,"111 N MARKET ST STE 300, SAN JOSE, CA, 95113","Tie",NA,NA,NA,NA
22343,"111 N MARKET STREET SUITE 300","SAN JOSE","CA",95113,NA,NA,343,"111 N MARKET STREET SUITE 300, SAN JOSE, CA, 95113","Tie",NA,NA,NA,NA
22344,"111 N REUS ST","PENSACOLA","FL",32502,30.413577527,-87.2208327929999,344,"111 N REUS ST, PENSACOLA, FL, 32502","Match","Exact","111 N REUS ST, PENSACOLA, FL, 32502",93220354,"L"
22345,"111 N RUES ST","PENSACOLA","FL",32502,30.413577527,-87.2208327929999,345,"111 N RUES ST, PENSACOLA, FL, 32502","Match","Non_Exact","111 N REUS ST, PENSACOLA, FL, 32502",93220354,"L"
22346,"111 N SHAWNEE RIDGE CIR","SPRING","TX",77382,30.175593877,-95.551771236,346,"111 N SHAWNEE RIDGE CIR, SPRING, TX, 77382","Match","Exact","111 N SHAWNEE RIDGE CIR, SPRING, TX, 77382",79340456,"L"
22347,"111 N VISTA RD STE 1A POBOX 13032","SPOKANE VALLEY","WA",99213,NA,NA,347,"111 N VISTA RD STE 1A POBOX 13032, SPOKANE VALLEY, WA, 99213","No_Match",NA,NA,NA,NA
22348,"111 N WABASH AVE STE 801","CHICAGO","IL",60602,NA,NA,348,"111 N WABASH AVE STE 801, CHICAGO, IL, 60602","No_Match",NA,NA,NA,NA
22349,"111 N WABASH AVE SUITE 1318","CHICAGO","IL",60602,NA,NA,349,"111 N WABASH AVE SUITE 1318, CHICAGO, IL, 60602","No_Match",NA,NA,NA,NA
22350,"111 NANCY ST","HOUMA","LA",70364,29.627432056,-90.697066618,350,"111 NANCY ST, HOUMA, LA, 70364","Match","Exact","111 NANCY ST, HOUMA, LA, 70364",92051378,"L"
22351,"111 NAUTILUS DRIVE","MANAHAWKIN","NJ",8050,39.7225517620001,-74.280708589,351,"111 NAUTILUS DRIVE, MANAHAWKIN, NJ, 8050","Match","Exact","111 NAUTILUS DR, MANAHAWKIN, NJ, 08050",203704411,"R"
22352,"111 NE 1ST STREET SUITE 908","MIAMI","FL",33132,25.7751931340001,-80.191694598,352,"111 NE 1ST STREET SUITE 908, MIAMI, FL, 33132","Match","Non_Exact","111 NE 1ST ST, MIAMI, FL, 33132",116018758,"L"
22353,"111 NETHERWOOD AVENUE","PISCATAWAY","NJ",8854,40.5399686280001,-74.498195831,353,"111 NETHERWOOD AVENUE, PISCATAWAY, NJ, 8854","Match","Exact","111 NETHERWOOD AVE, PISCATAWAY, NJ, 08854",60262312,"L"
22354,"111 NICHOLAS DRIVE","HATFIELD","PA",19440,NA,NA,354,"111 NICHOLAS DRIVE, HATFIELD, PA, 19440","No_Match",NA,NA,NA,NA
22355,"111 NORHT 5TH STREET","UNION CITY","TN",38261,NA,NA,355,"111 NORHT 5TH STREET, UNION CITY, TN, 38261","No_Match",NA,NA,NA,NA
22356,"111 NORTH 100 EAST","WASHINGTON","UT",84780,37.131921903,-113.508194454,356,"111 NORTH 100 EAST, WASHINGTON, UT, 84780","Match","Exact","111 N 100 E, WASHINGTON, UT, 84780",166163533,"L"
22357,"111 NORTH ANN ARBOR STREET","SALINE","MI",48176,42.167209557,-83.781669026,357,"111 NORTH ANN ARBOR STREET, SALINE, MI, 48176","Match","Exact","111 N ANN ARBOR ST, SALINE, MI, 48176",26018928,"L"
22358,"111 NORTH FRONT STREET","KYLE","TX",78640,29.9886614700001,-97.875339686,358,"111 NORTH FRONT STREET, KYLE, TX, 78640","Match","Exact","111 N FRONT ST, KYLE, TX, 78640",63810000,"L"
22359,"111 NORTH MAIN STREET","BRISTOL","CT",6010,41.6734915120001,-72.945947428,359,"111 NORTH MAIN STREET, BRISTOL, CT, 6010","Match","Exact","111 N MAIN ST, BRISTOL, CT, 06010",636265629,"L"
22360,"111 NORTH MARKET STREET PO BOX 115","SCHAEFFERSTOWN","PA",17088,40.2981473020001,-76.293477471,360,"111 NORTH MARKET STREET PO BOX 115, SCHAEFFERSTOWN, PA, 17088","Match","Exact","111 N MARKET ST, SCHAEFFERSTOWN, PA, 17088",80679089,"L"
22361,"111 NORTH MASON","CARROLLTON","MO",64633,39.35944569,-93.488836545,361,"111 NORTH MASON, CARROLLTON, MO, 64633","Match","Non_Exact","111 N MASON ST, CARROLLTON, MO, 64633",20817381,"L"
22362,"111 NORTH ORANGE AVENUE SUITE 800","ORLANDO","FL",32801,28.543722228,-81.379017873,362,"111 NORTH ORANGE AVENUE SUITE 800, ORLANDO, FL, 32801","Match","Exact","111 N ORANGE AVE, ORLANDO, FL, 32801",94281869,"R"
22363,"111 NORTH STREET","AMBLER","PA",19002,40.154838597,-75.215549411,363,"111 NORTH STREET, AMBLER, PA, 19002","Match","Exact","111 NORTH ST, AMBLER, PA, 19002",605653454,"L"
22364,"111 NORTHFIELD AVE STE 208A","WEST ORANGE","NJ",7052,40.7753151480001,-74.2457374529999,364,"111 NORTHFIELD AVE STE 208A, WEST ORANGE, NJ, 7052","Match","Exact","111 NORTHFIELD AVE, WEST ORANGE, NJ, 07052",63447079,"R"
22365,"111 NORTHFIELD AVENUE SUITE 208A","WEST ORANGE","NJ",7052,40.7753151480001,-74.2457374529999,365,"111 NORTHFIELD AVENUE SUITE 208A, WEST ORANGE, NJ, 7052","Match","Exact","111 NORTHFIELD AVE, WEST ORANGE, NJ, 07052",63447079,"R"
22366,"111 NOTTINGHILL ROAD","BRIGHTON","MA",2135,42.34348443,-71.1480088279999,366,"111 NOTTINGHILL ROAD, BRIGHTON, MA, 2135","Match","Exact","111 NOTTINGHILL RD, BRIGHTON, MA, 02135",85695241,"R"
22367,"111 NW 16TH ST","CORVALLIS","OR",97330,44.567800742,-123.274030913,367,"111 NW 16TH ST, CORVALLIS, OR, 97330","Match","Exact","111 NW 16TH ST, CORVALLIS, OR, 97330",638292982,"R"
22368,"111 NW 183 ST SUITE 110","MIAMI GARDENS","FL",33169,25.942608808,-80.203475377,368,"111 NW 183 ST SUITE 110, MIAMI GARDENS, FL, 33169","Match","Non_Exact","111 NW 183RD ST, MIAMI GARDENS, FL, 33169",116029886,"R"
22369,"111 NW 183RD STREET SUITE 209","MIAMI GARDENS","FL",33169,25.942608808,-80.203475377,369,"111 NW 183RD STREET SUITE 209, MIAMI GARDENS, FL, 33169","Match","Non_Exact","111 NW 183RD ST, MIAMI GARDENS, FL, 33169",116029886,"R"
22370,"111 NW 183RD STREET SUITE 420","MIAMI","FL",33169,25.9456991800001,-80.12127745,370,"111 NW 183RD STREET SUITE 420, MIAMI, FL, 33169","Match","Non_Exact","111 183RD ST, MIAMI, FL, 33160",116037028,"L"
22371,"111 NW 183RD STREET SUITE404","MIAMI","FL",33169,25.9456991800001,-80.12127745,371,"111 NW 183RD STREET SUITE404, MIAMI, FL, 33169","Match","Non_Exact","111 183RD ST, MIAMI, FL, 33160",116037028,"L"
22372,"111 NW 1ST ST SUITE 1034","MIAMI","FL",33128,25.7750310500001,-80.196320997,372,"111 NW 1ST ST SUITE 1034, MIAMI, FL, 33128","Match","Non_Exact","111 NW 1ST ST, MIAMI, FL, 33128",116018375,"R"
22373,"111 NW 6TH ST","RENTON","WA",98057,47.4914424560001,-122.220151707,373,"111 NW 6TH ST, RENTON, WA, 98057","Match","Exact","111 NW 6TH ST, RENTON, WA, 98057",239773634,"L"
22374,"111 OAKRIDGE TRAIL","KENNEDALE","TX",76060,32.6510049230001,-97.2139981,374,"111 OAKRIDGE TRAIL, KENNEDALE, TX, 76060","Match","Non_Exact","111 OAK RIDGE TRL, KENNEDALE, TX, 76060",101961245,"L"
22375,"111 OCHO RIOS LN","SCOTT","LA",70583,30.222204291,-92.128916582,375,"111 OCHO RIOS LN, SCOTT, LA, 70583","Match","Exact","111 OCHO RIOS LN, SCOTT, LA, 70583",85627562,"L"
22376,"111 OLD PLANTATION DRIVE","PAWLEYS ISLAND","SC",29585,33.4226272600001,-79.17283465,376,"111 OLD PLANTATION DRIVE, PAWLEYS ISLAND, SC, 29585","Match","Exact","111 OLD PLANTATION DR, PAWLEYS ISLAND, SC, 29585",28971794,"L"
22377,"111 OLMSTED STREET","BIRMINGHAM","AL",35242,33.4080751130001,-86.6295712089999,377,"111 OLMSTED STREET, BIRMINGHAM, AL, 35242","Match","Exact","111 OLMSTED ST, BIRMINGHAM, AL, 35242",221538908,"R"
22378,"111 ORANGE AVE STE 800","ORLANDO","FL",32801,NA,NA,378,"111 ORANGE AVE STE 800, ORLANDO, FL, 32801","Tie",NA,NA,NA,NA
22379,"111 ORCHARD AVENUE","BATTLE CREEK","MI",49017,42.3268252080001,-85.169972891,379,"111 ORCHARD AVENUE, BATTLE CREEK, MI, 49017","Match","Exact","111 ORCHARD AVE, BATTLE CREEK, MI, 49017",11714791,"L"
22380,"111 ORONOCO STREET","ALEXANDRIA","IL",22314,NA,NA,380,"111 ORONOCO STREET, ALEXANDRIA, IL, 22314","No_Match",NA,NA,NA,NA
22381,"111 OSPREY LANE","MOORESVILLE","NC",28117,35.549661617,-80.8924245709999,381,"111 OSPREY LANE, MOORESVILLE, NC, 28117","Match","Exact","111 OSPREY LN, MOORESVILLE, NC, 28117",45991207,"R"
22382,"111 OUTWATER LANE","GARFIELD","NJ",7026,40.8812528820001,-74.1137875859999,382,"111 OUTWATER LANE, GARFIELD, NJ, 7026","Match","Exact","111 OUTWATER LN, GARFIELD, NJ, 07026",64382046,"L"
22383,"111 OXBOW MARINA DR","ISLETON","CA",95641,38.1509045080001,-121.589698706,383,"111 OXBOW MARINA DR, ISLETON, CA, 95641","Match","Exact","111 OXBOW MARINA DR, ISLETON, CA, 95641",133315785,"L"
22384,"111 PALMETTO","BELTON","TX",76513,31.059106689,-97.448484761,384,"111 PALMETTO, BELTON, TX, 76513","Match","Non_Exact","111 PALMETTO ST, BELTON, TX, 76513",146228006,"L"
22385,"111 PARK AVE","MANHASSET","NY",11030,40.7974648410001,-73.695599033,385,"111 PARK AVE, MANHASSET, NY, 11030","Match","Exact","111 PARK AVE, MANHASSET, NY, 11030",147660728,"L"
22386,"111 PARK PLACE","RICHMOND","CA",94801,37.926907955,-122.38486105,386,"111 PARK PLACE, RICHMOND, CA, 94801","Match","Exact","111 PARK PL, RICHMOND, CA, 94801",192037270,"L"
22387,"111 PARK PLACE","SWANSBORO","NC",28584,NA,NA,387,"111 PARK PLACE, SWANSBORO, NC, 28584","Tie",NA,NA,NA,NA
22388,"111 PARK STREET","ATHENS","TN",37303,35.43959068,-84.594110954,388,"111 PARK STREET, ATHENS, TN, 37303","Match","Exact","111 PARK ST, ATHENS, TN, 37303",88534704,"R"
22389,"111 PARKER PLACE","GEORGETOWN","KY",40324,38.259347575,-84.642518348,389,"111 PARKER PLACE, GEORGETOWN, KY, 40324","Match","Exact","111 PARKER PL, GEORGETOWN, KY, 40324",41233833,"R"
22390,"111 PATRIOT DRIVE","COLLEGEVILLE","PA",19426,40.1752000820001,-75.4771961129999,390,"111 PATRIOT DRIVE, COLLEGEVILLE, PA, 19426","Match","Exact","111 PATRIOT DR, COLLEGEVILLE, PA, 19426",605655095,"R"
22391,"111 PEMBERTON-BROWNS MILL ROAD","BROWN MILLS","NJ",8015,39.96928302,-74.5915058859999,391,"111 PEMBERTON-BROWNS MILL ROAD, BROWN MILLS, NJ, 8015","Match","Non_Exact","111 PEMBERTON BROWNS MILLS RD, BROWNS MILLS, NJ, 08015",636224409,"L"
22392,"111 PERKINS STREET APT 076","BOSTON","MA",2130,42.321037183,-71.1159538169999,392,"111 PERKINS STREET APT 076, BOSTON, MA, 2130","Match","Exact","111 PERKINS ST, BOSTON, MA, 02130",85698556,"R"
22393,"111 PHILIPS BROOKS ROAD","NORTH ANDOVER","MA",1845,42.689122325,-71.120758941,393,"111 PHILIPS BROOKS ROAD, NORTH ANDOVER, MA, 1845","Match","Non_Exact","111 PHILLIPS BROOKS RD, NORTH ANDOVER, MA, 01845",86650498,"L"
22394,"111 PILGRIM PARKWAY","WARWICK","RI",2888,41.744927196,-71.4112300259999,394,"111 PILGRIM PARKWAY, WARWICK, RI, 2888","Match","Exact","111 PILGRIM PKWY, WARWICK, RI, 02888",650980511,"R"
22395,"111 PIN OAK CIRCLE","SOMERVILLE","TX",77879,30.3472683480001,-96.611058922,395,"111 PIN OAK CIRCLE, SOMERVILLE, TX, 77879","Match","Exact","111 PIN OAK CIR, SOMERVILLE, TX, 77879",24809076,"R"
22396,"111 PINON LN","RUIDOSO","NM",88345,33.332378024,-105.671933258,396,"111 PINON LN, RUIDOSO, NM, 88345","Match","Exact","111 PINON LN, RUIDOSO, NM, 88345",169127655,"R"
22397,"111 PISGAH RD","SHERMANS DALE","PA",17090,40.323968893,-77.240154951,397,"111 PISGAH RD, SHERMANS DALE, PA, 17090","Match","Non_Exact","111 PISGAH REST, SHERMANS DALE, PA, 17090",617445426,"R"
22398,"111 PLANTATION COURT","LAGRANGE","GA",30240,33.0985614910001,-85.0913985449999,398,"111 PLANTATION COURT, LAGRANGE, GA, 30240","Match","Exact","111 PLANTATION CT, LAGRANGE, GA, 30240",623956003,"L"
22399,"111 PLEASANT ST","NATICK","MA",1760,42.2623420800001,-71.306771947,399,"111 PLEASANT ST, NATICK, MA, 1760","Match","Non_Exact","111 PLEASANT ST S, NATICK, MA, 01760",632992946,"R"
22400,"111 PLEASANTVIEW AVE APT C","DANVILLE","VA",24541,36.588435071,-79.425032385,400,"111 PLEASANTVIEW AVE APT C, DANVILLE, VA, 24541","Match","Exact","111 PLEASANTVIEW AVE, DANVILLE, VA, 24541",56664082,"L"
22401,"111 POST CIRCLE","TRUSSVILLE","AL",35173,33.6181455970001,-86.6231993069999,401,"111 POST CIRCLE, TRUSSVILLE, AL, 35173","Match","Exact","111 POST CIR, TRUSSVILLE, AL, 35173",81613095,"R"
22402,"111 POST OAK FOREST DR","MAGNOLIA","TX",77354,30.1467693710001,-95.6417692049999,402,"111 POST OAK FOREST DR, MAGNOLIA, TX, 77354","Match","Exact","111 POST OAK FOREST DR, MAGNOLIA, TX, 77354",79317454,"L"
22403,"111 PRAIRIE VIEW LN","RED OAK","TX",75154,NA,NA,403,"111 PRAIRIE VIEW LN, RED OAK, TX, 75154","No_Match",NA,NA,NA,NA
22404,"111 PRESIDENT STREET","CHARLESTON","SC",29403,32.7877372780001,-79.9506068169999,404,"111 PRESIDENT STREET, CHARLESTON, SC, 29403","Match","Exact","111 PRESIDENT ST, CHARLESTON, SC, 29403",108806547,"L"
22405,"111 PRESIDENTIAL BLVD","BALA CYNWYD","PA",19004,40.0114042340001,-75.212237753,405,"111 PRESIDENTIAL BLVD, BALA CYNWYD, PA, 19004","Match","Exact","111 PRESIDENTIAL BLVD, BALA CYNWYD, PA, 19004",635654144,"R"
22406,"111 PRESTON AVENUE/PO BOX 800","WAITSBURG","WA",99361,46.270127216,-118.154654381,406,"111 PRESTON AVENUE/PO BOX 800, WAITSBURG, WA, 99361","Match","Non_Exact","111 PRESTON AVE, WAITSBURG, WA, 99361",174666937,"R"
22407,"111 PROSPECT AVE APT A","HARTFORD","CT",6106,41.7487134350001,-72.715179377,407,"111 PROSPECT AVE APT A, HARTFORD, CT, 6106","Match","Exact","111 PROSPECT AVE, HARTFORD, CT, 06106",617510632,"L"
22408,"111 PROSPECT AVE SUITE 201A","ST LOUIS","MO",63122,38.5676926890001,-90.4070850319999,408,"111 PROSPECT AVE SUITE 201A, ST LOUIS, MO, 63122","Match","Exact","111 PROSPECT AVE, SAINT LOUIS, MO, 63122",100137383,"R"
22409,"111 PROVIDENCE RD","CHAPEL HILL","NC",27514,35.9512046150001,-79.0074517099999,409,"111 PROVIDENCE RD, CHAPEL HILL, NC, 27514","Match","Exact","111 PROVIDENCE RD, CHAPEL HILL, NC, 27514",72379961,"R"
22410,"111 RACETRACK RD NE","FORT WALTON BEACH","FL",32547,30.447367308,-86.609953451,410,"111 RACETRACK RD NE, FORT WALTON BEACH, FL, 32547","Match","Exact","111 RACETRACK RD NE, FORT WALTON BEACH, FL, 32547",636392651,"R"
22411,"111 RAMBLE LANE","AUSTIN","TX",78745,30.208998868,-97.773070784,411,"111 RAMBLE LANE, AUSTIN, TX, 78745","Match","Exact","111 RAMBLE LN, AUSTIN, TX, 78745",63944420,"L"
22412,"111 RED BARN LANE","DEFIANCE","MO",63341,38.64289382,-90.799550543,412,"111 RED BARN LANE, DEFIANCE, MO, 63341","Match","Exact","111 RED BARN LN, DEFIANCE, MO, 63341",100103306,"L"
22413,"111 RED OAK LN","SEARCY","AR",72143,NA,NA,413,"111 RED OAK LN, SEARCY, AR, 72143","No_Match",NA,NA,NA,NA
22414,"111 REGISTER DRIVE","NEWARK","DE",19711,39.696421318,-75.748413372,414,"111 REGISTER DRIVE, NEWARK, DE, 19711","Match","Exact","111 REGISTER DR, NEWARK, DE, 19711",187280761,"L"
22415,"111 REX AVE","PHILADELPHIA","PA",19118,40.075898024,-75.2104042299999,415,"111 REX AVE, PHILADELPHIA, PA, 19118","Match","Exact","111 REX AVE, PHILADELPHIA, PA, 19118",131393877,"R"
22416,"111 RICARDO ROAD","SANTA FE","NM",87501,35.681182828,-105.976610743,416,"111 RICARDO ROAD, SANTA FE, NM, 87501","Match","Exact","111 RICARDO RD, SANTA FE, NM, 87501",169377618,"L"
22417,"111 RICHIE DRIVE","SYLVESTER","GA",31791,31.5645307350001,-83.992992194,417,"111 RICHIE DRIVE, SYLVESTER, GA, 31791","Match","Exact","111 RICHIE DR, SYLVESTER, GA, 31791",84458838,"L"
22418,"111 RIDGE CREST DR","DUSON","LA",70529,30.136815405,-92.1422752029999,418,"111 RIDGE CREST DR, DUSON, LA, 70529","Match","Non_Exact","111 RIDGE CREST LN, DUSON, LA, 70529",85608781,"L"
22419,"111 RIMROCK ROAD","GOLDENDALE","WA",98620,45.8411539780001,-120.781107456,419,"111 RIMROCK ROAD, GOLDENDALE, WA, 98620","Match","Exact","111 RIMROCK RD, GOLDENDALE, WA, 98620",175656067,"L"
22420,"111 RIVER STREET","MANISTIQUE","MI",49854,45.9585694310001,-86.2469521199999,420,"111 RIVER STREET, MANISTIQUE, MI, 49854","Match","Exact","111 RIVER ST, MANISTIQUE, MI, 49854",171907132,"L"
22421,"111 RIVERSIDE CIRCLE","MARSHFIELD","MA",2050,42.157544891,-70.7549779949999,421,"111 RIVERSIDE CIRCLE, MARSHFIELD, MA, 2050","Match","Exact","111 RIVERSIDE CIR, MARSHFIELD, MA, 02050",87511797,"L"
22422,"111 RIVERSTYX ROAD","HOPATCONG","NJ",7843,40.934405236,-74.659718614,422,"111 RIVERSTYX ROAD, HOPATCONG, NJ, 7843","Match","Non_Exact","111 RIVER STYX RD, HOPATCONG, NJ, 07843",98007123,"L"
22423,"111 ROAD K","FAIRMONT","NE",68354,40.707513771,-97.635425947,423,"111 ROAD K, FAIRMONT, NE, 68354","Match","Exact","111 RD K, FAIRMONT, NE, 68354",150352424,"R"
22424,"111 ROBERTS ST","REIDSVILLE","NC",27320,36.370364781,-79.6815030819999,424,"111 ROBERTS ST, REIDSVILLE, NC, 27320","Match","Exact","111 ROBERTS ST, REIDSVILLE, NC, 27320",56217452,"R"
22425,"111 RONALD A TIRPAK","BUSHKILL","PA",18324,NA,NA,425,"111 RONALD A TIRPAK, BUSHKILL, PA, 18324","No_Match",NA,NA,NA,NA
22426,"111 RUSHING BREEZE CT","APEX","NC",27502,35.7293968650001,-78.88600862,426,"111 RUSHING BREEZE CT, APEX, NC, 27502","Match","Exact","111 RUSHING BREEZE CT, APEX, NC, 27502",72640115,"L"
22427,"111 S 4TH STREET","SMITHFIELD","NC",27577,35.510383243,-78.344688834,427,"111 S 4TH STREET, SMITHFIELD, NC, 27577","Match","Exact","111 S 4TH ST, SMITHFIELD, NC, 27577",26524442,"R"
22428,"111 S BEECH STREET","OXFORD","OH",45056,39.5090538530001,-84.744027278,428,"111 S BEECH STREET, OXFORD, OH, 45056","Match","Exact","111 S BEECH ST, OXFORD, OH, 45056",606399589,"R"
22429,"111 S BYRNE RD","TOLEDO","OH",43615,41.6361855980001,-83.625957576,429,"111 S BYRNE RD, TOLEDO, OH, 43615","Match","Exact","111 S BYRNE RD, TOLEDO, OH, 43615",33935591,"L"
22430,"111 S CHESTER STREET","BALTIMORE","MD",21231,39.290444904,-76.587340823,430,"111 S CHESTER STREET, BALTIMORE, MD, 21231","Match","Exact","111 S CHESTER ST, BALTIMORE, MD, 21231",206424719,"L"
22431,"111 S COLLEGE AVE UNIT C206","CLAREMONT","CA",91711,NA,NA,431,"111 S COLLEGE AVE UNIT C206, CLAREMONT, CA, 91711","Tie",NA,NA,NA,NA
22432,"111 S COURT STREET SUITE 300","GAYLORD","MI",49735,NA,NA,432,"111 S COURT STREET SUITE 300, GAYLORD, MI, 49735","No_Match",NA,NA,NA,NA
22433,"111 S DE ANZA BOULEVARD","MOUNTAIN HOUSE","CA",95391,NA,NA,433,"111 S DE ANZA BOULEVARD, MOUNTAIN HOUSE, CA, 95391","No_Match",NA,NA,NA,NA
22434,"111 S FLORIDA AVENUE","LAKELAND","FL",33801,28.0439145720001,-81.957217637,434,"111 S FLORIDA AVENUE, LAKELAND, FL, 33801","Match","Exact","111 S FLORIDA AVE, LAKELAND, FL, 33801",104810600,"R"
22435,"111 S FRANKLIN AVE PO BOX 843","VALLEY STREAM","NY",11582,NA,NA,435,"111 S FRANKLIN AVE PO BOX 843, VALLEY STREAM, NY, 11582","No_Match",NA,NA,NA,NA
22436,"111 S FRANKLIN AVE","VALLEY STREAM","NY",11580,40.6618097670001,-73.702837471,436,"111 S FRANKLIN AVE, VALLEY STREAM, NY, 11580","Match","Exact","111 S FRANKLIN AVE, VALLEY STREAM, NY, 11580",147668950,"L"
22437,"111 S HIGHLAND ST PMB 461","MEMPHIS","TN",38111,35.1350581090001,-89.94499171,437,"111 S HIGHLAND ST PMB 461, MEMPHIS, TN, 38111","Match","Non_Exact","111 N HIGHLAND ST, MEMPHIS, TN, 38111",72915911,"L"
22438,"111 S HIGHLAND ST STE 137","MEMPHIS","TN",38111,35.1350581090001,-89.94499171,438,"111 S HIGHLAND ST STE 137, MEMPHIS, TN, 38111","Match","Non_Exact","111 N HIGHLAND ST, MEMPHIS, TN, 38111",72915911,"L"
22439,"111 S HIGHLAND ST/ NUMBER 160","MEMPHIS","TN",38111,NA,NA,439,"111 S HIGHLAND ST/ NUMBER 160, MEMPHIS, TN, 38111","No_Match",NA,NA,NA,NA
22440,"111 S HIGHLAND STREET  APT 368","MEMPHIS","TN",38111,35.1350581090001,-89.94499171,440,"111 S HIGHLAND STREET  APT 368, MEMPHIS, TN, 38111","Match","Non_Exact","111 N HIGHLAND ST, MEMPHIS, TN, 38111",72915911,"L"
22441,"111 S HIGHLAND STREET SUITE 492","MEMPHIS","TN",38111,35.1350581090001,-89.94499171,441,"111 S HIGHLAND STREET SUITE 492, MEMPHIS, TN, 38111","Match","Non_Exact","111 N HIGHLAND ST, MEMPHIS, TN, 38111",72915911,"L"
22442,"111 S LUCAS AVE 717","LOS ANGELES","CA",90026,34.0617499200001,-118.259772603,442,"111 S LUCAS AVE 717, LOS ANGELES, CA, 90026","Match","Exact","111 LUCAS AVE, LOS ANGELES, CA, 90026",141616905,"R"
22443,"111 S MAIN ST   PO BOX 69","MIDDLEBURY","IN",46540,41.675179665,-85.70609092,443,"111 S MAIN ST   PO BOX 69, MIDDLEBURY, IN, 46540","Match","Exact","111 MAIN ST, MIDDLEBURY, IN, 46540",7746173,"L"
22444,"111 S MAIN ST","MOULTON","IA",52572,40.6847374110001,-92.6771394959999,444,"111 S MAIN ST, MOULTON, IA, 52572","Match","Exact","111 S MAIN ST, MOULTON, IA, 52572",54619322,"R"
22445,"111 S MORGAN ST","MORGANFIELD","KY",42437,37.6832577070001,-87.917353947,445,"111 S MORGAN ST, MORGANFIELD, KY, 42437","Match","Exact","111 S MORGAN ST, MORGANFIELD, KY, 42437",100705807,"R"
22446,"111 S MORGAN STREET","MASON CITY","IL",62664,40.202165881,-89.699214781,446,"111 S MORGAN STREET, MASON CITY, IL, 62664","Match","Exact","111 S MORGAN ST, MASON CITY, IL, 62664",37757894,"R"
22447,"111 S OAK STREET","ELDON","MO",65026,38.3493649430001,-92.580235906,447,"111 S OAK STREET, ELDON, MO, 65026","Match","Exact","111 S OAK ST, ELDON, MO, 65026",143096526,"L"
22448,"111 S STARGATE DR","DEWEY","AZ",86327,34.5410553830001,-112.206685888,448,"111 S STARGATE DR, DEWEY, AZ, 86327","Match","Exact","111 STARGATE DR, DEWEY, AZ, 86327",608262682,"L"
22449,"111 S WASHINGTON ST","ELKHORN","WI",53121,42.67002998,-88.542243734,449,"111 S WASHINGTON ST, ELKHORN, WI, 53121","Match","Exact","111 S WASHINGTON ST, ELKHORN, WI, 53121",53665816,"R"
22450,"111 SACRAMENTO DRIVE","HAMPTON","VA",23666,37.06723314,-76.3776001269999,450,"111 SACRAMENTO DRIVE, HAMPTON, VA, 23666","Match","Exact","111 SACRAMENTO DR, HAMPTON, VA, 23666",103757438,"L"
22451,"111 SADDLEBRED LN","BURNSVILLE","NC",28714,35.9120796020001,-82.2661597649999,451,"111 SADDLEBRED LN, BURNSVILLE, NC, 28714","Match","Exact","111 SADDLEBRED LN, BURNSVILLE, NC, 28714",37420925,"L"
22452,"111 SAM BASS RIDGE ROAD","SOUTHLAKE","TX",76092,33.0024683230001,-97.1549818299999,452,"111 SAM BASS RIDGE ROAD, SOUTHLAKE, TX, 76092","Match","Exact","111 SAM BASS RIDGE RD, SOUTHLAKE, TX, 76092",642840383,"R"
22453,"111 SAN ELIJO ROAD","SAN MARCOS","CA",92078,NA,NA,453,"111 SAN ELIJO ROAD, SAN MARCOS, CA, 92078","No_Match",NA,NA,NA,NA
22454,"111 SANDRA MURAIDA WAY 15K","AUSTIN","TX",78703,30.2679278690001,-97.754170835,454,"111 SANDRA MURAIDA WAY 15K, AUSTIN, TX, 78703","Match","Exact","111 SANDRA MURAIDA WAY, AUSTIN, TX, 78703",650119088,"R"
22455,"111 SARANAC STREET","LITTLETON","NH",3561,44.306881402,-71.778261701,455,"111 SARANAC STREET, LITTLETON, NH, 3561","Match","Exact","111 SARANAC ST, LITTLETON, NH, 03561",145672041,"L"
22456,"111 SARATOGA DR","GREER","SC",29650,34.8849176960001,-82.2551209979999,456,"111 SARATOGA DR, GREER, SC, 29650","Match","Exact","111 SARATOGA DR, GREER, SC, 29650",38310612,"R"
22457,"111 SCENIC DRIVE","MONTICELLO","AR",71655,33.5642721470001,-91.801920076,457,"111 SCENIC DRIVE, MONTICELLO, AR, 71655","Match","Exact","111 SCENIC DR, MONTICELLO, AR, 71655",610263668,"R"
22458,"111 SCHOOLFIELD DRIVE","CARLISLE","PA",17013,40.1840619860001,-77.195526028,458,"111 SCHOOLFIELD DRIVE, CARLISLE, PA, 17013","Match","Exact","111 SCHOOLFIELD DR, CARLISLE, PA, 17013",647960525,"R"
22459,"111 SE 1ST AVENUE SUITE 2B5","GAINESVILLE","FL",32601,NA,NA,459,"111 SE 1ST AVENUE SUITE 2B5, GAINESVILLE, FL, 32601","Tie",NA,NA,NA,NA
22460,"111 SE 25TH AVENUE","OCALA","FL",34471,29.18611408,-82.103131861,460,"111 SE 25TH AVENUE, OCALA, FL, 34471","Match","Exact","111 SE 25TH AVE, OCALA, FL, 34471",637815652,"L"
22461,"111 SE FOURTH ST","WALNUR RIDGE","AR",72476,36.0656003330001,-90.953330148,461,"111 SE FOURTH ST, WALNUR RIDGE, AR, 72476","Match","Non_Exact","111 SE 4TH ST, WALNUT RIDGE, AR, 72476",79044083,"L"
22462,"111 SECOND AVENUE NE STE 341","ST PETERSBURG","FL",33701,27.7735481880001,-82.633801066,462,"111 SECOND AVENUE NE STE 341, ST PETERSBURG, FL, 33701","Match","Exact","111 2ND AVE NE, SAINT PETERSBURG, FL, 33701",124713646,"L"
22463,"111 SHERIDAN STREET 3","PORTLAND","ME",4101,43.666168187,-70.25077362,463,"111 SHERIDAN STREET 3, PORTLAND, ME, 4101","Match","Exact","111 SHERIDAN ST, PORTLAND, ME, 04101",78068349,"R"
22464,"111 SHERMAN PLACE","GARFIELD","NJ",7026,40.8730605700001,-74.102183989,464,"111 SHERMAN PLACE, GARFIELD, NJ, 7026","Match","Exact","111 SHERMAN PL, GARFIELD, NJ, 07026",64392625,"L"
22465,"111 SHOSHONE DRIVE","CARMEL","IN",46032,39.9648817830001,-86.124940392,465,"111 SHOSHONE DRIVE, CARMEL, IN, 46032","Match","Exact","111 SHOSHONE DR, CARMEL, IN, 46032",29294774,"R"
22466,"111 SILDONA TRAIL","FLORISSANT","CO",80816,38.914467658,-105.224789056,466,"111 SILDONA TRAIL, FLORISSANT, CO, 80816","Match","Exact","111 SILDONA TRL, FLORISSANT, CO, 80816",130940885,"R"
22467,"111 SMITH HINES ROAD SUITE E","GREENVILLE","SC",29607,34.817673347,-82.2878285259999,467,"111 SMITH HINES ROAD SUITE E, GREENVILLE, SC, 29607","Match","Exact","111 SMITH HINES RD, GREENVILLE, SC, 29607",38327434,"R"
22468,"111 SNYDER RD","SOUTH PLAINFIELD","NJ",7080,40.568419417,-74.424732265,468,"111 SNYDER RD, SOUTH PLAINFIELD, NJ, 7080","Match","Exact","111 SNYDER RD, S PLAINFIELD, NJ, 07080",60292979,"L"
22469,"111 SOLEDAD SUITE 110","SAN ANTONIO","TX",78205,29.4251606350001,-98.493023659,469,"111 SOLEDAD SUITE 110, SAN ANTONIO, TX, 78205","Match","Non_Exact","111 SOLEDAD ST, SAN ANTONIO, TX, 78205",101526359,"L"
22470,"111 SOMERSET DR","GOWER","MO",64454,39.617394254,-94.594553811,470,"111 SOMERSET DR, GOWER, MO, 64454","Match","Exact","111 SOMERSET DR, GOWER, MO, 64454",635767591,"R"
22471,"111 SOUTH 5TH AVE","DENTON","MD",21629,38.884320136,-75.8298280349999,471,"111 SOUTH 5TH AVE, DENTON, MD, 21629","Match","Exact","111 S 5TH AVE, DENTON, MD, 21629",68296021,"R"
22472,"111 SOUTH BUCKEYE STREET SUITE LL1","WOOSTER","OH",44691,40.798257812,-81.9382749809999,472,"111 SOUTH BUCKEYE STREET SUITE LL1, WOOSTER, OH, 44691","Match","Exact","111 S BUCKEYE ST, WOOSTER, OH, 44691",58721876,"L"
22473,"111 SOUTH CEDAR STREET","SEYMOUR","TX",76380,33.5877936860001,-99.264100107,473,"111 SOUTH CEDAR STREET, SEYMOUR, TX, 76380","Match","Exact","111 S CEDAR ST, SEYMOUR, TX, 76380",182803324,"R"
22474,"111 SOUTH CENTER STREET","BREMEN","IN",46506,41.446390358,-86.1465080359999,474,"111 SOUTH CENTER STREET, BREMEN, IN, 46506","Match","Exact","111 S CENTER ST, BREMEN, IN, 46506",7640017,"L"
22475,"111 SOUTH CENTER STREET","OREGON CITY","OR",97045,45.3520028180001,-122.610724707,475,"111 SOUTH CENTER STREET, OREGON CITY, OR, 97045","Match","Exact","111 S CENTER ST, OREGON CITY, OR, 97045",157976520,"R"
22476,"111 SOUTH CHAPARRAL","BURNET","TX",78611,30.7733308680001,-98.407583306,476,"111 SOUTH CHAPARRAL, BURNET, TX, 78611","Match","Exact","111 S CHAPARRAL, BURNET, TX, 78611",146509933,"R"
22477,"111 SOUTH HIGHLAND SUITE 196","MEMPHIS","TN",30111,NA,NA,477,"111 SOUTH HIGHLAND SUITE 196, MEMPHIS, TN, 30111","No_Match",NA,NA,NA,NA
22478,"111 SOUTH LOMBARD UNIT 8","ADDISON","IL",60101,41.9270099500001,-88.022948126,478,"111 SOUTH LOMBARD UNIT 8, ADDISON, IL, 60101","Match","Non_Exact","111 S LOMBARD RD, ADDISON, IL, 60101",651516137,"R"
22479,"111 SOUTH MAIN STREET","MILLTOWN","NJ",8850,40.4479655330001,-74.434078552,479,"111 SOUTH MAIN STREET, MILLTOWN, NJ, 8850","Match","Exact","111 S MAIN ST, MILLTOWN, NJ, 08850",647272545,"L"
22480,"111 SOUTH MICHIGAN AVENUE","CHICAGO","IL",60603,41.880619127,-87.6242407189999,480,"111 SOUTH MICHIGAN AVENUE, CHICAGO, IL, 60603","Match","Exact","111 S MICHIGAN AVE, CHICAGO, IL, 60603",111769650,"L"
22481,"111 SOUTH MILL AVENUE","DYERSBURG","TN",38024,36.032728455,-89.3868038109999,481,"111 SOUTH MILL AVENUE, DYERSBURG, TN, 38024","Match","Exact","111 S MILL AVE, DYERSBURG, TN, 38024",40652035,"L"
22482,"111 SOUTH RD","CHESTER","NJ",7930,40.800501549,-74.64456466,482,"111 SOUTH RD, CHESTER, NJ, 7930","Match","Exact","111 SOUTH RD, CHESTER, NJ, 07930",60472709,"L"
22483,"111 SOUTH ST","OYSTER BAY","NY",11771,40.8721210570001,-73.53072502,483,"111 SOUTH ST, OYSTER BAY, NY, 11771","Match","Exact","111 SOUTH ST, OYSTER BAY, NY, 11771",147622505,"L"
22484,"111 SOUTH STREET","CLAREMONT","NH",3743,43.364760265,-72.3336527599999,484,"111 SOUTH STREET, CLAREMONT, NH, 3743","Match","Exact","111 SOUTH ST, CLAREMONT, NH, 03743",124329989,"R"
22485,"111 SOUTH STREET","FARMINGTON","ME",4938,NA,NA,485,"111 SOUTH STREET, FARMINGTON, ME, 4938","No_Match",NA,NA,NA,NA
22486,"111 SOUTH STREET","PLAINVILLE","MA",2762,42.0046511800001,-71.335942389,486,"111 SOUTH STREET, PLAINVILLE, MA, 2762","Match","Exact","111 SOUTH ST, PLAINVILLE, MA, 02762",87287797,"L"
22487,"111 SOUTH WACKER DRIVE","CHICAGO","IL",60606,41.880415386,-87.63671987,487,"111 SOUTH WACKER DRIVE, CHICAGO, IL, 60606","Match","Exact","111 S WACKER DR, CHICAGO, IL, 60606",111769507,"L"
22488,"111 SOUTH WALLACE","YPSILANTI","MI",48197,42.2392613920001,-83.6319561179999,488,"111 SOUTH WALLACE, YPSILANTI, MI, 48197","Match","Non_Exact","111 S WALLACE BLVD, YPSILANTI, MI, 48197",26018362,"L"
22489,"111 SOUTH WILTON PLACE","LOS ANGELES","CA",90004,34.0725887180001,-118.313438214,489,"111 SOUTH WILTON PLACE, LOS ANGELES, CA, 90004","Match","Exact","111 S WILTON PL, LOS ANGELES, CA, 90004",141603584,"R"
22490,"111 SOUTHEAST FRONT","WALNUT RIDGE","AR",72476,36.067877997,-90.955717587,490,"111 SOUTHEAST FRONT, WALNUT RIDGE, AR, 72476","Match","Non_Exact","111 SE FRONT ST, WALNUT RIDGE, AR, 72476",79044113,"L"
22491,"111 SPALDING TRAIL","SANDY SPRINGS","GA",30328,NA,NA,491,"111 SPALDING TRAIL, SANDY SPRINGS, GA, 30328","Tie",NA,NA,NA,NA
22492,"111 SPRINGVIEW LN  APT 911","SUMMERVILLE","SC",29485,32.9596881960001,-80.161266789,492,"111 SPRINGVIEW LN  APT 911, SUMMERVILLE, SC, 29485","Match","Exact","111 SPRINGVIEW LN, SUMMERVILLE, SC, 29485",636593491,"R"
22493,"111 SPUR LANE","HIRAM","GA",30141,33.8873288680001,-84.72549746,493,"111 SPUR LANE, HIRAM, GA, 30141","Match","Exact","111 SPUR LN, HIRAM, GA, 30141",618920381,"L"
22494,"111 STANDING ROCK ROAD","CHAPEL HILL","NC",27516,35.939416292,-79.109120143,494,"111 STANDING ROCK ROAD, CHAPEL HILL, NC, 27516","Match","Exact","111 STANDING ROCK RD, CHAPEL HILL, NC, 27516",72400608,"R"
22495,"111 STOCKBRIDGE ROAD","JONESBORO","GA",30236,33.523807622,-84.353523976,495,"111 STOCKBRIDGE ROAD, JONESBORO, GA, 30236","Match","Exact","111 STOCKBRIDGE RD, JONESBORO, GA, 30236",23317016,"L"
22496,"111 STONY CREEK DR","EULESS","TX",76039,32.8488398120001,-97.081342009,496,"111 STONY CREEK DR, EULESS, TX, 76039","Match","Exact","111 STONY CREEK DR, EULESS, TX, 76039",101872799,"R"
22497,"111 SUMMER STREET","PROVIDENCE","RI",2903,41.815537055,-71.4184638689999,497,"111 SUMMER STREET, PROVIDENCE, RI, 2903","Match","Exact","111 SUMMER ST, PROVIDENCE, RI, 02903",47465964,"R"
22498,"111 SUMNER AVE","PLAINFIELD","NJ",7062,40.637077902,-74.409745206,498,"111 SUMNER AVE, PLAINFIELD, NJ, 7062","Match","Exact","111 SUMNER AVE, PLAINFIELD, NJ, 07062",60567096,"L"
22499,"111 SW 16TH STREET","RICHMOND","IN",47374,39.8279154320001,-84.924552714,499,"111 SW 16TH STREET, RICHMOND, IN, 47374","Match","Exact","111 SW 16TH ST, RICHMOND, IN, 47374",31324304,"R"
22500,"111 SW 3RD ST STUDIO 607","MIAMI","FL",33130,25.771488844,-80.195868977,500,"111 SW 3RD ST STUDIO 607, MIAMI, FL, 33130","Match","Non_Exact","111 SW 3RD ST, MIAMI, FL, 33130",116018442,"R"
