"ID","Address","City","State","Zip","lat","long","id","input_address","match_indicator","match_type","matched_address","tiger_line_id","tiger_side"
224501,"4821 CRACK WILLOW CT","ORLANDO","FL",32808,28.5817896660001,-81.446567094,1,"4821 CRACK WILLOW CT, ORLANDO, FL, 32808","Match","Exact","4821 CRACK WILLOW CT, ORLANDO, FL, 32808",94270146,"R"
224502,"4821 DUVERNAY DRIVE APT 17-348","LANSING","MI",48910,42.6853050130001,-84.511215395,2,"4821 DUVERNAY DRIVE APT 17-348, LANSING, MI, 48910","Match","Exact","4821 DUVERNAY DR, LANSING, MI, 48910",17524715,"L"
224503,"4821 EAGLES CREEK CIRCLE","LITHONIA","GA",30038,33.679802699,-84.197038516,3,"4821 EAGLES CREEK CIRCLE, LITHONIA, GA, 30038","Match","Exact","4821 EAGLES CREEK CIR, LITHONIA, GA, 30038",23400288,"R"
224504,"4821 LANKERSHIM BLVD F193","NORTH HOLLYWOOD","CA",91601,34.1584850520001,-118.370757565,4,"4821 LANKERSHIM BLVD F193, NORTH HOLLYWOOD, CA, 91601","Match","Exact","4821 LANKERSHIM BLVD, N HOLLYWOOD, CA, 91601",141591799,"L"
224505,"4821 LANKERSHIM BLVD SUITE F 460","NORTH HOLLYWOOD","CA",91601,34.1584850520001,-118.370757565,5,"4821 LANKERSHIM BLVD SUITE F 460, NORTH HOLLYWOOD, CA, 91601","Match","Exact","4821 LANKERSHIM BLVD, N HOLLYWOOD, CA, 91601",141591799,"L"
224506,"4821 N WINCHESTER AVE","KANSAS CITY","MO",64119,39.181014738,-94.498820127,6,"4821 N WINCHESTER AVE, KANSAS CITY, MO, 64119","Match","Exact","4821 N WINCHESTER AVE, KANSAS CITY, MO, 64119",89761517,"R"
224507,"4821 NE 60TH ST","SEATTLE","WA",98115,47.6730018600001,-122.276894942,7,"4821 NE 60TH ST, SEATTLE, WA, 98115","Match","Exact","4821 NE 60TH ST, SEATTLE, WA, 98115",186586745,"R"
224508,"4821 NEW RANCH RD","EL CAJON","CA",92020,32.7666920350001,-116.957341217,8,"4821 NEW RANCH RD, EL CAJON, CA, 92020","Match","Exact","4821 NEW RANCH RD, EL CAJON, CA, 92020",633070567,"R"
224509,"4821 SW 21ST ST","WEST PARK","FL",33023,25.991926843,-80.191981069,9,"4821 SW 21ST ST, WEST PARK, FL, 33023","Match","Non_Exact","4821 SW 21ST ST, WEST PARK, FL, 33023",636367356,"R"
224510,"482116 218TH STREET","ELKTON","SD",57026,NA,NA,10,"482116 218TH STREET, ELKTON, SD, 57026","No_Match",NA,NA,NA,NA
224511,"4822 ALBEMARLE RD STE 110C","CHARLOTTE","NC",28205,35.1996840350001,-80.7663521269999,11,"4822 ALBEMARLE RD STE 110C, CHARLOTTE, NC, 28205","Match","Exact","4822 ALBEMARLE RD, CHARLOTTE, NC, 28205",616654548,"R"
224512,"4822 ALBEMARLE ROAD STE 202","CHARLOTTE","NC",28205,35.1996840350001,-80.7663521269999,12,"4822 ALBEMARLE ROAD STE 202, CHARLOTTE, NC, 28205","Match","Exact","4822 ALBEMARLE RD, CHARLOTTE, NC, 28205",616654548,"R"
224513,"4822 HIGHWAY 22","WADLEY","AL",36276,NA,NA,13,"4822 HIGHWAY 22, WADLEY, AL, 36276","No_Match",NA,NA,NA,NA
224514,"4822 HURON AVENUE","SAN DIEGO","CA",92117,32.7959322090001,-117.195646058,14,"4822 HURON AVENUE, SAN DIEGO, CA, 92117","Match","Exact","4822 HURON AVE, SAN DIEGO, CA, 92117",612862108,"L"
224515,"4822 HYDE PARK BLVD APT 10","NIAGARA FALLS","NY",14305,43.130843914,-79.039816464,15,"4822 HYDE PARK BLVD APT 10, NIAGARA FALLS, NY, 14305","Match","Exact","4822 HYDE PARK BLVD, NIAGARA FALLS, NY, 14305",633571339,"L"
224516,"4822 MCCLURE RD","CHARLOTTE","NC",28206,35.33814097,-80.872640803,16,"4822 MCCLURE RD, CHARLOTTE, NC, 28206","Match","Non_Exact","4822 MCCLURE RD, CHARLOTTE, NC, 28216",631711801,"R"
224517,"4822 MELBOURNE ROAD","BALTIMORE","MD",21229,39.2731016180001,-76.698578557,17,"4822 MELBOURNE ROAD, BALTIMORE, MD, 21229","Match","Exact","4822 MELBOURNE RD, BALTIMORE, MD, 21229",206412842,"R"
224518,"4822 N 61ST AVE","PHOENIX","AZ",85033,33.507388384,-112.190430867,18,"4822 N 61ST AVE, PHOENIX, AZ, 85033","Match","Exact","4822 N 61ST AVE, PHOENIX, AZ, 85033",128354866,"L"
224519,"4822 N MACARTHUR","WARR ACRES","OK",73122,35.520182731,-97.618956344,19,"4822 N MACARTHUR, WARR ACRES, OK, 73122","Match","Non_Exact","4822 N MACARTHUR BLVD, WARR ACRES, OK, 73122",100390228,"R"
224520,"4822 PLUM RUN COURT","WILMINGTON","DE",19808,39.734678198,-75.701010171,20,"4822 PLUM RUN COURT, WILMINGTON, DE, 19808","Match","Exact","4822 PLUM RUN CT, WILMINGTON, DE, 19808",187252298,"L"
224521,"4822 REGENT STREET","PHILADELPHIA","PA",19143,39.9442479050001,-75.214940124,21,"4822 REGENT STREET, PHILADELPHIA, PA, 19143","Match","Exact","4822 REGENT ST, PHILADELPHIA, PA, 19143",131400040,"L"
224522,"4822 S KING DRIVE","CHICAGO","IL",60615,NA,NA,22,"4822 S KING DRIVE, CHICAGO, IL, 60615","No_Match",NA,NA,NA,NA
224523,"4822 S REBECCA","SPOKANE","WA",99223,47.6090181700001,-117.355032096,23,"4822 S REBECCA, SPOKANE, WA, 99223","Match","Non_Exact","4822 S REBECCA ST, SPOKANE, WA, 99223",633376010,"R"
224524,"4822 SANTANA CIRCLE","COLUMBIA","MO",65203,38.8980759040001,-92.336661964,24,"4822 SANTANA CIRCLE, COLUMBIA, MO, 65203","Match","Exact","4822 SANTANA CIR, COLUMBIA, MO, 65203",23498071,"R"
224525,"4822 W WAVELAND AVE","CHICAGO","IL",60641,41.9479524810001,-87.7480649779999,25,"4822 W WAVELAND AVE, CHICAGO, IL, 60641","Match","Exact","4822 W WAVELAND AVE, CHICAGO, IL, 60641",605189438,"R"
224526,"4822 WILLISTON STREET","BALTIMORE","MD",21229,39.27578292,-76.6973306099999,26,"4822 WILLISTON STREET, BALTIMORE, MD, 21229","Match","Exact","4822 WILLISTON ST, BALTIMORE, MD, 21229",206412839,"R"
224527,"4823 CHRISTIE JANE LANE","FAIRFAX","VA",22030,38.8510910030001,-77.393174242,27,"4823 CHRISTIE JANE LANE, FAIRFAX, VA, 22030","Match","Exact","4823 CHRISTIE JANE LN, FAIRFAX, VA, 22030",614146281,"L"
224528,"4823 ENCHANTED SPRINGS DR","ROSHARON","TX",77583,29.5144595790001,-95.427410418,28,"4823 ENCHANTED SPRINGS DR, ROSHARON, TX, 77583","Match","Exact","4823 ENCHANTED SPRINGS DR, ROSHARON, TX, 77583",641847066,"L"
224529,"4823 LAKE WASHINGTON BLVD APT 2","KIRKLAND","WA",98033,47.6534263660001,-122.204476796,29,"4823 LAKE WASHINGTON BLVD APT 2, KIRKLAND, WA, 98033","Match","Non_Exact","4823 LAKE WASHINGTON BLVD NE, KIRKLAND, WA, 98033",647911136,"L"
224530,"4823 MOHAWK DR","ROELAND PARK","KS",66205,39.0402749450001,-94.628191992,30,"4823 MOHAWK DR, ROELAND PARK, KS, 66205","Match","Exact","4823 MOHAWK DR, ROELAND PARK, KS, 66205",91273858,"L"
224531,"4823 MYERWOOD LN","DALLAS","TX",75244,32.9131496250001,-96.826080043,31,"4823 MYERWOOD LN, DALLAS, TX, 75244","Match","Exact","4823 MYERWOOD LN, DALLAS, TX, 75244",102899341,"L"
224532,"4823 N 152ND DRIVE","GOODYEAR","AZ",85395,33.50474989,-112.385624901,32,"4823 N 152ND DRIVE, GOODYEAR, AZ, 85395","Match","Exact","4823 N 152ND DR, GOODYEAR, AZ, 85395",243955223,"R"
224533,"4823 NW 79TH RD","GAINESVILLE","FL",32653,29.726913741,-82.394492729,33,"4823 NW 79TH RD, GAINESVILLE, FL, 32653","Match","Exact","4823 NW 79TH RD, GAINESVILLE, FL, 32653",6842710,"R"
224534,"4823 RIDGEWOOD CREEK DR NW","ACKWORTH","GA",30102,34.070101274,-84.558258817,34,"4823 RIDGEWOOD CREEK DR NW, ACKWORTH, GA, 30102","Match","Non_Exact","4823 RIDGEWOOD CREEK DR NW, ACWORTH, GA, 30102",17204388,"L"
224535,"4823 S CHAMPLAIN AVE","CHICAGO","IL",60615,41.8071687500001,-87.610140848,35,"4823 S CHAMPLAIN AVE, CHICAGO, IL, 60615","Match","Exact","4823 S CHAMPLAIN AVE, CHICAGO, IL, 60615",111770906,"L"
224536,"4823 S LEE RD","DELRAY BEACH","FL",33445,26.462038142,-80.119075499,36,"4823 S LEE RD, DELRAY BEACH, FL, 33445","Match","Exact","4823 S LEE RD, DELRAY BEACH, FL, 33445",115498969,"L"
224537,"4823 SILVER STAR ROAD SUITE 160","ORLANDO","FL",32808,NA,NA,37,"4823 SILVER STAR ROAD SUITE 160, ORLANDO, FL, 32808","No_Match",NA,NA,NA,NA
224538,"4823 TURTLEWOOD CT","COMMERCE TWP","MI",48382,42.591358326,-83.528402439,38,"4823 TURTLEWOOD CT, COMMERCE TWP, MI, 48382","Match","Exact","4823 TURTLEWOOD CT, COMMERCE TOWNSHIP, MI, 48382",627778135,"L"
224539,"4823 TWAIN AVENUE","SAN DIEGO","CA",92120,32.7846484230001,-117.090476726,39,"4823 TWAIN AVENUE, SAN DIEGO, CA, 92120","Match","Exact","4823 TWAIN AVE, SAN DIEGO, CA, 92120",195322751,"R"
224540,"4823 W 200 S","COLUMBIA CITY","IN",46725,41.1330146810001,-85.5840634479999,40,"4823 W 200 S, COLUMBIA CITY, IN, 46725","Match","Exact","4823 W 200 S, COLUMBIA CITY, IN, 46725",6643457,"L"
224541,"4824 AUSTIN AVE      UNIT 3","MCALLEN","TX",78501,26.208873537,-98.274591678,41,"4824 AUSTIN AVE      UNIT 3, MCALLEN, TX, 78501","Match","Exact","4824 AUSTIN AVE, MCALLEN, TX, 78501",625334447,"R"
224542,"4824 BRIERLY DRIVE WEST","WEST MIFFLIN","PA",15122,40.3741514720001,-79.903255938,42,"4824 BRIERLY DRIVE WEST, WEST MIFFLIN, PA, 15122","Match","Exact","4824 BRIERLY DR W, WEST MIFFLIN, PA, 15122",51655364,"R"
224543,"4824 CHAFFEY LANE","LEXINGTON","KY",40515,37.9544233840001,-84.4815917559999,43,"4824 CHAFFEY LANE, LEXINGTON, KY, 40515","Match","Exact","4824 CHAFFEY LN, LEXINGTON, KY, 40515",31934290,"L"
224544,"4824 E 53RD STREET UNIT 309","MINNEAPOLIS","MN",55417,44.9074928250001,-93.204591839,44,"4824 E 53RD STREET UNIT 309, MINNEAPOLIS, MN, 55417","Match","Non_Exact","4824 E 53RD ST, MINNEAPOLIS, MN, 55417",43641146,"L"
224545,"4824 E BASELINE RD SUITE101","MESA","AZ",85206,33.3792319130001,-111.730816064,45,"4824 E BASELINE RD SUITE101, MESA, AZ, 85206","Match","Non_Exact","4824 E BASELINE RD, MESA, AZ, 85206",653189044,"L"
224546,"4824 FARM POND LN","CHARLOTTE","NC",28212,35.213902665,-80.735837251,46,"4824 FARM POND LN, CHARLOTTE, NC, 28212","Match","Exact","4824 FARM POND LN, CHARLOTTE, NC, 28212",70493738,"R"
224547,"4824 HOLLOW CORNER RD 261","CULVER CITY","CA",90230,NA,NA,47,"4824 HOLLOW CORNER RD 261, CULVER CITY, CA, 90230","No_Match",NA,NA,NA,NA
224548,"4824 LONDON DRIVE","INDIANAPOLIS","IN",46254,39.841620709,-86.2367654719999,48,"4824 LONDON DRIVE, INDIANAPOLIS, IN, 46254","Match","Exact","4824 LONDON DR, INDIANAPOLIS, IN, 46254",107976273,"L"
224549,"4824 MAGNOLIA PRESERVE DRIVE","WINTER HAVEN","FL",33880,27.976783246,-81.7902987429999,49,"4824 MAGNOLIA PRESERVE DRIVE, WINTER HAVEN, FL, 33880","Match","Exact","4824 MAGNOLIA PRESERVE DR, WINTER HAVEN, FL, 33880",648236286,"R"
224550,"4824 MULHOLLAND DR","PLANO","TX",75074,33.0070178770001,-96.643823115,50,"4824 MULHOLLAND DR, PLANO, TX, 75074","Match","Exact","4824 MULHOLLAND DR, PLANO, TX, 75074",640734071,"R"
224551,"4824 N HERMITAGE 3F","CHICAGO","IL",60640,NA,NA,51,"4824 N HERMITAGE 3F, CHICAGO, IL, 60640","No_Match",NA,NA,NA,NA
224552,"4824 N LEAVITT STREET APT 2","CHICAGO","IL",60625,41.969354455,-87.6840704639999,52,"4824 N LEAVITT STREET APT 2, CHICAGO, IL, 60625","Match","Non_Exact","4824 N LEAVITT ST, CHICAGO, IL, 60625",605184751,"L"
224553,"4824 NW 167TH STREET","MIAMAI","FL",33014,25.925020666,-80.28043289,53,"4824 NW 167TH STREET, MIAMAI, FL, 33014","Match","Non_Exact","4824 NW 167TH ST, MIAMI LAKES, FL, 33014",116027146,"L"
224554,"4824 POSTON DR","SAN JOSE","CA",95136,37.2647644200001,-121.826195563,54,"4824 POSTON DR, SAN JOSE, CA, 95136","Match","Exact","4824 POSTON DR, SAN JOSE, CA, 95136",122924483,"L"
224555,"4824 ROUNDTOP ROAD","ELIZABETHTOWN","KY",42701,37.5815115950001,-85.8293998729999,55,"4824 ROUNDTOP ROAD, ELIZABETHTOWN, KY, 42701","Match","Exact","4824 ROUNDTOP RD, ELIZABETHTOWN, KY, 42701",34625584,"R"
224556,"4824 S BOWDISH LOW CT","SPOKANE VALLEY","WA",99206,47.6091632540001,-117.250927222,56,"4824 S BOWDISH LOW CT, SPOKANE VALLEY, WA, 99206","Match","Exact","4824 S BOWDISH LOW CT, SPOKANE VALLEY, WA, 99206",189888145,"R"
224557,"4824 SCOTTSDALE ROAD","HOUSE SPRINGS","MO",63051,38.402008999,-90.587891833,57,"4824 SCOTTSDALE ROAD, HOUSE SPRINGS, MO, 63051","Match","Exact","4824 SCOTTSDALE RD, HOUSE SPRINGS, MO, 63051",607919808,"R"
224558,"4824 SMALLWOOD RD  SUITE 318","COLUMBIA","SC",29223,34.0875400790001,-80.8828251039999,58,"4824 SMALLWOOD RD  SUITE 318, COLUMBIA, SC, 29223","Match","Exact","4824 SMALLWOOD RD, COLUMBIA, SC, 29223",604762745,"R"
224559,"4824 STEWART AVENUE UNIT 3","CINCINNATI","OH",45227,39.159255821,-84.3976061939999,59,"4824 STEWART AVENUE UNIT 3, CINCINNATI, OH, 45227","Match","Exact","4824 STEWART AVE, CINCINNATI, OH, 45227",103933552,"R"
224560,"4824 STONEHAVEN DRIVE","TEMPLE","TX",76502,31.04874262,-97.3577168039999,60,"4824 STONEHAVEN DRIVE, TEMPLE, TX, 76502","Match","Exact","4824 STONEHAVEN DR, TEMPLE, TX, 76502",633780664,"R"
224561,"4824 SWINTON COURT","MULLINS","SC",29574,34.2713959290001,-79.3017648209999,61,"4824 SWINTON COURT, MULLINS, SC, 29574","Match","Exact","4824 SWINTON CT, MULLINS, SC, 29574",28782895,"R"
224562,"4824 TROOST ROOM 108","KANSAS CITY","MO",64110,39.039517302,-94.573075272,62,"4824 TROOST ROOM 108, KANSAS CITY, MO, 64110","Match","Non_Exact","4824 TROOST AVE, KANSAS CITY, MO, 64110",91448438,"R"
224563,"4824 TUSK WAY","ELK GROVE","CA",95757,38.3731478770001,-121.449264152,63,"4824 TUSK WAY, ELK GROVE, CA, 95757","Match","Exact","4824 TUSK WAY, ELK GROVE, CA, 95757",645233398,"R"
224564,"4824 W ST KATERI DR","LAVEEN","AZ",85339,33.3850599730001,-112.162844191,64,"4824 W ST KATERI DR, LAVEEN, AZ, 85339","Match","Exact","4824 W ST KATERI DR, LAVEEN, AZ, 85339",244003992,"L"
224565,"4824 WARNOCK AVENUE","GRANITE CITY","IL",62040,38.7443556360001,-90.1000385689999,65,"4824 WARNOCK AVENUE, GRANITE CITY, IL, 62040","Match","Exact","4824 WARNOCK AVE, GRANITE CITY, IL, 62040",107688100,"R"
224566,"48243 LAURA ROGERS RD","TICKFAW","LA",70466,30.548189236,-90.508632198,66,"48243 LAURA ROGERS RD, TICKFAW, LA, 70466","Match","Exact","48243 LAURA ROGERS RD, TICKFAW, LA, 70466",627661816,"L"
224567,"48245 VISTA CALICO","LA QUINTA","CA",92253,33.6981447630001,-116.275552336,67,"48245 VISTA CALICO, LA QUINTA, CA, 92253","Match","Exact","48245 VIS CALICO, LA QUINTA, CA, 92253",649774580,"R"
224568,"4825 ALTURAS WAY","SACRAMENTO","CA",95822,38.5309847340001,-121.503398344,68,"4825 ALTURAS WAY, SACRAMENTO, CA, 95822","Match","Exact","4825 ALTURAS WAY, SACRAMENTO, CA, 95822",133322735,"L"
224569,"4825 BETHLEHEM ROAD","PRESTON","MD",21655,38.7401629300001,-75.951588266,69,"4825 BETHLEHEM ROAD, PRESTON, MD, 21655","Match","Exact","4825 BETHLEHEM RD, PRESTON, MD, 21655",68313218,"R"
224570,"4825 BRIXSTON DRIVE","HILLIARD","OH",43026,40.049386199,-83.166790189,70,"4825 BRIXSTON DRIVE, HILLIARD, OH, 43026","Match","Exact","4825 BRIXSTON DR, HILLIARD, OH, 43026",218692660,"L"
224571,"4825 CLAYBURY AVENUE","BALTIMORE","MD",21206,39.318601567,-76.54954523,71,"4825 CLAYBURY AVENUE, BALTIMORE, MD, 21206","Match","Exact","4825 CLAYBURY AVE, BALTIMORE, MD, 21206",206425860,"R"
224572,"4825 COCOANUT DRIVE","TITUSVILLE","FL",32780,28.5541074920001,-80.807537066,72,"4825 COCOANUT DRIVE, TITUSVILLE, FL, 32780","Match","Exact","4825 COCOANUT DR, TITUSVILLE, FL, 32780",93892229,"L"
224573,"4825 CYPRESS DR","HILLSIDE","IL",60162,41.8839286,-87.9048962589999,73,"4825 CYPRESS DR, HILLSIDE, IL, 60162","Match","Exact","4825 CYPRESS DR, HILLSIDE, IL, 60162",111726470,"R"
224574,"4825 DALERIDGE ROAD","LA CANADA FLINTRIDGE","CA",91011,34.2003607020001,-118.180019631,74,"4825 DALERIDGE ROAD, LA CANADA FLINTRIDGE, CA, 91011","Match","Exact","4825 DALERIDGE RD, LA CANADA, CA, 91011",141612874,"L"
224575,"4825 DASHIELL PLACE","WOODBRIDGE","VA",22192,38.6759101870001,-77.351775285,75,"4825 DASHIELL PLACE, WOODBRIDGE, VA, 22192","Match","Exact","4825 DASHIELL PL, WOODBRIDGE, VA, 22192",619942301,"R"
224576,"4825 DAVIS ST APT 1937","AUSTIN","TX",78749,30.204312503,-97.8587953479999,76,"4825 DAVIS ST APT 1937, AUSTIN, TX, 78749","Match","Non_Exact","4825 DAVIS LN, AUSTIN, TX, 78749",64096139,"L"
224577,"4825 EVERHART RD STE 1","CORPUS CHRISTI","TX",78411,27.7194614970001,-97.381319047,77,"4825 EVERHART RD STE 1, CORPUS CHRISTI, TX, 78411","Match","Exact","4825 EVERHART RD, CORPUS CHRISTI, TX, 78411",178521347,"R"
224578,"4825 FERNWOOD COURT","FAIRFIELD","CA",94534,38.1941261110001,-122.144354075,78,"4825 FERNWOOD COURT, FAIRFIELD, CA, 94534","Match","Exact","4825 FERNWOOD CT, FAIRFIELD, CA, 94534",192533564,"R"
224579,"4825 FIRETHORN DR","JACKSON","MI",49201,NA,NA,79,"4825 FIRETHORN DR, JACKSON, MI, 49201","No_Match",NA,NA,NA,NA
224580,"4825 HARVEST MOON CT","SUMMERVILLE","SC",29485,32.9421174400001,-80.116788831,80,"4825 HARVEST MOON CT, SUMMERVILLE, SC, 29485","Match","Exact","4825 HARVEST MOON CT, SUMMERVILLE, SC, 29485",178485703,"L"
224581,"4825 HIGH PLAINS CT","FORT WORTH","TX",76179,32.9451959940001,-97.466007853,81,"4825 HIGH PLAINS CT, FORT WORTH, TX, 76179","Match","Exact","4825 HIGH PLAINS CT, FORT WORTH, TX, 76179",102108267,"L"
224582,"4825 J STREET SUITE 222","SACRAMENTO","CA",95819,38.5669689810001,-121.443452619,82,"4825 J STREET SUITE 222, SACRAMENTO, CA, 95819","Match","Exact","4825 J ST, SACRAMENTO, CA, 95819",133334841,"L"
224583,"4825 PALM TREE CT","LAS VEGAS","NV",89131,36.286449297,-115.207384113,83,"4825 PALM TREE CT, LAS VEGAS, NV, 89131","Match","Exact","4825 PALM TREE CT, LAS VEGAS, NV, 89131",612691094,"L"
224584,"4825 POUNCEY TRACT ROAD","GLEN ALLEN","VA",23059,37.6694988,-77.614355195,84,"4825 POUNCEY TRACT ROAD, GLEN ALLEN, VA, 23059","Match","Exact","4825 POUNCEY TRACT RD, GLEN ALLEN, VA, 23059",106668581,"R"
224585,"4825 QUIET OAK LN","ORLANDO","FM",32819,NA,NA,85,"4825 QUIET OAK LN, ORLANDO, FM, 32819","No_Match",NA,NA,NA,NA
224586,"4825 RICHMOND DRIVE","RACINE","WI",53406,42.7574638740001,-87.839179642,86,"4825 RICHMOND DRIVE, RACINE, WI, 53406","Match","Exact","4825 RICHMOND DR, RACINE, WI, 53406",77912889,"R"
224587,"4825 RIVERCREST LN","BARTLETT","TN",38135,35.2584441860001,-89.8531014879999,87,"4825 RIVERCREST LN, BARTLETT, TN, 38135","Match","Exact","4825 RIVERCREST LN, BARTLETT, TN, 38135",636694474,"L"
224588,"4825 S LAMON","CHICAGO","IL",60638,41.805239515,-87.745528758,88,"4825 S LAMON, CHICAGO, IL, 60638","Match","Non_Exact","4825 S LAMON AVE, CHICAGO, IL, 60638",111799840,"L"
224589,"4825 SOUTH 25TH STREET SUITE 100","OMAHA","NE",68107,41.210671415,-95.948535823,89,"4825 SOUTH 25TH STREET SUITE 100, OMAHA, NE, 68107","Match","Exact","4825 S 25TH ST, OMAHA, NE, 68107",116989675,"L"
224590,"4825 STATE ROUTE 104","OSWEGO","NY",13126,43.4752243040001,-76.366800191,90,"4825 STATE ROUTE 104, OSWEGO, NY, 13126","Match","Exact","4825 STATE RTE 104, OSWEGO, NY, 13126",640441803,"R"
224591,"4825 THUNDERBIRD CIRCLE - 208","BOULDER","CO",80303,39.9888844290001,-105.233115979,91,"4825 THUNDERBIRD CIRCLE - 208, BOULDER, CO, 80303","Match","Exact","4825 THUNDERBIRD CIR, BOULDER, CO, 80303",188163458,"L"
224592,"4825 WESTLAND ST","DEARBORN","MI",48126,42.3208308740001,-83.200325866,92,"4825 WESTLAND ST, DEARBORN, MI, 48126","Match","Exact","4825 WESTLAND ST, DEARBORN, MI, 48126",95441215,"L"
224593,"4825 WOODLAND HILLS DR","ROCHESTER HILLS","MI",48306,42.7281058720001,-83.148954879,93,"4825 WOODLAND HILLS DR, ROCHESTER HILLS, MI, 48306","Match","Exact","4825 WOODLAND HILLS DR, ROCHESTER HILLS, MI, 48306",69821442,"L"
224594,"48250 LITTLE NESTUCCA RV HWY","CLOVERDALE","OR",97112,45.107006971,-123.840125069,94,"48250 LITTLE NESTUCCA RV HWY, CLOVERDALE, OR, 97112","Match","Non_Exact","48250 LITTLE NESTUCCA HWY, CLOVERDALE, OR, 97112",156394575,"L"
224595,"48251 5TH STREET","LONG ISLAND CITY","NY",11101,NA,NA,95,"48251 5TH STREET, LONG ISLAND CITY, NY, 11101","No_Match",NA,NA,NA,NA
224596,"4826 BELLE GLADE DR","RICHMOND","VA",23230,37.6078301320001,-77.507034424,96,"4826 BELLE GLADE DR, RICHMOND, VA, 23230","Match","Exact","4826 BELLE GLADE DR, RICHMOND, VA, 23230",106646856,"R"
224597,"4826 COLEHERNE ROAD","BALTIMORE","MD",21229,39.293663042,-76.701760153,97,"4826 COLEHERNE ROAD, BALTIMORE, MD, 21229","Match","Exact","4826 COLEHERNE RD, BALTIMORE, MD, 21229",206465887,"R"
224598,"4826 E MONTE CRISTO AVE","SCOTTSDALE","AZ",85254,33.6319227820001,-111.976935049,98,"4826 E MONTE CRISTO AVE, SCOTTSDALE, AZ, 85254","Match","Exact","4826 E MONTE CRISTO AVE, SCOTTSDALE, AZ, 85254",128281557,"L"
224599,"4826 NORTH 74TH STREET","MILWAUKEE","WI",53218,43.1055212110001,-88.0046049969999,99,"4826 NORTH 74TH STREET, MILWAUKEE, WI, 53218","Match","Exact","4826 N 74TH ST, MILWAUKEE, WI, 53218",77730196,"R"
224600,"4826 NOTTINGHAMSHIRE DRIVE","LOUISVILLE","KY",40299,38.178463912,-85.601417904,100,"4826 NOTTINGHAMSHIRE DRIVE, LOUISVILLE, KY, 40299","Match","Exact","4826 NOTTINGHAMSHIRE DR, LOUISVILLE, KY, 40299",96866178,"R"
224601,"4826 PLYMOUTH ROCK PLACE","FAYETTEVILLE","AR",72704,36.0884767200001,-94.229454383,101,"4826 PLYMOUTH ROCK PLACE, FAYETTEVILLE, AR, 72704","Match","Exact","4826 PLYMOUTH ROCK PL, FAYETTEVILLE, AR, 72704",49092814,"L"
224602,"4826 POST RD","NASHVILLE","TN",37205,36.1198252410001,-86.8596787669999,102,"4826 POST RD, NASHVILLE, TN, 37205","Match","Exact","4826 POST RD, NASHVILLE, TN, 37205",97229262,"R"
224603,"4826 RIVERSIDE DR S","SALEM","OR",97306,44.832889385,-123.129694867,103,"4826 RIVERSIDE DR S, SALEM, OR, 97306","Match","Exact","4826 RIVERSIDE DR S, SALEM, OR, 97306",613675991,"L"
224604,"4826 W HATCHER RD","GLENDALE","AZ",85302,33.5707603920001,-112.163406843,104,"4826 W HATCHER RD, GLENDALE, AZ, 85302","Match","Exact","4826 W HATCHER RD, GLENDALE, AZ, 85302",128195769,"R"
224605,"4826 WAGONTRAIL COURT","PARKER","CO",80134,39.432329861,-104.775959302,105,"4826 WAGONTRAIL COURT, PARKER, CO, 80134","Match","Exact","4826 WAGONTRAIL CT, PARKER, CO, 80134",627315426,"R"
224606,"4826 WEST MILADA DRIVE","LAVEEN","AZ",85339,33.363630459,-112.163532556,106,"4826 WEST MILADA DRIVE, LAVEEN, AZ, 85339","Match","Exact","4826 W MILADA DR, LAVEEN, AZ, 85339",244014690,"L"
224607,"4827 124TH LN NE","MINNEAPOLIS","MN",55449,45.195674631,-93.149682172,107,"4827 124TH LN NE, MINNEAPOLIS, MN, 55449","Match","Exact","4827 124TH LN NE, MINNEAPOLIS, MN, 55449",625358047,"L"
224608,"4827 ALMONT DRIVE","COLUMBUS","OH",43229,40.064862508,-82.985927754,108,"4827 ALMONT DRIVE, COLUMBUS, OH, 43229","Match","Exact","4827 ALMONT DR, COLUMBUS, OH, 43229",218685497,"L"
224609,"4827 ASHERTON PL","CONCORD","NC",28027,35.376543559,-80.668231518,109,"4827 ASHERTON PL, CONCORD, NC, 28027","Match","Exact","4827 ASHERTON PL, CONCORD, NC, 28027",24914852,"L"
224610,"4827 AUTUMN RIDGE DR","WESLEY CHAPEL","FL",33545,28.227300072,-82.277885141,110,"4827 AUTUMN RIDGE DR, WESLEY CHAPEL, FL, 33545","Match","Exact","4827 AUTUMN RIDGE DR, WESLEY CHAPEL, FL, 33545",618493286,"L"
224611,"4827 CARLISLE RD","JACKSONVILLE","FL",32210,30.259281652,-81.703649094,111,"4827 CARLISLE RD, JACKSONVILLE, FL, 32210","Match","Exact","4827 CARLISLE RD, JACKSONVILLE, FL, 32210",83967323,"L"
224612,"4827 CEDAR BRANCH CT","GLEN ALLEN","VA",23060,37.665046929,-77.5809106949999,112,"4827 CEDAR BRANCH CT, GLEN ALLEN, VA, 23060","Match","Exact","4827 CEDAR BRANCH CT, GLEN ALLEN, VA, 23060",106682589,"L"
224613,"4827 CLIVEDEN LOOP","SANFORD","FL",32773,NA,NA,113,"4827 CLIVEDEN LOOP, SANFORD, FL, 32773","No_Match",NA,NA,NA,NA
224614,"4827 E 20TH ST","JOPLIN","MO",64801,37.069160798,-94.4434713059999,114,"4827 E 20TH ST, JOPLIN, MO, 64801","Match","Exact","4827 E 20TH ST, JOPLIN, MO, 64801",652389910,"L"
224615,"4827 GRAND AVENUE","LA CANADA","CA",91011,34.21253863,-118.203399737,115,"4827 GRAND AVENUE, LA CANADA, CA, 91011","Match","Exact","4827 GRAND AVE, LA CANADA, CA, 91011",141590853,"L"
224616,"4827 IBIS LAKE CT","KATY","TX",77449,29.839892352,-95.725577971,116,"4827 IBIS LAKE CT, KATY, TX, 77449","Match","Exact","4827 IBIS LAKE CT, KATY, TX, 77449",624360803,"L"
224617,"4827 KENMORE AVE N","CHICAGO","IL",60640,NA,NA,117,"4827 KENMORE AVE N, CHICAGO, IL, 60640","No_Match",NA,NA,NA,NA
224618,"4827 KYLE LANE NW","HUNTSVILLE","AL",35810,34.768475186,-86.630410725,118,"4827 KYLE LANE NW, HUNTSVILLE, AL, 35810","Match","Exact","4827 KYLE LN NW, HUNTSVILLE, AL, 35810",58112927,"L"
224619,"4827 OLD NATIONAL HWY PMB 10071","ATLANTA","GA",30337,33.623985293,-84.474236677,119,"4827 OLD NATIONAL HWY PMB 10071, ATLANTA, GA, 30337","Match","Non_Exact","4827 OLD NATIONAL HWY, ATLANTA, GA, 30337",17401443,"R"
224620,"4827 OLD NATIONAL PMB 10104","COLLEGE PARK","GA",30337,NA,NA,120,"4827 OLD NATIONAL PMB 10104, COLLEGE PARK, GA, 30337","No_Match",NA,NA,NA,NA
224621,"4827 POTOMAC ST NUMBER 1FW","ST LOUIS","MO",63116,38.596495771,-90.2690897909999,121,"4827 POTOMAC ST NUMBER 1FW, ST LOUIS, MO, 63116","Match","Exact","4827 POTOMAC ST, SAINT LOUIS, MO, 63116",605131354,"R"
224622,"4827 S CONWAY ROAD","ORLANDO","FL",32812,28.4836252960001,-81.330716552,122,"4827 S CONWAY ROAD, ORLANDO, FL, 32812","Match","Exact","4827 S CONWAY RD, ORLANDO, FL, 32812",637419608,"R"
224623,"4827 S KILLARNEY COURT","AURORA","CO",80015,39.6287216330001,-104.74756171,123,"4827 S KILLARNEY COURT, AURORA, CO, 80015","Match","Exact","4827 S KILLARNEY CT, AURORA, CO, 80015",177541075,"R"
224624,"4827 TWIN EAGLES CIRCLE E APT 202","MEMPHIS","TN",38125,NA,NA,124,"4827 TWIN EAGLES CIRCLE E APT 202, MEMPHIS, TN, 38125","No_Match",NA,NA,NA,NA
224625,"4828 AGREE COURT","SACRAMENTO","CA",95842,38.6975933950001,-121.351380664,125,"4828 AGREE COURT, SACRAMENTO, CA, 95842","Match","Exact","4828 AGREE CT, SACRAMENTO, CA, 95842",133332096,"L"
224626,"4828 BRADSHAW ROAD","GUM SPRING","VA",23065,37.828863438,-77.9279516299999,126,"4828 BRADSHAW ROAD, GUM SPRING, VA, 23065","Match","Exact","4828 BRADSHAW RD, GUM SPRING, VA, 23065",84928753,"L"
224627,"4828 CAROLINA TRACE TRL","FORT WORTH","TX",76244,32.897590655,-97.282542468,127,"4828 CAROLINA TRACE TRL, FORT WORTH, TX, 76244","Match","Exact","4828 CAROLINA TRACE TRL, FORT WORTH, TX, 76244",102105781,"L"
224628,"4828 HENRY ROA","EIGHT MILE","AL",36613,30.774259941,-88.166243854,128,"4828 HENRY ROA, EIGHT MILE, AL, 36613","Match","Non_Exact","4828 HENRY RD, EIGHT MILE, AL, 36613",61924707,"R"
224629,"4828 KIOWA DRIVE","GREELEY","CO",80634,40.3714517170001,-104.758565088,129,"4828 KIOWA DRIVE, GREELEY, CO, 80634","Match","Exact","4828 KIOWA DR, GREELEY, CO, 80634",188701213,"L"
224630,"4828 MEADOWBROOK DR","FORT WORTH","TX",76103,32.7457238270001,-97.2498838449999,130,"4828 MEADOWBROOK DR, FORT WORTH, TX, 76103","Match","Exact","4828 MEADOWBROOK DR, FORT WORTH, TX, 76103",101897441,"R"
224631,"4828 MEADOWVIEW CT","HUDSONVILLE","MI",49426,42.856951817,-85.865839839,131,"4828 MEADOWVIEW CT, HUDSONVILLE, MI, 49426","Match","Exact","4828 MEADOWVIEW CT, HUDSONVILLE, MI, 49426",71097492,"R"
224632,"4828 MEXICO COURT","DALLAS","TX",75236,32.683470405,-96.9042815239999,132,"4828 MEXICO COURT, DALLAS, TX, 75236","Match","Exact","4828 MEXICO CT, DALLAS, TX, 75236",619137425,"L"
224633,"4828 MICHAEL DRIVE","DEL CITY","OK",73115,35.462841935,-97.429373588,133,"4828 MICHAEL DRIVE, DEL CITY, OK, 73115","Match","Non_Exact","4828 MICHAEL PL, DEL CITY, OK, 73115",100413757,"R"
224634,"4828 N 27TH AVE  UNIT 56304","PHOENIX","AZ",85017,33.5086585810001,-112.116997944,134,"4828 N 27TH AVE  UNIT 56304, PHOENIX, AZ, 85017","Match","Non_Exact","4828 N 27TH AVE, PHOENIX, AZ, 85017",128579975,"L"
224635,"4828 REGIMENT COURT","WOODBRIDGE","VA",22193,38.6399678230001,-77.3523543759999,135,"4828 REGIMENT COURT, WOODBRIDGE, VA, 22193","Match","Exact","4828 REGIMENT CT, WOODBRIDGE, VA, 22193",76508702,"R"
224636,"4828 SE VIEW ACRES RD","MILWAUKIE","OR",97267,45.418520169,-122.613898583,136,"4828 SE VIEW ACRES RD, MILWAUKIE, OR, 97267","Match","Exact","4828 SE VIEW ACRES RD, MILWAUKIE, OR, 97267",157978723,"R"
224637,"4828 SW 17TH","CAPE CORAL","FL",33914,26.5619085330001,-82.0100438759999,137,"4828 SW 17TH, CAPE CORAL, FL, 33914","Match","Non_Exact","4828 SW 17TH PL, CAPE CORAL, FL, 33914",650027085,"L"
224638,"4828 TRAIL HOLLOW DRIVE","FORT WORTH","TX",76244,32.9276532160001,-97.28029702,138,"4828 TRAIL HOLLOW DRIVE, FORT WORTH, TX, 76244","Match","Exact","4828 TRAIL HOLLOW DR, FORT WORTH, TX, 76244",619871339,"R"
224639,"4829 ALENJA LN","RALEIGH","NC",27616,35.840022769,-78.559048047,139,"4829 ALENJA LN, RALEIGH, NC, 27616","Match","Exact","4829 ALENJA LN, RALEIGH, NC, 27616",639842233,"L"
224640,"4829 BEACH CT","DENVER","CO",80221,39.784444648,-105.018159785,140,"4829 BEACH CT, DENVER, CO, 80221","Match","Exact","4829 BEACH CT, DENVER, CO, 80221",177299173,"L"
224641,"4829 BECK RD","SAN ANTONIO","TX",78263,29.3759149740001,-98.313024669,141,"4829 BECK RD, SAN ANTONIO, TX, 78263","Match","Exact","4829 BECK RD, SAN ANTONIO, TX, 78263",101735603,"L"
224642,"4829 BERRIDGE LN","DALLAS","TX",75227,32.781061476,-96.694358553,142,"4829 BERRIDGE LN, DALLAS, TX, 75227","Match","Exact","4829 BERRIDGE LN, DALLAS, TX, 75227",102924414,"L"
224643,"4829 BOYAR AVE","LONG BEACH","CA",90807,33.845365975,-118.175109669,143,"4829 BOYAR AVE, LONG BEACH, CA, 90807","Match","Exact","4829 BOYAR AVE, LONG BEACH, CA, 90807",141684804,"L"
224644,"4829 BULL RUN DRIVE","PLANO","TX",75093,33.0525742140001,-96.790831676,144,"4829 BULL RUN DRIVE, PLANO, TX, 75093","Match","Exact","4829 BULL RUN DR, PLANO, TX, 75093",210506039,"R"
224645,"4829 CHARMONT LANE","BREMERTON","WA",98310,47.6072464540001,-122.602992578,145,"4829 CHARMONT LANE, BREMERTON, WA, 98310","Match","Non_Exact","4829 CHARMONT LN NE, BREMERTON, WA, 98310",187667516,"L"
224646,"4829 CONVOY STREET","SAN DIEGO","CA",92111,32.8296218470001,-117.153224537,146,"4829 CONVOY STREET, SAN DIEGO, CA, 92111","Match","Exact","4829 CONVOY ST, SAN DIEGO, CA, 92111",195305235,"R"
224647,"4829 DESPERADO WAY","PARKER","CO",80134,39.4318391900001,-104.78839193,147,"4829 DESPERADO WAY, PARKER, CO, 80134","Match","Exact","4829 DESPERADO WAY, PARKER, CO, 80134",641020357,"R"
224648,"4829 E POINSETTIA","SCOTTSDALE","AZ",85254,33.594224066,-111.976967548,148,"4829 E POINSETTIA, SCOTTSDALE, AZ, 85254","Match","Non_Exact","4829 E POINSETTIA DR, SCOTTSDALE, AZ, 85254",128187742,"R"
224649,"4829 ELDERBERRY LANE","ONTARIO","OR",97914,44.1293532830001,-116.929305428,149,"4829 ELDERBERRY LANE, ONTARIO, OR, 97914","Match","Exact","4829 ELDERBERRY LN, ONTARIO, OR, 97914",138641742,"R"
224650,"4829 ELLIOT AVENUE","MINNEAPOLIS","MN",55417,44.9155267950001,-93.261347926,150,"4829 ELLIOT AVENUE, MINNEAPOLIS, MN, 55417","Match","Non_Exact","4829 ELLIOT AVE S, MINNEAPOLIS, MN, 55417",43634486,"L"
224651,"4829 FOXHALL CRESCENT NW","WASHINGTON","DC",20007,38.923633442,-77.093396022,151,"4829 FOXHALL CRESCENT NW, WASHINGTON, DC, 20007","Match","Exact","4829 FOXHALL CRES NW, WASHINGTON, DC, 20007",76239427,"L"
224652,"4829 INDUSTRY DRIVE","FAIRFIELD","OH",45014,39.344350922,-84.5329553989999,152,"4829 INDUSTRY DRIVE, FAIRFIELD, OH, 45014","Match","Exact","4829 INDUSTRY DR, FAIRFIELD, OH, 45014",113798295,"R"
224653,"4829 JENNIFER COURT","UNION CITY","CA",94587,37.5747119060001,-122.076707917,153,"4829 JENNIFER COURT, UNION CITY, CA, 94587","Match","Exact","4829 JENNIFER CT, UNION CITY, CA, 94587",125023557,"R"
224654,"4829 LAUREL STREET","NEW ORLEANS","LA",70115,29.9183458810001,-90.106653248,154,"4829 LAUREL STREET, NEW ORLEANS, LA, 70115","Match","Exact","4829 LAUREL ST, NEW ORLEANS, LA, 70115",191712915,"R"
224655,"4829 MERION AVENUE","PHILADELPHIA","PA",19131,39.9739557680001,-75.218309248,155,"4829 MERION AVENUE, PHILADELPHIA, PA, 19131","Match","Exact","4829 MERION AVE, PHILADELPHIA, PA, 19131",131398684,"R"
224656,"4829 MINNETONKA BLVD SUITE 202","ST LOUIS PARK","MN",55416,44.948458487,-93.3406566199999,156,"4829 MINNETONKA BLVD SUITE 202, ST LOUIS PARK, MN, 55416","Match","Exact","4829 MINNETONKA BLVD, SAINT LOUIS PARK, MN, 55416",43625956,"L"
224657,"4829 MT CAMERON DRIVE","BRIGHTON","CO",80601,39.982992767,-104.754831431,157,"4829 MT CAMERON DRIVE, BRIGHTON, CO, 80601","Match","Exact","4829 MT CAMERON DR, BRIGHTON, CO, 80601",653312046,"L"
224658,"4829 ORINDA AVE","VIEW PARK","CA",90043,33.9997030390001,-118.344024569,158,"4829 ORINDA AVE, VIEW PARK, CA, 90043","Match","Exact","4829 ORINDA AVE, VIEW PARK, CA, 90043",141602425,"R"
224659,"4829 PINE KNOTT LANE","WEST PALM BEACH","FL",33417,26.704006884,-80.117161723,159,"4829 PINE KNOTT LANE, WEST PALM BEACH, FL, 33417","Match","Exact","4829 PINE KNOTT LN, WEST PALM BEACH, FL, 33417",115270875,"R"
224660,"4829 SE 71ST STREET","PORTLAND","OR",97206,NA,NA,160,"4829 SE 71ST STREET, PORTLAND, OR, 97206","No_Match",NA,NA,NA,NA
224661,"4829 SHAFFER RD","SEVEN VALLEYS","PA",17360,39.8201895350001,-76.813578896,161,"4829 SHAFFER RD, SEVEN VALLEYS, PA, 17360","Match","Exact","4829 SHAFFER RD, SEVEN VALLEYS, PA, 17360",637566220,"L"
224662,"4829 TURNBERRY LN","COLUMBUS","GA",31909,32.5638409200001,-84.9176042079999,162,"4829 TURNBERRY LN, COLUMBUS, GA, 31909","Match","Exact","4829 TURNBERRY LN, COLUMBUS, GA, 31909",637393788,"R"
224663,"4829 W FOREST OAKS AVE","BANNING","CA",92220,33.9169402380001,-116.930208541,163,"4829 W FOREST OAKS AVE, BANNING, CA, 92220","Match","Exact","4829 W FOREST OAKS AVE, BANNING, CA, 92220",195046492,"L"
224664,"4829 WORTH ST UNIT A","DALLAS","TX",75426,32.7978306150001,-96.768465963,164,"4829 WORTH ST UNIT A, DALLAS, TX, 75426","Match","Non_Exact","4829 WORTH ST, DALLAS, TX, 75246",102919802,"L"
224665,"483 17TH ST 2A","BROOKLYN","NY",11215,40.658528776,-73.9826851999999,165,"483 17TH ST 2A, BROOKLYN, NY, 11215","Match","Exact","483 17TH ST, BROOKLYN, NY, 11215",59075829,"L"
224666,"483 30 ROAD","GRAND JUNCTION","CO",81504,39.075089528,-108.496541714,166,"483 30 ROAD, GRAND JUNCTION, CO, 81504","Match","Exact","483 30 RD, GRAND JCT, CO, 81504",122458641,"L"
224667,"483 BLOSSOM TREE DRIVE","CULPEPER","VA",22701,38.480397167,-78.012276054,167,"483 BLOSSOM TREE DRIVE, CULPEPER, VA, 22701","Match","Non_Exact","483 BLOSSOM TREE RD, CULPEPER, VA, 22701",225080791,"L"
224668,"483 BOYDEN STREET","WATERBURY","CT",6704,41.590970031,-73.0399318249999,168,"483 BOYDEN STREET, WATERBURY, CT, 6704","Match","Exact","483 BOYDEN ST, WATERBURY, CT, 06704",636503871,"L"
224669,"483 CORVALLIS COURT","RENO","NV",89511,39.385121435,-119.785247168,169,"483 CORVALLIS COURT, RENO, NV, 89511","Match","Exact","483 CORVALLIS CT, RENO, NV, 89511",107086844,"R"
224670,"483 COUNTY HIGHWAY 107","JOHNSTOWN","NY",12095,43.00968083,-74.3173873919999,170,"483 COUNTY HIGHWAY 107, JOHNSTOWN, NY, 12095","Match","Exact","483 CO HWY 107, JOHNSTOWN, NY, 12095",153653998,"L"
224671,"483 COUNTY ROAD 4878","COPPERAS COVE","TX",76522,31.0779375000001,-97.935090052,171,"483 COUNTY ROAD 4878, COPPERAS COVE, TX, 76522","Match","Exact","483 CO RD 4878, COPPERAS COVE, TX, 76522",146695122,"L"
224672,"483 COUNTY ROUTE 3","FULTON","NY",13069,43.326223688,-76.46974482,172,"483 COUNTY ROUTE 3, FULTON, NY, 13069","Match","Exact","483 CO RTE 3, FULTON, NY, 13069",57826037,"R"
224673,"483 CR 1591","SUNSET","TX",76270,NA,NA,173,"483 CR 1591, SUNSET, TX, 76270","No_Match",NA,NA,NA,NA
224674,"483 CRESTWOOD COURT","LITHONIA","GA",30058,33.783154467,-84.1001243279999,174,"483 CRESTWOOD COURT, LITHONIA, GA, 30058","Match","Exact","483 CRESTWOOD CT, LITHONIA, GA, 30058",23385309,"L"
224675,"483 EDWARDS STREET","JOHNSTOWN","PA",15905,NA,NA,175,"483 EDWARDS STREET, JOHNSTOWN, PA, 15905","No_Match",NA,NA,NA,NA
224676,"483 F STREET NUMBER18","CHULA VISTA","CA",91910,32.639261833,-117.087171791,176,"483 F STREET NUMBER18, CHULA VISTA, CA, 91910","Match","Exact","483 F ST, CHULA VISTA, CA, 91910",195355647,"R"
224677,"483 FITCH RD","CHICAGO HEIGHTS","IL",60411,41.5214302370001,-87.661739059,177,"483 FITCH RD, CHICAGO HEIGHTS, IL, 60411","Match","Exact","483 FITCH RD, CHICAGO HEIGHTS, IL, 60411",111711055,"R"
224678,"483 HANOVER KENDALL ROAD","HOOKSTOWN","PA",15050,40.53308493,-80.443522295,178,"483 HANOVER KENDALL ROAD, HOOKSTOWN, PA, 15050","Match","Exact","483 HANOVER KENDALL RD, HOOKSTOWN, PA, 15050",52576583,"L"
224679,"483 HUNTERS RNCH E","SAN ANTONIO","TX",78253,NA,NA,179,"483 HUNTERS RNCH E, SAN ANTONIO, TX, 78253","No_Match",NA,NA,NA,NA
224680,"483 LOS COCHES STREET","MILPITAS","CA",95035,37.4311935810001,-121.89630823,180,"483 LOS COCHES STREET, MILPITAS, CA, 95035","Match","Exact","483 LOS COCHES ST, MILPITAS, CA, 95035",123179514,"L"
224681,"483 MAIN STREET P O BOX 1063","WARSAW","VA",22572,37.9648207130001,-76.7549267799999,181,"483 MAIN STREET P O BOX 1063, WARSAW, VA, 22572","Match","Exact","483 MAIN ST, WARSAW, VA, 22572",22154207,"L"
224682,"483 PARKER AVE","HACKENSACK","NJ",7601,40.8844483710001,-74.063275384,182,"483 PARKER AVE, HACKENSACK, NJ, 7601","Match","Exact","483 PARKER AVE, HACKENSACK, NJ, 07601",64385314,"L"
224683,"483 PEBBLE ROAD","REYNOLDS","GA",31076,32.533216769,-84.159641159,183,"483 PEBBLE ROAD, REYNOLDS, GA, 31076","Match","Exact","483 PEBBLE RD, REYNOLDS, GA, 31076",30777166,"L"
224684,"483 RIVER ST","NORWELL","MA",2061,42.1306892860001,-70.798112164,184,"483 RIVER ST, NORWELL, MA, 2061","Match","Exact","483 RIVER ST, NORWELL, MA, 02061",87489089,"L"
224685,"483 RIVER STREET","NORWELL","MA",2061,42.1306892860001,-70.798112164,185,"483 RIVER STREET, NORWELL, MA, 2061","Match","Exact","483 RIVER ST, NORWELL, MA, 02061",87489089,"L"
224686,"483 SHIRLEY AVE","BUFFALO","NY",14215,42.9441860740001,-78.806463439,186,"483 SHIRLEY AVE, BUFFALO, NY, 14215","Match","Exact","483 SHIRLEY AVE, BUFFALO, NY, 14215",48297127,"R"
224687,"483 SOUTH BROADWAY APT 7","LAWRENCE","MA",1843,42.684051448,-71.155025528,187,"483 SOUTH BROADWAY APT 7, LAWRENCE, MA, 1843","Match","Exact","483 S BROADWAY, LAWRENCE, MA, 01843",86628859,"R"
224688,"483 TERRANOVA ST","WINTER HAVEN","FL",33884,NA,NA,188,"483 TERRANOVA ST, WINTER HAVEN, FL, 33884","No_Match",NA,NA,NA,NA
224689,"483 TURKEY CREEK ROAD","NEWNAN","GA",30263,33.353816228,-84.7697252999999,189,"483 TURKEY CREEK ROAD, NEWNAN, GA, 30263","Match","Exact","483 TURKEY CREEK RD, NEWNAN, GA, 30263",645783077,"L"
224690,"483 VALDAPENA WAY","ESCALON","CA",95320,37.7926113010001,-121.009446322,190,"483 VALDAPENA WAY, ESCALON, CA, 95320","Match","Exact","483 VALDAPENA WAY, ESCALON, CA, 95320",133864821,"R"
224691,"483 WALNUT STREET","WESTERNPORT","MD",21562,39.49184403,-79.0460550879999,191,"483 WALNUT STREET, WESTERNPORT, MD, 21562","Match","Exact","483 WALNUT ST, WESTERNPORT, MD, 21562",123323332,"L"
224692,"483 WHISPERING HILLS DR","LEXINGTON","KY",40517,37.9773065300001,-84.507584412,192,"483 WHISPERING HILLS DR, LEXINGTON, KY, 40517","Match","Exact","483 WHISPERING HILLS DR, LEXINGTON, KY, 40517",31938784,"L"
224693,"4830 BROWNS MILL RD","LITHONIA","GA",30038,33.6785456970001,-84.190247374,193,"4830 BROWNS MILL RD, LITHONIA, GA, 30038","Match","Exact","4830 BROWNS MILL RD, LITHONIA, GA, 30038",615311799,"L"
224694,"4830 CALLERY CREEK DR","HOUSTON","TX",77053,29.5955449420001,-95.4528035449999,194,"4830 CALLERY CREEK DR, HOUSTON, TX, 77053","Match","Exact","4830 CALLERY CREEK DR, HOUSTON, TX, 77053",639260733,"R"
224695,"4830 E AMELIA AVE","PHOENIX","AZ",85018,33.493565346,-111.97711779,195,"4830 E AMELIA AVE, PHOENIX, AZ, 85018","Match","Exact","4830 E AMELIA AVE, PHOENIX, AZ, 85018",128220621,"L"
224696,"4830 E CRESTVIEW ST","FLAGSTAFF","AZ",86004,35.30505644,-111.5638668,196,"4830 E CRESTVIEW ST, FLAGSTAFF, AZ, 86004","Match","Exact","4830 E CRESTVIEW ST, FLAGSTAFF, AZ, 86004",188996348,"L"
224697,"4830 EGYPT CENTRAL RD","MEMPHIS","TN",38128,35.2420899730001,-89.9023850789999,197,"4830 EGYPT CENTRAL RD, MEMPHIS, TN, 38128","Match","Exact","4830 EGYPT CENTRAL RD, MEMPHIS, TN, 38128",607512986,"L"
224698,"4830 FORT TOTTEN DRIVE NE SUITE 201","WASHINGTON","DC",20011,38.9490546760001,-77.006356684,198,"4830 FORT TOTTEN DRIVE NE SUITE 201, WASHINGTON, DC, 20011","Match","Exact","4830 FORT TOTTEN DR NE, WASHINGTON, DC, 20011",649878180,"L"
224699,"4830 HAWLEY DR","GENEVA","OH",44041,41.856238166,-80.93074889,199,"4830 HAWLEY DR, GENEVA, OH, 44041","Match","Exact","4830 HAWLEY DR, GENEVA, OH, 44041",624493680,"R"
224700,"4830 HWY 260","LAKESIDE","AZ",85929,NA,NA,200,"4830 HWY 260, LAKESIDE, AZ, 85929","No_Match",NA,NA,NA,NA
224701,"4830 INNISBROOK CT APT 1008","MYRTLE BEACH","SC",29579,33.781822655,-78.9640647529999,201,"4830 INNISBROOK CT APT 1008, MYRTLE BEACH, SC, 29579","Match","Exact","4830 INNISBROOK CT, MYRTLE BEACH, SC, 29579",631381243,"R"
224702,"4830 LINE AVE     NO 117","SHREVEPORT","LA",71106,32.458011889,-93.7460506639999,202,"4830 LINE AVE     NO 117, SHREVEPORT, LA, 71106","Match","Non_Exact","4830 LINE AVE, SHREVEPORT, LA, 71106",57440976,"R"
224703,"4830 LINE AVE NUMBER 376","SHREVEPORT","LA",71106,32.458011889,-93.7460506639999,203,"4830 LINE AVE NUMBER 376, SHREVEPORT, LA, 71106","Match","Exact","4830 LINE AVE, SHREVEPORT, LA, 71106",57440976,"R"
224704,"4830 LINE AVENUE   NUMBER 120","SHREVEPORT","LA",71106,32.458011889,-93.7460506639999,204,"4830 LINE AVENUE   NUMBER 120, SHREVEPORT, LA, 71106","Match","Exact","4830 LINE AVE, SHREVEPORT, LA, 71106",57440976,"R"
224705,"4830 LINE AVENUE NUMBER 307","SHREVEPORT","LA",71106,32.458011889,-93.7460506639999,205,"4830 LINE AVENUE NUMBER 307, SHREVEPORT, LA, 71106","Match","Exact","4830 LINE AVE, SHREVEPORT, LA, 71106",57440976,"R"
224706,"4830 MALTA STREET","LOS ANGELES","CA",90042,34.106767059,-118.206353585,206,"4830 MALTA STREET, LOS ANGELES, CA, 90042","Match","Exact","4830 MALTA ST, LOS ANGELES, CA, 90042",141614137,"R"
224707,"4830 N LOUIS AVENUE","CHICAGO","IL",60625,NA,NA,207,"4830 N LOUIS AVENUE, CHICAGO, IL, 60625","No_Match",NA,NA,NA,NA
224708,"4830 N NEAL RANCH RD","KINGMAN","AZ",86401,35.2632180270001,-113.970100556,208,"4830 N NEAL RANCH RD, KINGMAN, AZ, 86401","Match","Non_Exact","4830 N NEAL RANCH RD, KINGMAN, AZ, 86409",638006172,"L"
224709,"4830 N RIVER ROAD","SPRINGFIELD","OH",45502,NA,NA,209,"4830 N RIVER ROAD, SPRINGFIELD, OH, 45502","Tie",NA,NA,NA,NA
224710,"4830 PAULINE DRIVE","NEW ORLEANS","LA",70126,30.011237464,-90.031682964,210,"4830 PAULINE DRIVE, NEW ORLEANS, LA, 70126","Match","Exact","4830 PAULINE DR, NEW ORLEANS, LA, 70126",191705192,"L"
224711,"4830 RAYMOND RD","JACKSON","MS",39212,32.247907409,-90.312900568,211,"4830 RAYMOND RD, JACKSON, MS, 39212","Match","Exact","4830 RAYMOND RD, JACKSON, MS, 39212",611223114,"R"
224712,"4830 RIVER GREEN PKWY","DULUTH","GA",30096,34.013677171,-84.16693228,212,"4830 RIVER GREEN PKWY, DULUTH, GA, 30096","Match","Non_Exact","4830 RIVER GREEN PKWY NW, DULUTH, GA, 30096",88943572,"L"
224713,"4830 SEQUOIA PARK LN","KATY","TX",77494,29.720820019,-95.84214023,213,"4830 SEQUOIA PARK LN, KATY, TX, 77494","Match","Exact","4830 SEQUOIA PARK LN, KATY, TX, 77494",642954344,"L"
224714,"4830 THOMASBROOK LANE","LINCOLN","NE",68516,40.76501619,-96.61993836,214,"4830 THOMASBROOK LANE, LINCOLN, NE, 68516","Match","Exact","4830 THOMASBROOK LN, LINCOLN, NE, 68516",640632664,"L"
224715,"4830 VALOR WAY","MADISON","WI",53718,43.027291303,-89.2951319269999,215,"4830 VALOR WAY, MADISON, WI, 53718","Match","Exact","4830 VALOR WAY, MADISON, WI, 53718",639591664,"L"
224716,"4830 W PARK ROAD","HOLLYWOOD","FL",33021,26.028651375,-80.1924376279999,216,"4830 W PARK ROAD, HOLLYWOOD, FL, 33021","Match","Exact","4830 W PARK RD, HOLLYWOOD, FL, 33021",640934732,"L"
224717,"4830 WALTON AVENUE","PHILADELPHIA","PA",19143,39.9488979990001,-75.219792162,217,"4830 WALTON AVENUE, PHILADELPHIA, PA, 19143","Match","Exact","4830 WALTON AVE, PHILADELPHIA, PA, 19143",131399869,"L"
224718,"4830 WICKFORD DRIVE EAST","SYLVANIA","OH",43560,41.7026686140001,-83.7006707099999,218,"4830 WICKFORD DRIVE EAST, SYLVANIA, OH, 43560","Match","Exact","4830 WICKFORD DR E, SYLVANIA, OH, 43560",33927338,"R"
224719,"4830 WILSON RD UNIT 58","HUMBLE","TX",77396,29.936659392,-95.249569852,219,"4830 WILSON RD UNIT 58, HUMBLE, TX, 77396","Match","Exact","4830 WILSON RD, HUMBLE, TX, 77396",642107939,"L"
224720,"48309 TECUMSEH DR","MACOMB","MI",48044,42.6526040360001,-82.922577141,220,"48309 TECUMSEH DR, MACOMB, MI, 48044","Match","Exact","48309 TECUMSEH DR, MACOMB, MI, 48044",650915124,"L"
224721,"4831 E CLINTON AVE","FRESNO","CA",93703,36.772246916,-119.734934471,221,"4831 E CLINTON AVE, FRESNO, CA, 93703","Match","Exact","4831 E CLINTON AVE, FRESNO, CA, 93703",197577838,"L"
224722,"4831 EAST AUGUSTA AVE","CHANDLER","AZ",85249,33.2183048360001,-111.759143518,222,"4831 EAST AUGUSTA AVE, CHANDLER, AZ, 85249","Match","Exact","4831 E AUGUSTA AVE, CHANDLER, AZ, 85249",128854834,"R"
224723,"4831 GREENLAND ROAD","JACKSONVILLE","FL",32258,30.1613010900001,-81.581601593,223,"4831 GREENLAND ROAD, JACKSONVILLE, FL, 32258","Match","Exact","4831 GREENLAND RD, JACKSONVILLE, FL, 32258",83989649,"R"
224724,"4831 HENDRIX DR","FOREST PARK","GA",30297,33.6232389300001,-84.3704944199999,224,"4831 HENDRIX DR, FOREST PARK, GA, 30297","Match","Exact","4831 HENDRIX DR, FOREST PARK, GA, 30297",647698078,"R"
224725,"4831 HUTCHINSON ST","PHILADELPHIA","PA",19141,40.0256522920001,-75.13971789,225,"4831 HUTCHINSON ST, PHILADELPHIA, PA, 19141","Match","Non_Exact","4831 N HUTCHINSON ST, PHILADELPHIA, PA, 19141",131417397,"R"
224726,"4831 INTEGRITY STREET","NORTH LAS VEGAS","NV",89301,36.2477182040001,-115.176134613,226,"4831 INTEGRITY STREET, NORTH LAS VEGAS, NV, 89301","Match","Non_Exact","4831 INTEGRITY ST, N LAS VEGAS, NV, 89031",201951645,"L"
224727,"4831 OHU","KAPAA","HI",96746,22.0899777170001,-159.321879795,227,"4831 OHU, KAPAA, HI, 96746","Match","Non_Exact","4831 OHU RD, KAPAA, HI, 96746",203403957,"L"
224728,"4831 OLYMPIC DR","WICHITA FALLS","TX",76310,33.851597762,-98.587154616,228,"4831 OLYMPIC DR, WICHITA FALLS, TX, 76310","Match","Exact","4831 OLYMPIC DR, WICHITA FALLS, TX, 76310",624313086,"R"
224729,"4831 PANAMA LN A1","BAKERSFIELD","CA",93313,35.2959498050001,-119.055813158,229,"4831 PANAMA LN A1, BAKERSFIELD, CA, 93313","Match","Exact","4831 PANAMA LN, BAKERSFIELD, CA, 93313",640632703,"L"
224730,"4831 S 162ND E AVE","TULSA","OK",74134,36.093953792,-95.79673332,230,"4831 S 162ND E AVE, TULSA, OK, 74134","Match","Exact","4831 S 162ND E AVE, TULSA, OK, 74134",624660041,"L"
224731,"4831 S BOHLEBER RD","EVANSVILLE","IN",47712,NA,NA,231,"4831 S BOHLEBER RD, EVANSVILLE, IN, 47712","Tie",NA,NA,NA,NA
224732,"4831 S GRAMERCY PLACE","LOS ANGELES","CA",90062,33.998923242,-118.313832157,232,"4831 S GRAMERCY PLACE, LOS ANGELES, CA, 90062","Match","Exact","4831 S GRAMERCY PL, LOS ANGELES, CA, 90062",141606463,"R"
224733,"4831 SW 205TH AVENUE","SOUTHWEST RANCHES","FL",33332,26.0595518530001,-80.422628816,233,"4831 SW 205TH AVENUE, SOUTHWEST RANCHES, FL, 33332","Match","Exact","4831 SW 205TH AVE, SOUTHWEST RANCHES, FL, 33332",114696651,"R"
224734,"4832 E 131ST PL","THORNTON","CO",80241,39.9329561420001,-104.931800996,234,"4832 E 131ST PL, THORNTON, CO, 80241","Match","Exact","4832 E 131ST PL, THORNTON, CO, 80241",177414284,"L"
224735,"4832 EAST 131ST PLACE","THORNTON","CO",80241,39.9329633360001,-104.931798544,235,"4832 EAST 131ST PLACE, THORNTON, CO, 80241","Match","Exact","4832 E 131ST PL, THORNTON, CO, 80241",177414284,"L"
224736,"4832 HEADWIND DRIVE","FAYETTEVILLE","NC",28306,34.9576983360001,-78.8463912939999,236,"4832 HEADWIND DRIVE, FAYETTEVILLE, NC, 28306","Match","Exact","4832 HEADWIND DR, FAYETTEVILLE, NC, 28306",64270609,"L"
224737,"4832 HOME AVENUE","SAN DIEGO","CA",92105,32.7361946010001,-117.092352545,237,"4832 HOME AVENUE, SAN DIEGO, CA, 92105","Match","Exact","4832 HOME AVE, SAN DIEGO, CA, 92105",195350477,"L"
224738,"4832 NANNIE HELEN BURROUGHS AVENUE","WASHINGTON","DC",20019,38.898855772,-76.93303056,238,"4832 NANNIE HELEN BURROUGHS AVENUE, WASHINGTON, DC, 20019","Match","Non_Exact","4832 NANNIE HELEN BURROUGHS AVE NE, WASHINGTON, DC, 20019",76243572,"L"
224739,"4832 NE CLEVELAND AVENUE","PORTLAND","OR",97211,45.55796917,-122.665634019,239,"4832 NE CLEVELAND AVENUE, PORTLAND, OR, 97211","Match","Exact","4832 NE CLEVELAND AVE, PORTLAND, OR, 97211",157563469,"R"
224740,"4832 S 5TH ST","LOUISVILLE","KY",40214,38.1785196210001,-85.7695906009999,240,"4832 S 5TH ST, LOUISVILLE, KY, 40214","Match","Exact","4832 S 5TH ST, LOUISVILLE, KY, 40214",96848895,"R"
224741,"4832 SISKIYOU LOOP SE","OLYMPIA","WA",98501,47.0039619710001,-122.860491457,241,"4832 SISKIYOU LOOP SE, OLYMPIA, WA, 98501","Match","Exact","4832 SISKIYOU LOOP SE, OLYMPIA, WA, 98501",180975442,"L"
224742,"4832 W KALAMO HWY","CHARLOTTE","MI",48813,42.538834869,-84.9324864439999,242,"4832 W KALAMO HWY, CHARLOTTE, MI, 48813","Match","Exact","4832 W KALAMO HWY, CHARLOTTE, MI, 48813",12029684,"L"
224743,"4832 WAYNE MADISON RD","TRENTON","OH",45067,NA,NA,243,"4832 WAYNE MADISON RD, TRENTON, OH, 45067","No_Match",NA,NA,NA,NA
224744,"4832 WEAVER ROAD","LAKE CHARLES","LA",70605,30.1699158120001,-93.257697023,244,"4832 WEAVER ROAD, LAKE CHARLES, LA, 70605","Match","Exact","4832 WEAVER RD, LAKE CHARLES, LA, 70605",88450405,"R"
224745,"48320 DE LUZ ROAD","TEMECULA","CA",92590,NA,NA,245,"48320 DE LUZ ROAD, TEMECULA, CA, 92590","No_Match",NA,NA,NA,NA
224746,"48322 FAR CRY ROAD","LEXINGTON PARK","MD",20653,38.2282777730001,-76.401047381,246,"48322 FAR CRY ROAD, LEXINGTON PARK, MD, 20653","Match","Exact","48322 FAR CRY RD, LEXINGTON PARK, MD, 20653",36628708,"R"
224747,"4833 ARROYO TRAIL","LOUISVILLE","KY",40229,38.085245817,-85.6743120469999,247,"4833 ARROYO TRAIL, LOUISVILLE, KY, 40229","Match","Exact","4833 ARROYO TRL, LOUISVILLE, KY, 40229",645485327,"L"
224748,"4833 BEREWICK TOWN CENTER DR E 191","CHARLOTTE","NC",28278,35.161767163,-80.9726782119999,248,"4833 BEREWICK TOWN CENTER DR E 191, CHARLOTTE, NC, 28278","Match","Non_Exact","4833 BEREWICK TOWN CENTER DR, CHARLOTTE, NC, 28278",648376566,"L"
224749,"4833 BEREWICK TOWN CTR DR - E-176","CHARLOTTE","NC",28278,35.161767163,-80.9726782119999,249,"4833 BEREWICK TOWN CTR DR - E-176, CHARLOTTE, NC, 28278","Match","Exact","4833 BEREWICK TOWN CENTER DR, CHARLOTTE, NC, 28278",648376566,"L"
224750,"4833 CHARLOTTE CT NE","ALBUQUERQUE","NM",87109,35.135693642,-106.555392918,250,"4833 CHARLOTTE CT NE, ALBUQUERQUE, NM, 87109","Match","Exact","4833 CHARLOTTE CT NE, ALBUQUERQUE, NM, 87109",206713531,"L"
224751,"4833 ENOCH DR","NASHVILLE","TN",37211,36.044555062,-86.730217125,251,"4833 ENOCH DR, NASHVILLE, TN, 37211","Match","Exact","4833 ENOCH DR, NASHVILLE, TN, 37211",97227925,"L"
224752,"4833 ESCOBEDO DR","WOODLAND HILLS","CA",91364,34.157798192,-118.589027277,252,"4833 ESCOBEDO DR, WOODLAND HILLS, CA, 91364","Match","Exact","4833 ESCOBEDO DR, WOODLAND HILLS, CA, 91364",141535744,"L"
224753,"4833 FRONT STREET UNITB118","CASTLE ROCK","CO",80104,39.403085048,-104.862303449,253,"4833 FRONT STREET UNITB118, CASTLE ROCK, CO, 80104","Match","Exact","4833 FRONT ST, CASTLE ROCK, CO, 80104",651705308,"L"
224754,"4833 MONARCH DR","MESQUITE","TX",75181,32.718562736,-96.5383946759999,254,"4833 MONARCH DR, MESQUITE, TX, 75181","Match","Exact","4833 MONARCH DR, MESQUITE, TX, 75181",639481310,"R"
224755,"4833 N KILDARE","CHICAGO","IL",60630,41.9691107570001,-87.73545007,255,"4833 N KILDARE, CHICAGO, IL, 60630","Match","Non_Exact","4833 N KILDARE AVE, CHICAGO, IL, 60630",605169828,"R"
224756,"4833 NE 42ND STREET","SEATTLE","WA",98105,47.6591392190001,-122.2761034,256,"4833 NE 42ND STREET, SEATTLE, WA, 98105","Match","Exact","4833 NE 42ND ST, SEATTLE, WA, 98105",186588348,"R"
224757,"4833 OLD NATIONAL HWY","COLLEGE PARK","GA",30337,33.6238858450001,-84.474236027,257,"4833 OLD NATIONAL HWY, COLLEGE PARK, GA, 30337","Match","Exact","4833 OLD NATIONAL HWY, COLLEGE PARK, GA, 30337",17401443,"R"
224758,"4833 PLEASANT GARDEN RD","PLEASANT GARDEN","NC",27313,35.961794533,-79.762081732,258,"4833 PLEASANT GARDEN RD, PLEASANT GARDEN, NC, 27313","Match","Exact","4833 PLEASANT GARDEN RD, PLEASANT GARDEN, NC, 27313",131087084,"R"
224759,"4833 S HARRISON STREET","FORT WAYNE","IN",46807,41.039900174,-85.1382764909999,259,"4833 S HARRISON STREET, FORT WAYNE, IN, 46807","Match","Exact","4833 S HARRISON ST, FORT WAYNE, IN, 46807",6382518,"L"
224760,"4833 S VINCENNES AVENUE","CHICAGO","IL",60615,41.806596185,-87.61385219,260,"4833 S VINCENNES AVENUE, CHICAGO, IL, 60615","Match","Exact","4833 S VINCENNES AVE, CHICAGO, IL, 60615",111770885,"L"
224761,"4833 SANTA MONICA AVENUE SUITE 7878","SAN DIEGO","CA",92107,32.745944192,-117.247477762,261,"4833 SANTA MONICA AVENUE SUITE 7878, SAN DIEGO, CA, 92107","Match","Exact","4833 SANTA MONICA AVE, SAN DIEGO, CA, 92107",195339395,"L"
224762,"4833 SARATOGA BLVD APT 717","CORPUS CHRISTI","TX",78413,NA,NA,262,"4833 SARATOGA BLVD APT 717, CORPUS CHRISTI, TX, 78413","No_Match",NA,NA,NA,NA
224763,"4833 SARATOGA BLVD SUITE 403","CORPUS CHRISTI","TX",78413,NA,NA,263,"4833 SARATOGA BLVD SUITE 403, CORPUS CHRISTI, TX, 78413","No_Match",NA,NA,NA,NA
224764,"4833 W IOWA","CHICAGO","IL",60651,41.8968325760001,-87.746729962,264,"4833 W IOWA, CHICAGO, IL, 60651","Match","Non_Exact","4833 W IOWA ST, CHICAGO, IL, 60651",642123039,"L"
224765,"4833 WEST 142ND STREET","HAWTHORNE","CA",90250,33.9028111270001,-118.362467934,265,"4833 WEST 142ND STREET, HAWTHORNE, CA, 90250","Match","Exact","4833 W 142ND ST, HAWTHORNE, CA, 90250",647673915,"R"
224766,"4833-E BEREWICK TOWN CENTER DR 215","CHARLOTTE","NC",28278,35.161767163,-80.9726782119999,266,"4833-E BEREWICK TOWN CENTER DR 215, CHARLOTTE, NC, 28278","Match","Exact","4833 BEREWICK TOWN CENTER DR, CHARLOTTE, NC, 28278",648376566,"L"
224767,"4834 ADENMOOR AVE","LAKEWOOD","CA",90713,33.845362906,-118.124042242,267,"4834 ADENMOOR AVE, LAKEWOOD, CA, 90713","Match","Exact","4834 ADENMOOR AVE, LAKEWOOD, CA, 90713",642865014,"R"
224768,"4834 CRESTED BUTTE TRL","ROCKFORD","IL",61114,42.3141546160001,-89.0234298249999,268,"4834 CRESTED BUTTE TRL, ROCKFORD, IL, 61114","Match","Exact","4834 CRESTED BUTTE TRL, ROCKFORD, IL, 61114",49270891,"R"
224769,"4834 CROW ST","ORLANDO","FL",32819,28.4583014740001,-81.4433484049999,269,"4834 CROW ST, ORLANDO, FL, 32819","Match","Exact","4834 CROW ST, ORLANDO, FL, 32819",94289598,"L"
224770,"4834 LURLINE STREET","NEW ORLEANS","LA",70127,30.0234972540001,-89.97107892,270,"4834 LURLINE STREET, NEW ORLEANS, LA, 70127","Match","Exact","4834 LURLINE ST, NEW ORLEANS, LA, 70127",191721761,"L"
224771,"4834 N LOMBARD ST","PORTLAND","OR",97203,45.5805794780001,-122.718923355,271,"4834 N LOMBARD ST, PORTLAND, OR, 97203","Match","Exact","4834 N LOMBARD ST, PORTLAND, OR, 97203",157581663,"L"
224772,"4834 PERSHING STREET","HOUSTON","TX",77033,29.6789339790001,-95.350120308,272,"4834 PERSHING STREET, HOUSTON, TX, 77033","Match","Exact","4834 PERSHING ST, HOUSTON, TX, 77033",96089330,"R"
224773,"4834 PINTAIL CT NE","LACEY","WA",98516,47.100289795,-122.771541301,273,"4834 PINTAIL CT NE, LACEY, WA, 98516","Match","Exact","4834 PINTAIL CT NE, LACEY, WA, 98516",648506567,"L"
224774,"4834 S KING DRIVE APT 101","CHICAGO","IL",60615,NA,NA,274,"4834 S KING DRIVE APT 101, CHICAGO, IL, 60615","No_Match",NA,NA,NA,NA
224775,"4834 SARDINE CREEK ROAD RIGHT FORK","GOLD HILL","OR",97525,42.503071945,-123.066494409,275,"4834 SARDINE CREEK ROAD RIGHT FORK, GOLD HILL, OR, 97525","Match","Exact","4834 SARDINE CREEK RD, GOLD HILL, OR, 97525",155598350,"R"
224776,"4834 STATE ROUTE 325","PATRIOT","OH",45658,38.8228414540001,-82.400527776,276,"4834 STATE ROUTE 325, PATRIOT, OH, 45658","Match","Exact","4834 STATE RTE 325, PATRIOT, OH, 45658",54954746,"L"
224777,"4834 SUMMIT BLVD","WEST PALM BEACH","FL",33415,26.662784005,-80.118686279,277,"4834 SUMMIT BLVD, WEST PALM BEACH, FL, 33415","Match","Exact","4834 SUMMIT BLVD, WEST PALM BEACH, FL, 33415",115272436,"L"
224778,"4835 BONITA BEACH ROAD","BONITA SPRINGS","FL",34134,NA,NA,278,"4835 BONITA BEACH ROAD, BONITA SPRINGS, FL, 34134","No_Match",NA,NA,NA,NA
224779,"4835 CAMDEN AVE N","MINNEAPOLIS","MN",55430,45.0427793750001,-93.288876822,279,"4835 CAMDEN AVE N, MINNEAPOLIS, MN, 55430","Match","Exact","4835 CAMDEN AVE N, MINNEAPOLIS, MN, 55430",43621799,"L"
224780,"4835 CANTERBURY COURT","VASSAR","MI",48768,43.36901943,-83.5987290259999,280,"4835 CANTERBURY COURT, VASSAR, MI, 48768","Match","Exact","4835 CANTERBURY CT, VASSAR, MI, 48768",81255327,"R"
224781,"4835 CHESNEY ST NW","CONCORD","NC",28027,35.377247149,-80.67081912,281,"4835 CHESNEY ST NW, CONCORD, NC, 28027","Match","Non_Exact","4835 CHESNEY ST, CONCORD, NC, 28027",24917398,"L"
224782,"4835 CORDELL AVE / APT 615","BETHESDA","MD",20814,38.990321507,-77.0971784829999,282,"4835 CORDELL AVE / APT 615, BETHESDA, MD, 20814","Match","Exact","4835 CORDELL AVE, BETHESDA, MD, 20814",62065530,"R"
224783,"4835 CORDELL AVENUE APT 422","BETHESDA","MD",20814,38.990321507,-77.0971784829999,283,"4835 CORDELL AVENUE APT 422, BETHESDA, MD, 20814","Match","Exact","4835 CORDELL AVE, BETHESDA, MD, 20814",62065530,"R"
224784,"4835 DOE RUN","EVANS","GA",30809,33.534560608,-82.1731206699999,284,"4835 DOE RUN, EVANS, GA, 30809","Match","Exact","4835 DOE RUN, EVANS, GA, 30809",55371457,"R"
224785,"4835 FLETCHER AVE","FORT WORTH","TX",76107,32.7243666250001,-97.392152588,285,"4835 FLETCHER AVE, FORT WORTH, TX, 76107","Match","Exact","4835 FLETCHER AVE, FORT WORTH, TX, 76107",101881266,"L"
224786,"4835 MAC ARTHUR BOULEVARD NW","WASHINGTON","DC",20007,38.9163423360001,-77.095453412,286,"4835 MAC ARTHUR BOULEVARD NW, WASHINGTON, DC, 20007","Match","Non_Exact","4835 MACARTHUR BLVD NW, WASHINGTON, DC, 20007",647590645,"R"
224787,"4835 MARK COURT","NORTH RIDGEVILLE","OH",44039,41.3992421890001,-82.003804444,287,"4835 MARK COURT, NORTH RIDGEVILLE, OH, 44039","Match","Exact","4835 MARK CT, N RIDGEVILLE, OH, 44039",55410530,"L"
224788,"4835 MEDICAL DRIVE  STE 40052","SAN ANTONIO","TX",78229,29.51051059,-98.580947366,288,"4835 MEDICAL DRIVE  STE 40052, SAN ANTONIO, TX, 78229","Match","Exact","4835 MEDICAL DR, SAN ANTONIO, TX, 78229",101491687,"L"
224789,"4835 MICHIGAN AVENUE","DETROIT","MI",48210,42.331183965,-83.108446251,289,"4835 MICHIGAN AVENUE, DETROIT, MI, 48210","Match","Exact","4835 MICHIGAN AVE, DETROIT, MI, 48210",95474073,"L"
224790,"4835 NORTH ILLINOIS STREET","INDIANAPOLIS","IN",46208,39.8421743230001,-86.1593551779999,290,"4835 NORTH ILLINOIS STREET, INDIANAPOLIS, IN, 46208","Match","Exact","4835 N ILLINOIS ST, INDIANAPOLIS, IN, 46208",108028539,"R"
224791,"4835 OAK PARK AVE","ENCINO","CA",91316,34.158369409,-118.504467287,291,"4835 OAK PARK AVE, ENCINO, CA, 91316","Match","Exact","4835 OAK PARK AVE, ENCINO, CA, 91316",142714797,"L"
224792,"4835 OTTERBURY DR","HOUSTON","TX",77039,29.9044520030001,-95.3200719069999,292,"4835 OTTERBURY DR, HOUSTON, TX, 77039","Match","Exact","4835 OTTERBURY DR, HOUSTON, TX, 77039",96046465,"L"
224793,"4835 OXFORD DRIVE","SARASOTA","FL",34242,27.2813063890001,-82.555383306,293,"4835 OXFORD DRIVE, SARASOTA, FL, 34242","Match","Exact","4835 OXFORD DR, SARASOTA, FL, 34242",16348758,"L"
224794,"4835 PARA DRIVE","CINCINNATI","OH",45237,39.1747847130001,-84.4834292099999,294,"4835 PARA DRIVE, CINCINNATI, OH, 45237","Match","Exact","4835 PARA DR, CINCINNATI, OH, 45237",103924179,"L"
224795,"4835 S CHICAGO ST","SEATTLE","WA",98118,47.5326181520001,-122.272181146,295,"4835 S CHICAGO ST, SEATTLE, WA, 98118","Match","Exact","4835 S CHICAGO ST, SEATTLE, WA, 98118",239763312,"R"
224796,"4835 SAN FELICIANO DRIVE","WOODLAND HILLS","CA",91364,34.1554106350001,-118.609875166,296,"4835 SAN FELICIANO DRIVE, WOODLAND HILLS, CA, 91364","Match","Exact","4835 SAN FELICIANO DR, WOODLAND HILLS, CA, 91364",141535090,"L"
224797,"4835 SHAWNEE DRIVE","KANSAS CITY","KS",66106,39.0474970990001,-94.6898104809999,297,"4835 SHAWNEE DRIVE, KANSAS CITY, KS, 66106","Match","Exact","4835 SHAWNEE DR, KANSAS CITY, KS, 66106",91139426,"L"
224798,"4835 SOUTEL DRIVE","JACKSONVILLE","FL",32208,30.4020878650001,-81.7221360139999,298,"4835 SOUTEL DRIVE, JACKSONVILLE, FL, 32208","Match","Exact","4835 SOUTEL DR, JACKSONVILLE, FL, 32208",83971645,"R"
224799,"4835 SW JOHN DANIELS ROAD","KINARD","FL",32449,30.2726274930001,-85.2291591489999,299,"4835 SW JOHN DANIELS ROAD, KINARD, FL, 32449","Match","Exact","4835 JOHN DANIELS RD, KINARD, FL, 32449",6978544,"R"
224800,"4835 TYLER OAKS DRIVE","HUDSONVILLE","MI",49426,42.9018532580001,-85.9026358679999,300,"4835 TYLER OAKS DRIVE, HUDSONVILLE, MI, 49426","Match","Exact","4835 TYLER OAKS DR, HUDSONVILLE, MI, 49426",71097880,"R"
224801,"4835 VALLEY ST","ALEXANDRIA","VA",22312,38.8204781950001,-77.157766908,301,"4835 VALLEY ST, ALEXANDRIA, VA, 22312","Match","Exact","4835 VALLEY ST, ALEXANDRIA, VA, 22312",75981991,"L"
224802,"4835 W ALTGELD","CHICAGO","IL",60639,NA,NA,302,"4835 W ALTGELD, CHICAGO, IL, 60639","No_Match",NA,NA,NA,NA
224803,"48351 E 38TH AVE","BENNETT","CO",80102,39.7671926460001,-104.42145294,303,"48351 E 38TH AVE, BENNETT, CO, 80102","Match","Exact","48351 E 38TH AVE, BENNETT, CO, 80102",177423043,"R"
224804,"48355 PURPLELEAF ST","FREMONT","CA",94539,37.4711152150001,-121.917936393,304,"48355 PURPLELEAF ST, FREMONT, CA, 94539","Match","Exact","48355 PURPLELEAF ST, FREMONT, CA, 94539",124990319,"R"
224805,"4836 35TH AVENUE","VERO BEACH","FL",32967,27.681135452,-80.42110941,305,"4836 35TH AVENUE, VERO BEACH, FL, 32967","Match","Exact","4836 35TH AVE, VERO BEACH, FL, 32967",120307477,"L"
224806,"4836 BUTTERFLY DR","PRESCOTT","AZ",86301,34.5508924270001,-112.393280092,306,"4836 BUTTERFLY DR, PRESCOTT, AZ, 86301","Match","Exact","4836 BUTTERFLY DR, PRESCOTT, AZ, 86301",159456817,"L"
224807,"4836 COVERED BRIDGE ROAD APT D","INDIANAPOLIS","IN",46268,39.876045833,-86.242471575,307,"4836 COVERED BRIDGE ROAD APT D, INDIANAPOLIS, IN, 46268","Match","Exact","4836 COVERED BRIDGE RD, INDIANAPOLIS, IN, 46268",108017300,"L"
224808,"4836 KATHY JO TERRANCE","ORLANDO","FL",32808,28.573407521,-81.4452096059999,308,"4836 KATHY JO TERRANCE, ORLANDO, FL, 32808","Match","Non_Exact","4836 KATHY JO TER, ORLANDO, FL, 32808",94270344,"L"
224809,"4836 NEW HAMPSHIRE AVE APT 3","WASHINGTON","DC",20011,NA,NA,309,"4836 NEW HAMPSHIRE AVE APT 3, WASHINGTON, DC, 20011","No_Match",NA,NA,NA,NA
224810,"4836 NW 6TH COURT","DELRAY BEACH","FL",33445,26.472399162,-80.1179127789999,310,"4836 NW 6TH COURT, DELRAY BEACH, FL, 33445","Match","Exact","4836 NW 6TH CT, DELRAY BEACH, FL, 33445",115523319,"R"
224811,"4836 NW FLORIDA AVE","ARCADIA","FL",34266,NA,NA,311,"4836 NW FLORIDA AVE, ARCADIA, FL, 34266","No_Match",NA,NA,NA,NA
224812,"4836 OLDWICK CT","VIRGINIA BEACH","VA",23462,36.825069161,-76.150031536,312,"4836 OLDWICK CT, VIRGINIA BEACH, VA, 23462","Match","Exact","4836 OLDWICK CT, VA BCH, VA, 23462",122263832,"R"
224813,"4836 SAFARI PASS","EAGAN","MN",55122,44.781371284,-93.203766908,313,"4836 SAFARI PASS, EAGAN, MN, 55122","Match","Exact","4836 SAFARI PASS, EAGAN, MN, 55122",37905787,"L"
224814,"4836 W CO RD 50 N","GREENCASTLE","IN",46135,39.669096349,-86.9369696959999,314,"4836 W CO RD 50 N, GREENCASTLE, IN, 46135","Match","Exact","4836 W CO RD 50 N, GREENCASTLE, IN, 46135",639826827,"L"
224815,"4836 W13TH STREET","CICERO","IL",60804,NA,NA,315,"4836 W13TH STREET, CICERO, IL, 60804","No_Match",NA,NA,NA,NA
224816,"4836 WYCONDA LANE","SAN DIEGO","CA",92113,32.6926605630001,-117.089828733,316,"4836 WYCONDA LANE, SAN DIEGO, CA, 92113","Match","Exact","4836 WYCONDA LN, SAN DIEGO, CA, 92113",195352011,"L"
224817,"48366 WHATLEY COURT","SHELBY TOWNSHIP","MI",48315,42.6517858780001,-83.004401695,317,"48366 WHATLEY COURT, SHELBY TOWNSHIP, MI, 48315","Match","Exact","48366 WHATLEY CT, SHELBY TOWNSHIP, MI, 48315",110658988,"L"
224818,"4837 BLUE SPRUCE LANE","LAKESIDE","AZ",85929,34.1636224710001,-110.007197313,318,"4837 BLUE SPRUCE LANE, LAKESIDE, AZ, 85929","Match","Exact","4837 BLUE SPRUCE LN, LAKESIDE, AZ, 85929",172512145,"R"
224819,"4837 CAMELOT DR","KIMBALL","MI",48074,42.990734946,-82.5156884199999,319,"4837 CAMELOT DR, KIMBALL, MI, 48074","Match","Exact","4837 CAMELOT DR, KIMBALL, MI, 48074",648594161,"L"
224820,"4837 EAST ST RD 54","BLOOMFIELD","IN",47424,39.038492422,-86.8503883719999,320,"4837 EAST ST RD 54, BLOOMFIELD, IN, 47424","Match","Non_Exact","4837 STATE RD 54, BLOOMFIELD, IN, 47424",39309166,"L"
224821,"4837 IIWI ROAD","KAPAA","HI",96746,22.088002671,-159.315030464,321,"4837 IIWI ROAD, KAPAA, HI, 96746","Match","Exact","4837 IIWI RD, KAPAA, HI, 96746",653182592,"R"
224822,"4837 INDIALANTIC DRIVE","ORLANDO","FL",32808,28.5718793240001,-81.445018349,322,"4837 INDIALANTIC DRIVE, ORLANDO, FL, 32808","Match","Exact","4837 INDIALANTIC DR, ORLANDO, FL, 32808",94270201,"R"
224823,"4837 KATHERINE AVE","SHERMAN OAKS","CA",91423,34.158310672,-118.443244403,323,"4837 KATHERINE AVE, SHERMAN OAKS, CA, 91423","Match","Exact","4837 KATHERINE AVE, SHERMAN OAKS, CA, 91423",141561672,"L"
224824,"4837 LOMINA","LAKEWOOD","CA",90713,33.8456089420001,-118.119080605,324,"4837 LOMINA, LAKEWOOD, CA, 90713","Match","Non_Exact","4837 LOMINA AVE, LAKEWOOD, CA, 90713",642869795,"L"
224825,"4837 NORTHCOTT","DOWNERS GROVE","IL",60515,41.7988975050001,-88.0248623049999,325,"4837 NORTHCOTT, DOWNERS GROVE, IL, 60515","Match","Non_Exact","4837 NORTHCOTT AVE, DOWNERS GROVE, IL, 60515",112533752,"L"
224826,"4837 PINEDELL AVE NE","COMSTOCK PARK","MI",49321,43.0508534250001,-85.653745203,326,"4837 PINEDELL AVE NE, COMSTOCK PARK, MI, 49321","Match","Exact","4837 PINEDELL AVE NE, COMSTOCK PARK, MI, 49321",12451568,"L"
224827,"4837 ROBIN HOOD DRIVE","NEW ORLEANS","LA",70128,30.0252848750001,-89.953553222,327,"4837 ROBIN HOOD DRIVE, NEW ORLEANS, LA, 70128","Match","Exact","4837 ROBIN HOOD DR, NEW ORLEANS, LA, 70128",191722459,"R"
224828,"4837 S GAZELLE ST","SEATTLE","WA",98118,47.5124663880001,-122.271418435,328,"4837 S GAZELLE ST, SEATTLE, WA, 98118","Match","Exact","4837 S GAZELLE ST, SEATTLE, WA, 98118",652690681,"R"
224829,"4837 SOUTH HONORE STREET","CHICAGO","IL",60609,41.806018297,-87.670965039,329,"4837 SOUTH HONORE STREET, CHICAGO, IL, 60609","Match","Exact","4837 S HONORE ST, CHICAGO, IL, 60609",111805075,"L"
224830,"4837 W TARO DR","GLENDALE","AZ",85308,33.6585099690001,-112.16601915,330,"4837 W TARO DR, GLENDALE, AZ, 85308","Match","Exact","4837 W TARO DR, GLENDALE, AZ, 85308",128374320,"L"
224831,"48377 GYDE RD","CANTON","MI",48187,42.342896841,-83.517681367,331,"48377 GYDE RD, CANTON, MI, 48187","Match","Exact","48377 GYDE RD, CANTON, MI, 48187",645805941,"R"
224832,"4838 CLAYTON CROSSING LANE","ELLENWOOD","GA",30294,33.6232564490001,-84.265882196,332,"4838 CLAYTON CROSSING LANE, ELLENWOOD, GA, 30294","Match","Exact","4838 CLAYTON CROSSING LN, ELLENWOOD, GA, 30294",23329972,"L"
224833,"4838 COLFAX AVE N","MINNEAPOLIS","MN",55430,45.042838051,-93.292714976,333,"4838 COLFAX AVE N, MINNEAPOLIS, MN, 55430","Match","Exact","4838 COLFAX AVE N, MINNEAPOLIS, MN, 55430",43621781,"R"
224834,"4838 DELRIDGE WAY SW APT A","SEATTLE","WA",98106,47.558835086,-122.362894001,334,"4838 DELRIDGE WAY SW APT A, SEATTLE, WA, 98106","Match","Exact","4838 DELRIDGE WAY SW, SEATTLE, WA, 98106",186590905,"L"
224835,"4838 E OLNEY DR","PHOENIX","AZ",85044,33.355054395,-111.977362823,335,"4838 E OLNEY DR, PHOENIX, AZ, 85044","Match","Exact","4838 E OLNEY DR, PHOENIX, AZ, 85044",647673709,"R"
224836,"4838 KERRY FOREST PKWY","TALLAHASSEE","FL",32309,30.536712058,-84.215293683,336,"4838 KERRY FOREST PKWY, TALLAHASSEE, FL, 32309","Match","Exact","4838 KERRY FOREST PKWY, TALLAHASSEE, FL, 32309",82846601,"R"
224837,"4838 LA MESA RD","PHELAN","CA",92371,34.4845540170001,-117.556540743,337,"4838 LA MESA RD, PHELAN, CA, 92371","Match","Exact","4838 LA MESA RD, PHELAN, CA, 92371",144704168,"L"
224838,"4838 N 63RD STREET","MILWAUKEE","WI",53218,43.106480762,-87.989969204,338,"4838 N 63RD STREET, MILWAUKEE, WI, 53218","Match","Exact","4838 N 63RD ST, MILWAUKEE, WI, 53218",77730496,"R"
224839,"4838 SUSSEX DRIVE","SAN DIEGO","CA",92116,32.7663446550001,-117.108481077,339,"4838 SUSSEX DRIVE, SAN DIEGO, CA, 92116","Match","Exact","4838 SUSSEX DR, SAN DIEGO, CA, 92116",195346577,"L"
224840,"4838 TURNRIDGE COURT NW","CONCORD","NC",28027,35.3782464170001,-80.669375003,340,"4838 TURNRIDGE COURT NW, CONCORD, NC, 28027","Match","Non_Exact","4838 TURNRIDGE CT, CONCORD, NC, 28027",24920156,"R"
224841,"4838 WHITEFORD ROAD","TOLEDO","MI",43623,NA,NA,341,"4838 WHITEFORD ROAD, TOLEDO, MI, 43623","No_Match",NA,NA,NA,NA
224842,"48383 ROAD 620","OAKHURST","CA",93644,37.371667963,-119.663748485,342,"48383 ROAD 620, OAKHURST, CA, 93644","Match","Exact","48383 RD 620, OAKHURST, CA, 93644",102367789,"R"
224843,"4839 213TH STREET","OAKLAND GARDENS","NY",11364,NA,NA,343,"4839 213TH STREET, OAKLAND GARDENS, NY, 11364","No_Match",NA,NA,NA,NA
224844,"4839 BINZ-ENGLEMEN","KIRBY","TX",78219,NA,NA,344,"4839 BINZ-ENGLEMEN, KIRBY, TX, 78219","No_Match",NA,NA,NA,NA
224845,"4839 ENCINO AVE","ENCINO","CA",91316,34.1585703260001,-118.514171778,345,"4839 ENCINO AVE, ENCINO, CA, 91316","Match","Exact","4839 ENCINO AVE, ENCINO, CA, 91316",141793538,"L"
224846,"4839 N DAMEN AVE    UNIT 3S","CHICAGO","IL",60625,41.969672539,-87.679201857,346,"4839 N DAMEN AVE    UNIT 3S, CHICAGO, IL, 60625","Match","Non_Exact","4839 N DAMEN AVE, CHICAGO, IL, 60625",605184937,"R"
224847,"4839 PHILIP AVE","DALLAS","TX",75223,32.787550615,-96.756476815,347,"4839 PHILIP AVE, DALLAS, TX, 75223","Match","Exact","4839 PHILIP AVE, DALLAS, TX, 75223",102920479,"L"
224848,"4839 SE EBBTIDE AVE","STUART","FL",34997,27.145781664,-80.201200392,348,"4839 SE EBBTIDE AVE, STUART, FL, 34997","Match","Exact","4839 SE EBBTIDE AVE, STUART, FL, 34997",120428850,"R"
224849,"4839 SW 148TH AVENUE SUITE 437","DAVIE","FL",33330,26.0601026900001,-80.346070147,349,"4839 SW 148TH AVENUE SUITE 437, DAVIE, FL, 33330","Match","Non_Exact","4839 SW 148TH AVE, DAVIE, FL, 33330",637473786,"R"
224850,"48390 HWY 51","TICKFAW","LA",70466,30.556342708,-90.482594437,350,"48390 HWY 51, TICKFAW, LA, 70466","Match","Exact","48390 HWY 51, TICKFAW, LA, 70466",75764673,"R"
224851,"48391 DEER CREEK WAY","AGUANGA","CA",92536,33.5238464080001,-116.816144739,351,"48391 DEER CREEK WAY, AGUANGA, CA, 92536","Match","Exact","48391 DEER CREEK WAY, AGUANGA, CA, 92536",194696462,"L"
224852,"484 1ST STREET SUITE 1","MACON","GA",31201,32.8357829710001,-83.630661687,352,"484 1ST STREET SUITE 1, MACON, GA, 31201","Match","Non_Exact","484 1ST STREET LN, MACON, GA, 31201",81084109,"L"
224853,"484 1ST STREET","MACON","GA",31201,32.836170698,-83.631592602,353,"484 1ST STREET, MACON, GA, 31201","Match","Exact","484 1ST ST, MACON, GA, 31201",81082527,"L"
224854,"484 2ND AVENUE","SAN FRANCISCO","CA",94118,37.779655269,-122.45987737,354,"484 2ND AVENUE, SAN FRANCISCO, CA, 94118","Match","Exact","484 2ND AVE, SAN FRANCISCO, CA, 94118",192281899,"L"
224855,"484 CASTLEWOOD LANE","DEERFIELD","IL",60015,42.161666675,-87.871540876,355,"484 CASTLEWOOD LANE, DEERFIELD, IL, 60015","Match","Exact","484 CASTLEWOOD LN, DEERFIELD, IL, 60015",119650447,"L"
224856,"484 DOVER RD","BARNEVELD","NY",13304,43.2803722300001,-75.138840344,356,"484 DOVER RD, BARNEVELD, NY, 13304","Match","Exact","484 DOVER RD, BARNEVELD, NY, 13304",153740977,"R"
224857,"484 E 24TH SREET","BROOKLYN","NY",11210,NA,NA,357,"484 E 24TH SREET, BROOKLYN, NY, 11210","No_Match",NA,NA,NA,NA
224858,"484 E BEAR SPRINGS RD PMB 63080","PIPE CREEK","TX",78063,29.7268724960001,-98.928877603,358,"484 E BEAR SPRINGS RD PMB 63080, PIPE CREEK, TX, 78063","Match","Exact","484 BEAR SPRINGS RD, PIPE CREEK, TX, 78063",647801354,"R"
224859,"484 E FOOTHILL BLVD STE 5","UPLAND","CA",91786,NA,NA,359,"484 E FOOTHILL BLVD STE 5, UPLAND, CA, 91786","Tie",NA,NA,NA,NA
224860,"484 EAST 200 NORTH","OREM","UT",84097,40.3008006100001,-111.683934493,360,"484 EAST 200 NORTH, OREM, UT, 84097","Match","Exact","484 E 200 N, OREM, UT, 84097",134205541,"R"
224861,"484 EAST MAIN STREET","SMITHVILLE","OH",44677,40.866467529,-81.8546219849999,361,"484 EAST MAIN STREET, SMITHVILLE, OH, 44677","Match","Exact","484 E MAIN ST, SMITHVILLE, OH, 44677",58723977,"L"
224862,"484 EAST134TH STREET","BRONX","NY",10454,NA,NA,362,"484 EAST134TH STREET, BRONX, NY, 10454","No_Match",NA,NA,NA,NA
224863,"484 FIELD HILL RD","CLAYVILLE","RI",2815,41.7740544100001,-71.672556981,363,"484 FIELD HILL RD, CLAYVILLE, RI, 2815","Match","Exact","484 FIELD HILL RD, CLAYVILLE, RI, 02815",47445369,"L"
224864,"484 IRON CITY RD","IRON CITY","TN",38463,35.023641578,-87.583073127,364,"484 IRON CITY RD, IRON CITY, TN, 38463","Match","Exact","484 IRON CITY RD, IRON CITY, TN, 38463",26835363,"R"
224865,"484 KING GEORGE AVE","SAN JOSE","CA",95136,37.282231982,-121.857182877,365,"484 KING GEORGE AVE, SAN JOSE, CA, 95136","Match","Exact","484 KING GEORGE AVE, SAN JOSE, CA, 95136",123017794,"L"
224866,"484 LAKE PARK AVE 31A","OAKLAND","CA",94610,37.810550758,-122.247268063,366,"484 LAKE PARK AVE 31A, OAKLAND, CA, 94610","Match","Exact","484 LAKE PARK AVE, OAKLAND, CA, 94610",125000771,"L"
224867,"484 LAKE PARK AVENUE - 320","OAKLAND","CA",94610,37.810550758,-122.247268063,367,"484 LAKE PARK AVENUE - 320, OAKLAND, CA, 94610","Match","Exact","484 LAKE PARK AVE, OAKLAND, CA, 94610",125000771,"L"
224868,"484 LAKE PARK AVENUE - NUMBER 221","OAKLAND","CA",94610,37.810550758,-122.247268063,368,"484 LAKE PARK AVENUE - NUMBER 221, OAKLAND, CA, 94610","Match","Exact","484 LAKE PARK AVE, OAKLAND, CA, 94610",125000771,"L"
224869,"484 LAKE PARK AVENUE SUITE 132","OAKLAND","CA",94610,37.810550758,-122.247268063,369,"484 LAKE PARK AVENUE SUITE 132, OAKLAND, CA, 94610","Match","Exact","484 LAKE PARK AVE, OAKLAND, CA, 94610",125000771,"L"
224870,"484 LAKE PARK AVENUE SUITE 635","OAKLAND","CA",94610,37.810550758,-122.247268063,370,"484 LAKE PARK AVENUE SUITE 635, OAKLAND, CA, 94610","Match","Exact","484 LAKE PARK AVE, OAKLAND, CA, 94610",125000771,"L"
224871,"484 LAKEPARK AVE PMB3","OAKLAND","CA",94610,37.810550758,-122.247268063,371,"484 LAKEPARK AVE PMB3, OAKLAND, CA, 94610","Match","Non_Exact","484 LAKE PARK AVE, OAKLAND, CA, 94610",125000771,"L"
224872,"484 LANCER DR","COLUMBIA","PA",17512,40.0478230150001,-76.448644798,372,"484 LANCER DR, COLUMBIA, PA, 17512","Match","Exact","484 LANCER DR, COLUMBIA, PA, 17512",179691737,"R"
224873,"484 LIBERTY STREET","PAINESVILLE","OH",44077,41.7154720570001,-81.241039282,373,"484 LIBERTY STREET, PAINESVILLE, OH, 44077","Match","Exact","484 LIBERTY ST, PAINESVILLE, OH, 44077",137466152,"R"
224874,"484 MAIN ST","PLACERVILLE","CA",95667,38.7295775490001,-120.799884556,374,"484 MAIN ST, PLACERVILLE, CA, 95667","Match","Exact","484 MAIN ST, PLACERVILLE, CA, 95667",607157302,"R"
224875,"484 MAIN STREET 520","WORCESTER","MA",1608,42.2627868920001,-71.802458085,375,"484 MAIN STREET 520, WORCESTER, MA, 1608","Match","Exact","484 MAIN ST, WORCESTER, MA, 01608",649726650,"R"
224876,"484 MAIN STREET SUITE 300","WORCESTER","MA",1608,42.2627868920001,-71.802458085,376,"484 MAIN STREET SUITE 300, WORCESTER, MA, 1608","Match","Exact","484 MAIN ST, WORCESTER, MA, 01608",649726650,"R"
224877,"484 MCDONALD AVENUE APT B","BROOKLYN","NY",11218,40.642402469,-73.979372822,377,"484 MCDONALD AVENUE APT B, BROOKLYN, NY, 11218","Match","Exact","484 MCDONALD AVE, BROOKLYN, NY, 11218",642653621,"R"
224878,"484 OAK AVENUE","CEDARHURST","NY",11516,40.623940012,-73.726340683,378,"484 OAK AVENUE, CEDARHURST, NY, 11516","Match","Exact","484 OAK AVE, CEDARHURST, NY, 11516",639085154,"L"
224879,"484 OLD ARLEY ROAD","HOUSTON","AL",35573,34.1208913030001,-87.248328941,379,"484 OLD ARLEY ROAD, HOUSTON, AL, 35573","Match","Non_Exact","484 OLD ARLEY RD, HOUSTON, AL, 35572",141374780,"L"
224880,"484 RIDGEBURY RD","RIDGEFIELD","CT",6877,41.3535846930001,-73.52622976,380,"484 RIDGEBURY RD, RIDGEFIELD, CT, 6877","Match","Exact","484 RIDGEBURY RD, RIDGEFIELD, CT, 06877",3254662,"L"
224881,"484 RIVERWALK DRIVE","MASON","MI",48854,42.5933784800001,-84.4439561299999,381,"484 RIVERWALK DRIVE, MASON, MI, 48854","Match","Exact","484 RIVERWALK DR, MASON, MI, 48854",17529666,"L"
224882,"484 ROSEWOOD","MEMPHIS","TN",38106,35.0953708530001,-90.046750693,382,"484 ROSEWOOD, MEMPHIS, TN, 38106","Match","Non_Exact","484 ROSEWOOD AVE, MEMPHIS, TN, 38106",607545931,"L"
224883,"484 S JOHNSBURG ROAD","WARRENSBURG","NY",12885,43.5440154560001,-73.926465086,383,"484 S JOHNSBURG ROAD, WARRENSBURG, NY, 12885","Match","Exact","484 S JOHNSBURG RD, WARRENSBURG, NY, 12885",173894381,"R"
224884,"484 SANDY BEACH RD","AZLE","TX",76020,32.927961629,-97.537892679,384,"484 SANDY BEACH RD, AZLE, TX, 76020","Match","Exact","484 SANDY BEACH RD, AZLE, TX, 76020",102106092,"L"
224885,"484 SEATONS LANE","WEST POINT","VA",23181,37.5939227810001,-76.8840683,385,"484 SEATONS LANE, WEST POINT, VA, 23181","Match","Exact","484 SEATONS LN, WEST POINT, VA, 23181",106717995,"R"
224886,"484 ST ANN STREET","RACELAND","LA",70394,29.715124212,-90.602654577,386,"484 ST ANN STREET, RACELAND, LA, 70394","Match","Exact","484 ST ANN ST, RACELAND, LA, 70394",92332787,"L"
224887,"484 STEEPLE CHASE LANE","MARTINSBURG","WV",25404,39.5089535880001,-77.847428136,387,"484 STEEPLE CHASE LANE, MARTINSBURG, WV, 25404","Match","Exact","484 STEEPLE CHASE LN, MARTINSBURG, WV, 25404",123384695,"R"
224888,"484 STETLER AVE","AKRON","OH",44312,41.0473321690001,-81.4347142729999,388,"484 STETLER AVE, AKRON, OH, 44312","Match","Exact","484 STETLER AVE, AKRON, OH, 44312",61355195,"R"
224889,"484 SW WASHINGTON STREET","DALLAS","OR",97338,44.919438244,-123.322829434,389,"484 SW WASHINGTON STREET, DALLAS, OR, 97338","Match","Exact","484 SW WASHINGTON ST, DALLAS, OR, 97338",155770824,"R"
224890,"484 VIKING DRIVE SUITE 151","VIRGINIA BEACH","VA",23452,36.829308058,-76.068555601,390,"484 VIKING DRIVE SUITE 151, VIRGINIA BEACH, VA, 23452","Match","Exact","484 VIKING DR, VA BCH, VA, 23452",122297379,"R"
224891,"484 WASHINGTON ST B424","MONTEREY","CA",93940,36.598123904,-121.892839112,391,"484 WASHINGTON ST B424, MONTEREY, CA, 93940","Match","Exact","484 WASHINGTON ST, MONTEREY, CA, 93940",649929529,"L"
224892,"484 WEST 43RD STREET 5N","NEW YORK","NY",10036,40.7601697540001,-73.9946811899999,392,"484 WEST 43RD STREET 5N, NEW YORK, NY, 10036","Match","Exact","484 W 43RD ST, NEW YORK, NY, 10036",650069145,"L"
224893,"484 WEST 43RD STREET SUITE 12E","NEW YORK","NY",10036,40.7601697540001,-73.9946811899999,393,"484 WEST 43RD STREET SUITE 12E, NEW YORK, NY, 10036","Match","Exact","484 W 43RD ST, NEW YORK, NY, 10036",650069145,"L"
224894,"484 WEST KEMPER ROAD","CINCINNATI","OH",45246,39.287774572,-84.489924797,394,"484 WEST KEMPER ROAD, CINCINNATI, OH, 45246","Match","Exact","484 W KEMPER RD, CINCINNATI, OH, 45246",103958497,"R"
224895,"484 WHITE STAR AVENUE","WEST HEMPSTEAD","NY",11552,40.6800371800001,-73.655702826,395,"484 WHITE STAR AVENUE, WEST HEMPSTEAD, NY, 11552","Match","Non_Exact","484 WHITESTAR AVE, W HEMPSTEAD, NY, 11552",147674733,"R"
224896,"4840 7TH STREET SOUTH","ARLINGTON","VA",22204,38.8602270920001,-77.111115196,396,"4840 7TH STREET SOUTH, ARLINGTON, VA, 22204","Match","Exact","4840 7TH ST S, ARLINGTON, VA, 22204",76469198,"L"
224897,"4840 AMOS STREET","JACKSONVILLE","FL",32209,30.365614124,-81.703244422,397,"4840 AMOS STREET, JACKSONVILLE, FL, 32209","Match","Exact","4840 AMOS ST, JACKSONVILLE, FL, 32209",83892009,"L"
224898,"4840 AUTUMN WOODS DRIVE","JACKSON","MS",39206,32.3632475480001,-90.156954819,398,"4840 AUTUMN WOODS DRIVE, JACKSON, MS, 39206","Match","Exact","4840 AUTUMN WOODS DR, JACKSON, MS, 39206",65387328,"R"
224899,"4840 CHICKASAW","MEMPHIS","TN",38117,35.1388337320001,-89.900446329,399,"4840 CHICKASAW, MEMPHIS, TN, 38117","Match","Non_Exact","4840 CHICKASAW RD, MEMPHIS, TN, 38117",72924989,"L"
224900,"4840 COLLEGE HILL DRIVE","JACKSON","MS",39209,32.3459328610001,-90.252704001,400,"4840 COLLEGE HILL DRIVE, JACKSON, MS, 39209","Match","Exact","4840 COLLEGE HILL DR, JACKSON, MS, 39209",648084825,"R"
224901,"4840 E JASMINE ST STE 105","MESA","AZ",85205,33.4487036300001,-111.726092496,401,"4840 E JASMINE ST STE 105, MESA, AZ, 85205","Match","Non_Exact","4840 E JASMINE ST, MESA, AZ, 85205",128266112,"L"
224902,"4840 ENGELWOOD AVE","LAS VEGAS","NV",89139,36.044452855,-115.206556317,402,"4840 ENGELWOOD AVE, LAS VEGAS, NV, 89139","Match","Non_Exact","4840 ENGLEWOOD AVE, LAS VEGAS, NV, 89139",202002817,"R"
224903,"4840 IRVINE BLVD STE 205","IRVINE","CA",92620,NA,NA,403,"4840 IRVINE BLVD STE 205, IRVINE, CA, 92620","No_Match",NA,NA,NA,NA
224904,"4840 MACARTHUR BLVD NW -606","WASHINGTON","DC",20007,38.9171974270001,-77.096408576,404,"4840 MACARTHUR BLVD NW -606, WASHINGTON, DC, 20007","Match","Exact","4840 MACARTHUR BLVD NW, WASHINGTON, DC, 20007",76220046,"L"
224905,"4840 MATLOCK RD STE 260","ARLINGTON","TX",76018,32.668694622,-97.115061807,405,"4840 MATLOCK RD STE 260, ARLINGTON, TX, 76018","Match","Exact","4840 MATLOCK RD, ARLINGTON, TX, 76018",102132016,"R"
224906,"4840 OHIA PL","LIHUE","HI",96766,21.9968634910001,-159.36376359,406,"4840 OHIA PL, LIHUE, HI, 96766","Match","Exact","4840 OHIA PL, LIHUE, HI, 96766",203405657,"R"
224907,"4840 OHIA PLACE","LIHUE","HI",96766,21.9968634910001,-159.36376359,407,"4840 OHIA PLACE, LIHUE, HI, 96766","Match","Exact","4840 OHIA PL, LIHUE, HI, 96766",203405657,"R"
224908,"4840 OLD YORK ROAD","PHILADELPHIA","PA",19140,NA,NA,408,"4840 OLD YORK ROAD, PHILADELPHIA, PA, 19140","No_Match",NA,NA,NA,NA
224909,"4840 OLD YORK ROAD","PHILADELPHIA","PA",19141,40.026902609,-75.146541042,409,"4840 OLD YORK ROAD, PHILADELPHIA, PA, 19141","Match","Exact","4840 OLD YORK RD, PHILADELPHIA, PA, 19141",131417256,"L"
224910,"4840 QUARRYMAN ROAD","RALEIGH","NC",27610,35.7319018790001,-78.567486865,410,"4840 QUARRYMAN ROAD, RALEIGH, NC, 27610","Match","Exact","4840 QUARRYMAN RD, RALEIGH, NC, 27610",647296114,"R"
224911,"4840 S SHERMAN ST","ENGLEWOOD","CO",80113,39.6287437610001,-104.985539102,411,"4840 S SHERMAN ST, ENGLEWOOD, CO, 80113","Match","Exact","4840 S SHERMAN ST, ENGLEWOOD, CO, 80113",177334488,"L"
224912,"4840 SAN MARCOS PLACE","LOS ANGELES","CA",90042,34.110516277,-118.207850478,412,"4840 SAN MARCOS PLACE, LOS ANGELES, CA, 90042","Match","Exact","4840 SAN MARCOS PL, LOS ANGELES, CA, 90042",141614099,"R"
224913,"4840 SW WESTERN AVE SUITE 600","BEAVERTON","OR",97005,45.484904428,-122.78271423,413,"4840 SW WESTERN AVE SUITE 600, BEAVERTON, OR, 97005","Match","Non_Exact","4840 SW WESTERN AVE, BEAVERTON, OR, 97005",158186967,"L"
224914,"4840 VALLEY RIDGE AVE","VIEW PARK","CA",90043,33.999718939,-118.349288718,414,"4840 VALLEY RIDGE AVE, VIEW PARK, CA, 90043","Match","Exact","4840 VALLEY RIDGE AVE, VIEW PARK, CA, 90043",141602410,"L"
224915,"4840 W UNIVERSITY AVE SUITE A2","LAS VEGAS","NV",89103,36.109975536,-115.207075404,415,"4840 W UNIVERSITY AVE SUITE A2, LAS VEGAS, NV, 89103","Match","Non_Exact","4840 W UNIVERSITY AVE, LAS VEGAS, NV, 89103",201863365,"R"
224916,"4840 WEST 38TH STREET","ERIE","PA",16506,42.0616122280001,-80.180107021,416,"4840 WEST 38TH STREET, ERIE, PA, 16506","Match","Exact","4840 W 38TH ST, ERIE, PA, 16506",117515360,"R"
224917,"4841 APPLEBUTTER ROAD","PIPERSVILLE","PA",18947,40.389786122,-75.161396458,417,"4841 APPLEBUTTER ROAD, PIPERSVILLE, PA, 18947","Match","Exact","4841 APPLEBUTTER RD, PIPERSVILLE, PA, 18947",134699541,"L"
224918,"4841 BUCHLI LANE","LITHONIA","GA",30038,33.6348768830001,-84.13350072,418,"4841 BUCHLI LANE, LITHONIA, GA, 30038","Match","Exact","4841 BUCHLI LN, LITHONIA, GA, 30038",637254390,"R"
224919,"4841 CHANTILLY DR","NEW ORLEANS","LA",70126,30.0185102630001,-90.006148352,419,"4841 CHANTILLY DR, NEW ORLEANS, LA, 70126","Match","Exact","4841 CHANTILLY DR, NEW ORLEANS, LA, 70126",191743876,"R"
224920,"4841 COVINGTON DR","CONCORD","NC",28027,35.3775213120001,-80.6682928019999,420,"4841 COVINGTON DR, CONCORD, NC, 28027","Match","Exact","4841 COVINGTON DR, CONCORD, NC, 28027",24915263,"L"
224921,"4841 E 3RD ST","TUCSON","AZ",85711,32.231960208,-110.88964701,421,"4841 E 3RD ST, TUCSON, AZ, 85711","Match","Exact","4841 E 3RD ST, TUCSON, AZ, 85711",121179668,"L"
224922,"4841 NW 50TH TERRACE","GAINESVILLE","FL",32606,29.69998216,-82.396363655,422,"4841 NW 50TH TERRACE, GAINESVILLE, FL, 32606","Match","Exact","4841 NW 50 TER, GAINESVILLE, FL, 32606",627659337,"L"
224923,"4841 OHIO ROAD","WELLSVILLE","KS",66092,38.734984555,-95.186362441,423,"4841 OHIO ROAD, WELLSVILLE, KS, 66092","Match","Exact","4841 OHIO RD, WELLSVILLE, KS, 66092",10622773,"L"
224924,"4841 OLSON ROAD","PEQUOT LAKES","MN",56472,46.5643074010001,-94.301649843,424,"4841 OLSON ROAD, PEQUOT LAKES, MN, 56472","Match","Exact","4841 OLSON RD, PEQUOT LAKES, MN, 56472",635618905,"R"
224925,"4841 S JACKSON","EDINBURG","TX",78539,NA,NA,425,"4841 S JACKSON, EDINBURG, TX, 78539","No_Match",NA,NA,NA,NA
224926,"4841 STATE HWY 52","WABENO","WI",54566,45.4417942470001,-88.6762517449999,426,"4841 STATE HWY 52, WABENO, WI, 54566","Match","Exact","4841 STATE HWY 52, WABENO, WI, 54566",170278886,"L"
224927,"4841 TREMONT STREET APT 6","DALLAS","TX",75246,32.7977758270001,-96.7668183649999,427,"4841 TREMONT STREET APT 6, DALLAS, TX, 75246","Match","Exact","4841 TREMONT ST, DALLAS, TX, 75246",102919806,"L"
224928,"4841 VITRINA LN","PALMDALE","CA",93551,34.6206842570001,-118.21667402,428,"4841 VITRINA LN, PALMDALE, CA, 93551","Match","Exact","4841 VITRINA LN, PALMDALE, CA, 93551",141782285,"R"
224929,"48410 IGLOO AVE","SOLDOTNA","AK",99669,60.500403152,-151.186237162,429,"48410 IGLOO AVE, SOLDOTNA, AK, 99669","Match","Exact","48410 IGLOO AVE, SOLDOTNA, AK, 99669",191037413,"R"
224930,"4842 GREENLEAF UNIT 2B","SKOKIE","IL",60077,42.0371518310001,-87.7488448669999,430,"4842 GREENLEAF UNIT 2B, SKOKIE, IL, 60077","Match","Non_Exact","4842 GREENLEAF ST, SKOKIE, IL, 60077",605248642,"R"
224931,"4842 LIBERTY ROAD S APT 80","SALEM","OR",97306,44.8875064440001,-123.060917535,431,"4842 LIBERTY ROAD S APT 80, SALEM, OR, 97306","Match","Exact","4842 LIBERTY RD S, SALEM, OR, 97306",653430362,"L"
224932,"4842 N SEELEY AVE","CHICAGO","IL",60625,41.9695547380001,-87.680441069,432,"4842 N SEELEY AVE, CHICAGO, IL, 60625","Match","Exact","4842 N SEELEY AVE, CHICAGO, IL, 60625",111760474,"L"
224933,"4842 NEOLA PLACE","LOS ANGELES","CA",90041,34.134820178,-118.194570361,433,"4842 NEOLA PLACE, LOS ANGELES, CA, 90041","Match","Exact","4842 NEOLA PL, LOS ANGELES, CA, 90041",141614428,"R"
224934,"4842 SEDALIA STREET","DALLAS","TX",75216,32.6994945650001,-96.767626046,434,"4842 SEDALIA STREET, DALLAS, TX, 75216","Match","Exact","4842 SEDALIA ST, DALLAS, TX, 75216",102956711,"L"
224935,"4842 ST RT 734","JEFFERSONVILLE","OH",43128,39.651384308,-83.613944358,435,"4842 ST RT 734, JEFFERSONVILLE, OH, 43128","Match","Non_Exact","4842 STATE RTE 734, JEFFERSONVILLE, OH, 43128",119057972,"R"
224936,"4842 SUMMERDALE AVENUE","PHILADELPHIA","PA",19124,40.027815085,-75.0960320999999,436,"4842 SUMMERDALE AVENUE, PHILADELPHIA, PA, 19124","Match","Exact","4842 SUMMERDALE AVE, PHILADELPHIA, PA, 19124",131426673,"L"
224937,"4842 W WRIGHT TERRACE","SKOKIE","IL",60077,42.036242449,-87.7485079639999,437,"4842 W WRIGHT TERRACE, SKOKIE, IL, 60077","Match","Exact","4842 WRIGHT TER, SKOKIE, IL, 60077",605248667,"R"
224938,"4843 BIG OAKS LANE","ORLANDO","FL",32806,28.493853775,-81.353962742,438,"4843 BIG OAKS LANE, ORLANDO, FL, 32806","Match","Exact","4843 BIG OAKS LN, ORLANDO, FL, 32806",94287406,"L"
224939,"4843 CASCADE RD SUITE 400","GRAND RAPIDS","MI",49546,42.945634569,-85.549911658,439,"4843 CASCADE RD SUITE 400, GRAND RAPIDS, MI, 49546","Match","Non_Exact","4843 CASCADE RD SE, GRAND RAPIDS, MI, 49546",12507244,"L"
224940,"4843 COUNTY ROAD 74","SELMA","AL",36703,32.3460224470001,-86.9055816429999,440,"4843 COUNTY ROAD 74, SELMA, AL, 36703","Match","Exact","4843 CO RD 74, SELMA, AL, 36703",1307752,"R"
224941,"4843 KENSINGTON AVE","DETROIT","MI",48224,42.402839692,-82.934421769,441,"4843 KENSINGTON AVE, DETROIT, MI, 48224","Match","Non_Exact","4843 KENSINGTON, DETROIT, MI, 48224",95487265,"L"
224942,"4843 MILE STRETCH DR","HOLIDAY","FL",34692,28.1879757360001,-82.734388822,442,"4843 MILE STRETCH DR, HOLIDAY, FL, 34692","Match","Non_Exact","4843 MILE STRETCH DR, HOLIDAY, FL, 34690",86366432,"L"
224943,"4843 MURPHY MILL ROAD","DOTHAN","AL",36303,31.258873764,-85.477983593,443,"4843 MURPHY MILL ROAD, DOTHAN, AL, 36303","Match","Exact","4843 MURPHY MILL RD, DOTHAN, AL, 36303",637158061,"R"
224944,"4843 NAAMAN FOREST BLVD","GARLAND","TX",75040,32.95916392,-96.6374693339999,444,"4843 NAAMAN FOREST BLVD, GARLAND, TX, 75040","Match","Exact","4843 NAAMAN FOREST BLVD, GARLAND, TX, 75040",103163720,"R"
224945,"4843 NOTTINGHAM PL","SHOREVIEW","MN",55126,45.0871887330001,-93.1406849049999,445,"4843 NOTTINGHAM PL, SHOREVIEW, MN, 55126","Match","Exact","4843 NOTTINGHAM PL, SHOREVIEW, MN, 55126",97635078,"L"
224946,"4843 PACHUCA CT","DALLAS","TX",75236,32.681848008,-96.904568569,446,"4843 PACHUCA CT, DALLAS, TX, 75236","Match","Exact","4843 PACHUCA CT, DALLAS, TX, 75236",619137486,"R"
224947,"4843 S DARLINGTON AVE APT 8E","TULSA","OK",74135,36.0930910450001,-95.917785712,447,"4843 S DARLINGTON AVE APT 8E, TULSA, OK, 74135","Match","Non_Exact","4843 S DARLINGTON AVE, TULSA, OK, 74135",611254378,"L"
224948,"4843 VICKY ROAD","NOTTINGHAM","MD",21236,39.3978483990001,-76.4542050709999,448,"4843 VICKY ROAD, NOTTINGHAM, MD, 21236","Match","Exact","4843 VICKY RD, NOTTINGHAM, MD, 21236",191479905,"R"
224949,"4843 VOLTAIRE STREET   STE B","SAN DIEGO","CA",92107,32.7503420840001,-117.243918016,449,"4843 VOLTAIRE STREET   STE B, SAN DIEGO, CA, 92107","Match","Exact","4843 VOLTAIRE ST, SAN DIEGO, CA, 92107",195339384,"L"
224950,"4843 W KAMERING","CHICAGO","IL",60651,NA,NA,450,"4843 W KAMERING, CHICAGO, IL, 60651","No_Match",NA,NA,NA,NA
224951,"4843 WICKVIEW LANE","HOUSTON","TX",77053,29.5991833750001,-95.4516938629999,451,"4843 WICKVIEW LANE, HOUSTON, TX, 77053","Match","Exact","4843 WICKVIEW LN, HOUSTON, TX, 77053",96041124,"L"
224952,"4843 WOLFCREEK VIEW","COLLEGE PARK","GA",30349,33.632683279,-84.5508301579999,452,"4843 WOLFCREEK VIEW, COLLEGE PARK, GA, 30349","Match","Exact","4843 WOLFCREEK VW, COLLEGE PARK, GA, 30349",627597164,"L"
224953,"4843","GARLAND","TX",75040,NA,NA,453,"4843, GARLAND, TX, 75040","No_Match",NA,NA,NA,NA
224954,"4844 CASON COVE DR","ORLANDO","FL",32811,28.499432402,-81.443094915,454,"4844 CASON COVE DR, ORLANDO, FL, 32811","Match","Exact","4844 CASON COVE DR, ORLANDO, FL, 32811",606117653,"L"
224955,"4844 S COBBLESTONE DRIVE","ZIONSVILLE","IN",46077,39.969659742,-86.2964041449999,455,"4844 S COBBLESTONE DRIVE, ZIONSVILLE, IN, 46077","Match","Exact","4844 S COBBLESTONE DR, ZIONSVILLE, IN, 46077",617326266,"R"
224956,"4844 SPARTA ROAD","BELTON","TX",76513,31.094439277,-97.507178099,456,"4844 SPARTA ROAD, BELTON, TX, 76513","Match","Exact","4844 SPARTA RD, BELTON, TX, 76513",146180857,"L"
224957,"48441 HWY 105","JEFFERSON","SD",57038,NA,NA,457,"48441 HWY 105, JEFFERSON, SD, 57038","No_Match",NA,NA,NA,NA
224958,"4845 CLOVER ST","HOUSTON","TX",77033,29.660752643,-95.3521806959999,458,"4845 CLOVER ST, HOUSTON, TX, 77033","Match","Exact","4845 CLOVER ST, HOUSTON, TX, 77033",96089809,"L"
224959,"4845 ELSIE FAYE HEGGINS 105","DALLAS","TX",75210,32.7735017580001,-96.738120613,459,"4845 ELSIE FAYE HEGGINS 105, DALLAS, TX, 75210","Match","Non_Exact","4845 ELSIE FAYE HEGGINS ST, DALLAS, TX, 75210",103229434,"L"
224960,"4845 FARBER ROW","COLUMUS","OH",43221,40.0535991520001,-83.117690129,460,"4845 FARBER ROW, COLUMUS, OH, 43221","Match","Non_Exact","4845 FARBER ROW, COLUMBUS, OH, 43221",218568251,"R"
224961,"4845 FENNER RD","TROY","OH",45373,40.0234763780001,-84.293086494,461,"4845 FENNER RD, TROY, OH, 45373","Match","Exact","4845 FENNER RD, TROY, OH, 45373",207645589,"L"
224962,"4845 FRANKLIN POND","ATLANTA","GA",30342,33.8865097030001,-84.373553633,462,"4845 FRANKLIN POND, ATLANTA, GA, 30342","Match","Non_Exact","4845 FRANKLIN POND RD, ATLANTA, GA, 30342",17368258,"R"
224963,"4845 LEGACY OAKS DR","ORLANDO","FL",32839,28.492332166,-81.384970427,463,"4845 LEGACY OAKS DR, ORLANDO, FL, 32839","Match","Exact","4845 LEGACY OAKS DR, ORLANDO, FL, 32839",627994832,"R"
224964,"4845 N HARDING UNIT 2","CHICAGO","IL",60625,NA,NA,464,"4845 N HARDING UNIT 2, CHICAGO, IL, 60625","No_Match",NA,NA,NA,NA
224965,"4845 RANCHVIEW DRIVE","PLYMOUTH","MN",55446,NA,NA,465,"4845 RANCHVIEW DRIVE, PLYMOUTH, MN, 55446","No_Match",NA,NA,NA,NA
224966,"4845 SHAWNEE DR","KANSAS CITY","KS",66106,39.0474421070001,-94.689869188,466,"4845 SHAWNEE DR, KANSAS CITY, KS, 66106","Match","Exact","4845 SHAWNEE DR, KANSAS CITY, KS, 66106",91139426,"L"
224967,"4845 TURKEY TRACK ROAD","MARTINSVILLE","IN",46151,39.3543037640001,-86.498562372,467,"4845 TURKEY TRACK ROAD, MARTINSVILLE, IN, 46151","Match","Exact","4845 TURKEY TRACK RD, MARTINSVILLE, IN, 46151",43556064,"R"
224968,"4845 W 123RD ST APT 204","SAVAGE","MN",55378,44.778398581,-93.3408754279999,468,"4845 W 123RD ST APT 204, SAVAGE, MN, 55378","Match","Non_Exact","4845 123RD ST W, SAVAGE, MN, 55378",38143785,"R"
224969,"4845 W ROYAL LN 100","IRVING","TX",75063,32.9207655120001,-97.0134167209999,469,"4845 W ROYAL LN 100, IRVING, TX, 75063","Match","Non_Exact","4845 W ROYAL LN, IRVING, TX, 75063",103207585,"L"
224970,"4845 WRIGHT TERRACE 2ND FLOOR","SKOKIE","IL",60077,42.036234332,-87.7488621799999,470,"4845 WRIGHT TERRACE 2ND FLOOR, SKOKIE, IL, 60077","Match","Exact","4845 WRIGHT TER, SKOKIE, IL, 60077",605248667,"L"
224971,"4846 CAINS WREN TR","SANFORD","FL",32771,28.830988217,-81.358966558,471,"4846 CAINS WREN TR, SANFORD, FL, 32771","Match","Exact","4846 CAINS WREN TRL, SANFORD, FL, 32771",633978185,"L"
224972,"4846 HART DRIVE","SAN DIEGO","CA",92116,32.7669853470001,-117.101642638,472,"4846 HART DRIVE, SAN DIEGO, CA, 92116","Match","Exact","4846 HART DR, SAN DIEGO, CA, 92116",195346843,"L"
224973,"4846 KITTY HAWK ST","FAIR OAKS","CA",95628,38.6546369260001,-121.223148599,473,"4846 KITTY HAWK ST, FAIR OAKS, CA, 95628","Match","Exact","4846 KITTY HAWK ST, FAIR OAKS, CA, 95628",133356626,"R"
224974,"4846 KNICKERBOCKER STREET","HOUSTON","TX",77035,29.6681502770001,-95.459557603,474,"4846 KNICKERBOCKER STREET, HOUSTON, TX, 77035","Match","Exact","4846 KNICKERBOCKER ST, HOUSTON, TX, 77035",96040195,"R"
224975,"4846 N UNIVERSITY DR STE 270","LAUDERHILL","FL",33319,NA,NA,475,"4846 N UNIVERSITY DR STE 270, LAUDERHILL, FL, 33319","No_Match",NA,NA,NA,NA
224976,"4846 N UNIVERSITY DRIVE  SUITE 200","LAUDERHILL","FL",33351,26.1856167440001,-80.251777831,476,"4846 N UNIVERSITY DRIVE  SUITE 200, LAUDERHILL, FL, 33351","Match","Non_Exact","4846 N UNIVERSITY DR, LAUDERHILL, FL, 33351",114702882,"R"
224977,"4846 N UNIVERSITY DRIVE SUITE 168","LAUDERHILL","FL",33351,26.1856167440001,-80.251777831,477,"4846 N UNIVERSITY DRIVE SUITE 168, LAUDERHILL, FL, 33351","Match","Non_Exact","4846 N UNIVERSITY DR, LAUDERHILL, FL, 33351",114702882,"R"
224978,"4846 N UNIVERSITY DRIVE SUITE 504","LAUDERHILL","FL",33319,NA,NA,478,"4846 N UNIVERSITY DRIVE SUITE 504, LAUDERHILL, FL, 33319","No_Match",NA,NA,NA,NA
224979,"4846 NW 167TH ST","MIAMI","FL",33014,25.925015789,-80.2805090529999,479,"4846 NW 167TH ST, MIAMI, FL, 33014","Match","Non_Exact","4846 NW 167TH ST, MIAMI LAKES, FL, 33014",116027146,"L"
224980,"4846 NW LAKE JEFFERY ROAD","LAKE CITY","FL",32055,30.2308708470001,-82.703773014,480,"4846 NW LAKE JEFFERY ROAD, LAKE CITY, FL, 32055","Match","Exact","4846 NW LAKE JEFFERY RD, LAKE CITY, FL, 32055",606854714,"L"
224981,"4846 SULLIVAN RD","LAPEER","MI",48446,42.983830997,-83.412838356,481,"4846 SULLIVAN RD, LAPEER, MI, 48446","Match","Exact","4846 SULLIVAN RD, LAPEER, MI, 48446",110474585,"R"
224982,"4846 SUN CITY CENTER BLVD  SUITE 27","RUSKIN","FL",33573,27.7123900130001,-82.339528973,482,"4846 SUN CITY CENTER BLVD  SUITE 27, RUSKIN, FL, 33573","Match","Exact","4846 SUN CITY CENTER BLVD, RUSKIN, FL, 33573",640440464,"L"
224983,"4846 SUN CITY CENTER BLVD SUITE 177","SUN CITY CENTER","FL",33573,27.7123900130001,-82.339528973,483,"4846 SUN CITY CENTER BLVD SUITE 177, SUN CITY CENTER, FL, 33573","Match","Exact","4846 SUN CITY CENTER BLVD, SUN CITY CENTER, FL, 33573",640440464,"L"
224984,"4846 W 118TH PL STE 3E","LOS ANGELES","CA",90250,NA,NA,484,"4846 W 118TH PL STE 3E, LOS ANGELES, CA, 90250","No_Match",NA,NA,NA,NA
224985,"4847 BROWNS MILL FERRY ROAD","LITHONIA","GA",30038,33.6328198090001,-84.1143272959999,485,"4847 BROWNS MILL FERRY ROAD, LITHONIA, GA, 30038","Match","Exact","4847 BROWNS MILL FERRY RD, LITHONIA, GA, 30038",627760168,"R"
224986,"4847 DAYWALT ROAD","SEBASTOPOL","CA",95472,38.352343015,-122.766908768,486,"4847 DAYWALT ROAD, SEBASTOPOL, CA, 95472","Match","Exact","4847 DAYWALT RD, SEBASTOPOL, CA, 95472",67471127,"L"
224987,"4847 HOPYARD RD STE 4207","PLEASANTON","NJ",94588,NA,NA,487,"4847 HOPYARD RD STE 4207, PLEASANTON, NJ, 94588","No_Match",NA,NA,NA,NA
224988,"4847 HOPYARD ROAD STE 4-314","PLEASANTON","CA",94588,37.6923075120001,-121.903526335,488,"4847 HOPYARD ROAD STE 4-314, PLEASANTON, CA, 94588","Match","Exact","4847 HOPYARD RD, PLEASANTON, CA, 94588",635727214,"R"
224989,"4847 HOPYARD ROAD SUITE 4-213","PLEASANTON","CA",94588,37.6923075120001,-121.903526335,489,"4847 HOPYARD ROAD SUITE 4-213, PLEASANTON, CA, 94588","Match","Exact","4847 HOPYARD RD, PLEASANTON, CA, 94588",635727214,"R"
224990,"4847 VICKY RD","NOTTINGHAM","MD",21236,39.3979489810001,-76.4541225359999,490,"4847 VICKY RD, NOTTINGHAM, MD, 21236","Match","Exact","4847 VICKY RD, NOTTINGHAM, MD, 21236",191479905,"R"
224991,"4847 W CYPRESS AVE","VISALIA","CA",93277,36.3235989980001,-119.345669936,491,"4847 W CYPRESS AVE, VISALIA, CA, 93277","Match","Exact","4847 W CYPRESS AVE, VISALIA, CA, 93277",202805932,"R"
224992,"48470 SCOUT CAMP ROAD","LONG BOTTOM","OH",45743,39.063807819,-81.8829765139999,492,"48470 SCOUT CAMP ROAD, LONG BOTTOM, OH, 45743","Match","Exact","48470 SCOUT CAMP RD, LONG BOTTOM, OH, 45743",101269476,"R"
224993,"48472 ARKANSAS PL","FREMONT","CA",94539,37.469664478,-121.916080164,493,"48472 ARKANSAS PL, FREMONT, CA, 94539","Match","Exact","48472 ARKANSAS PL, FREMONT, CA, 94539",124990355,"R"
224994,"4848 BROOKSVIEW CIRCLE","NEW ALBANY","OH",43054,40.0809482290001,-82.8312931999999,494,"4848 BROOKSVIEW CIRCLE, NEW ALBANY, OH, 43054","Match","Exact","4848 BROOKSVIEW CIR, NEW ALBANY, OH, 43054",218702898,"L"
224995,"4848 E CACTUS RD STE 200","SCOTTSDALE","AZ",85254,33.5975857180001,-111.976980239,495,"4848 E CACTUS RD STE 200, SCOTTSDALE, AZ, 85254","Match","Non_Exact","4848 E CACTUS RD, SCOTTSDALE, AZ, 85254",128187019,"L"
224996,"4848 E CACTUS RD STE 505 PMB 1076","SCOTTSDALE","AZ",85254,33.5975857180001,-111.976980239,496,"4848 E CACTUS RD STE 505 PMB 1076, SCOTTSDALE, AZ, 85254","Match","Non_Exact","4848 E CACTUS RD, SCOTTSDALE, AZ, 85254",128187019,"L"
224997,"4848 E TEAGUE AVE","CLOVIS","CA",93619,36.859291689,-119.695275847,497,"4848 E TEAGUE AVE, CLOVIS, CA, 93619","Match","Exact","4848 E TEAGUE AVE, CLOVIS, CA, 93619",635818884,"L"
224998,"4848 EAST CACTUS ROAD STE 505 999","SCOTTSDALE","AZ",85255,33.5975909910001,-111.976999485,498,"4848 EAST CACTUS ROAD STE 505 999, SCOTTSDALE, AZ, 85255","Match","Non_Exact","4848 E CACTUS RD, SCOTTSDALE, AZ, 85254",128187019,"L"
224999,"4848 LEMMON AVE NO 100 NO 813","HIGHLAND PARK","TX",75219,NA,NA,499,"4848 LEMMON AVE NO 100 NO 813, HIGHLAND PARK, TX, 75219","No_Match",NA,NA,NA,NA
225000,"4848 LEMMON AVE SUITE 132","DALLAS","TX",75219,32.822526741,-96.817851911,500,"4848 LEMMON AVE SUITE 132, DALLAS, TX, 75219","Match","Exact","4848 LEMMON AVE, DALLAS, TX, 75219",649820315,"R"
