"ID","Address","City","State","Zip","lat","long","id","input_address","match_indicator","match_type","matched_address","tiger_line_id","tiger_side"
15001,"10640 BIRD STONE CV","CORDOVA","TN",38016,35.183993093,-89.707387365,1,"10640 BIRD STONE CV, CORDOVA, TN, 38016","Match","Exact","10640 BIRD STONE COVE, CORDOVA, TN, 38016",619915370,"L"
15002,"10640 CARVER DR","CUPERTINO","CA",95014,37.3131870220001,-122.002889372,2,"10640 CARVER DR, CUPERTINO, CA, 95014","Match","Exact","10640 CARVER DR, CUPERTINO, CA, 95014",122942024,"L"
15003,"10640 HIGHWAY 322 BELLVIEW RD","CLARKSDALE","MS",38614,34.160654741,-90.485799524,3,"10640 HIGHWAY 322 BELLVIEW RD, CLARKSDALE, MS, 38614","Match","Non_Exact","10640 STATE HWY 322, CLARKSDALE, MS, 38614",953452,"R"
15004,"10640 MAIN STREET SUITE 200","FAIRFAX","VA",22030,38.8485230320001,-77.313353154,4,"10640 MAIN STREET SUITE 200, FAIRFAX, VA, 22030","Match","Exact","10640 MAIN ST, FAIRFAX, VA, 22030",638318186,"R"
15005,"10640 N 28TH DR STE A107","PHOENIX","AZ",85029,33.582536711,-112.122063958,5,"10640 N 28TH DR STE A107, PHOENIX, AZ, 85029","Match","Non_Exact","10640 N 28TH DR, PHOENIX, AZ, 85029",128918347,"L"
15006,"10640 PEPPERWOOD DRIVE","INDEPENDENCE","KY",41051,38.933554497,-84.578576485,6,"10640 PEPPERWOOD DRIVE, INDEPENDENCE, KY, 41051","Match","Exact","10640 PEPPERWOOD DR, INDEPENDENCE, KY, 41051",629009922,"L"
15007,"10640 SATORI LN APT 426","JACKSONVILLE","FL",32256,NA,NA,7,"10640 SATORI LN APT 426, JACKSONVILLE, FL, 32256","No_Match",NA,NA,NA,NA
15008,"10640 SCRIPPS RANCH BLVD SUITE 200","SAN DIEGO","CA",92131,32.912125641,-117.109947094,8,"10640 SCRIPPS RANCH BLVD SUITE 200, SAN DIEGO, CA, 92131","Match","Exact","10640 SCRIPPS RANCH BLVD, SAN DIEGO, CA, 92131",637269411,"L"
15009,"10640 WOODBRIDGE STREET PH 4","TOLUCA LAKE","CA",91602,34.148846855,-118.362845322,9,"10640 WOODBRIDGE STREET PH 4, TOLUCA LAKE, CA, 91602","Match","Exact","10640 WOODBRIDGE ST, TOLUCA LAKE, CA, 91602",141593370,"L"
15010,"10641 CLAUDE FREEMAN DRIVE","CHARLOTTE","NC",28262,35.340191068,-80.756603779,10,"10641 CLAUDE FREEMAN DRIVE, CHARLOTTE, NC, 28262","Match","Exact","10641 CLAUDE FREEMAN DR, CHARLOTTE, NC, 28262",70627848,"R"
15011,"10641 Hampton Road","Orland Park","IL",60462,41.647237724,-87.879827582,11,"10641 Hampton Road, Orland Park, IL, 60462","Match","Exact","10641 HAMPTON RD, ORLAND PARK, IL, 60462",111860898,"R"
15012,"10641 HOLMES DR","EL PASO","TX",79924,31.921805658,-106.423832652,12,"10641 HOLMES DR, EL PASO, TX, 79924","Match","Exact","10641 HOLMES DR, EL PASO, TX, 79924",189337989,"L"
15013,"10641 MOUNTAIN SPRINGS DR","CHARLOTTE","NC",28278,35.1553544920001,-80.9865069049999,13,"10641 MOUNTAIN SPRINGS DR, CHARLOTTE, NC, 28278","Match","Exact","10641 MOUNTAIN SPRINGS DR, CHARLOTTE, NC, 28278",70563824,"R"
15014,"10641 S HALE AVENUE UNIT 2","CHICAGO","IL",60643,41.700416961,-87.6693427069999,14,"10641 S HALE AVENUE UNIT 2, CHICAGO, IL, 60643","Match","Non_Exact","10641 S HALE AVE, CHICAGO, IL, 60643",111822944,"L"
15015,"10641 STEPPINGTON DR APT 1004","DALLAS","TX",75230,32.892335546,-96.771474902,15,"10641 STEPPINGTON DR APT 1004, DALLAS, TX, 75230","Match","Exact","10641 STEPPINGTON DR, DALLAS, TX, 75230",631026728,"R"
15016,"10641 VINCENT AVE S","BLOOMINGTON","MN",55431,44.811034309,-93.316744264,16,"10641 VINCENT AVE S, BLOOMINGTON, MN, 55431","Match","Exact","10641 VINCENT AVE S, BLOOMINGTON, MN, 55431",43595420,"L"
15017,"10641 WUNDERLICH DR","CUPERTINO","CA",95014,NA,NA,17,"10641 WUNDERLICH DR, CUPERTINO, CA, 95014","No_Match",NA,NA,NA,NA
15018,"10641BARBERRY DR","HAMPTON","GA",30228,NA,NA,18,"10641BARBERRY DR, HAMPTON, GA, 30228","No_Match",NA,NA,NA,NA
15019,"10643 CAMINITO BANYON","SAN DIEGO","CA",92131,NA,NA,19,"10643 CAMINITO BANYON, SAN DIEGO, CA, 92131","No_Match",NA,NA,NA,NA
15020,"10643 VERMILION ROAD","OBERLIN","OH",44074,41.3352750700001,-82.299999634,20,"10643 VERMILION ROAD, OBERLIN, OH, 44074","Match","Exact","10643 VERMILION RD, OBERLIN, OH, 44074",634661544,"R"
15021,"10644 VISTA CAMINO","LAKESIDE","CA",92040,32.871885096,-116.938938068,21,"10644 VISTA CAMINO, LAKESIDE, CA, 92040","Match","Exact","10644 VIS CAMINO, LAKESIDE, CA, 92040",651731184,"L"
15022,"10645 AMERY CT","INVER GROVE HEIGHTS","MN",55077,44.7954275530001,-93.10018371,22,"10645 AMERY CT, INVER GROVE HEIGHTS, MN, 55077","Match","Exact","10645 AMERY CT, INVER GROVE HEIGHTS, MN, 55077",37937203,"L"
15023,"10645 N ORACLE RD STE 121-113","ORO VALLEY","AZ",85737,32.39897526,-110.956651889,23,"10645 N ORACLE RD STE 121-113, ORO VALLEY, AZ, 85737","Match","Non_Exact","10645 N ORACLE RD, ORO VALLEY, AZ, 85737",639451128,"R"
15024,"10645 N TATUM BLVD 200277","PHOENIX","AZ",85028,33.5865734120001,-111.977879693,24,"10645 N TATUM BLVD 200277, PHOENIX, AZ, 85028","Match","Non_Exact","10645 N TATUM BLVD, PHOENIX, AZ, 85028",128187045,"R"
15025,"10645 N TATUM BLVD 200608","PHOENIX","AZ",85028,33.5865734120001,-111.977879693,25,"10645 N TATUM BLVD 200608, PHOENIX, AZ, 85028","Match","Non_Exact","10645 N TATUM BLVD, PHOENIX, AZ, 85028",128187045,"R"
15026,"10645 N TATUM BLVD SUITE 200-463","PHOENIX","AZ",85028,33.5865734120001,-111.977879693,26,"10645 N TATUM BLVD SUITE 200-463, PHOENIX, AZ, 85028","Match","Non_Exact","10645 N TATUM BLVD, PHOENIX, AZ, 85028",128187045,"R"
15027,"10645 N TATUM BLVD SUITE 200608","PHOENIX","AZ",85028,33.5865734120001,-111.977879693,27,"10645 N TATUM BLVD SUITE 200608, PHOENIX, AZ, 85028","Match","Non_Exact","10645 N TATUM BLVD, PHOENIX, AZ, 85028",128187045,"R"
15028,"10645 RANDOLPH STREET LOBBY B","CROWN POINT","IN",46307,41.424353389,-87.239009455,28,"10645 RANDOLPH STREET LOBBY B, CROWN POINT, IN, 46307","Match","Exact","10645 RANDOLPH ST, CROWN POINT, IN, 46307",98458873,"L"
15029,"10646 HAVERFORD RD STE 9","JACKSONVILLE","FL",32218,30.4285922330001,-81.667536236,29,"10646 HAVERFORD RD STE 9, JACKSONVILLE, FL, 32218","Match","Exact","10646 HAVERFORD RD, JACKSONVILLE, FL, 32218",83890611,"L"
15030,"10646 WINDSOR COURT","ORLANDO","FL",32821,28.412312537,-81.449290759,30,"10646 WINDSOR COURT, ORLANDO, FL, 32821","Match","Exact","10646 WINDSOR CT, ORLANDO, FL, 32821",94290053,"L"
15031,"10647 ALAMEDA AVENUE","INVER GROVE HEIGHTS","MN",55077,44.7948079060001,-93.092991324,31,"10647 ALAMEDA AVENUE, INVER GROVE HEIGHTS, MN, 55077","Match","Exact","10647 ALAMEDA AVE, INVER GROVE HEIGHTS, MN, 55077",37930107,"L"
15032,"10647 MISTFLOWER WAY","INDIANAPOLIS","IN",46235,39.828012431,-85.977963132,32,"10647 MISTFLOWER WAY, INDIANAPOLIS, IN, 46235","Match","Exact","10647 MISTFLOWER WAY, INDIANAPOLIS, IN, 46235",108059589,"R"
15033,"10647 S SHAENRIDGE","SAN ANTONIO","TX",78254,29.5215637860001,-98.703265301,33,"10647 S SHAENRIDGE, SAN ANTONIO, TX, 78254","Match","Exact","10647 S SHAENRIDGE, SAN ANTONIO, TX, 78254",101744586,"R"
15034,"10647 SE MATHER RD","CLACKAMAS","OR",97015,45.420139308,-122.551628497,34,"10647 SE MATHER RD, CLACKAMAS, OR, 97015","Match","Exact","10647 SE MATHER RD, CLACKAMAS, OR, 97015",640405326,"L"
15035,"10647 SW 76TH TERR","MIAMI","FL",33173,25.696770456,-80.365401235,35,"10647 SW 76TH TERR, MIAMI, FL, 33173","Match","Exact","10647 SW 76TH TER, MIAMI, FL, 33173",116260597,"R"
15036,"10648 RED BARN DRIVE","BLACKWELL","MO",63626,38.049654435,-90.66715748,36,"10648 RED BARN DRIVE, BLACKWELL, MO, 63626","Match","Exact","10648 RED BARN DR, BLACKWELL, MO, 63626",639225727,"R"
15037,"10648 REDBU LANE","JONESBORO","GA",30238,NA,NA,37,"10648 REDBU LANE, JONESBORO, GA, 30238","No_Match",NA,NA,NA,NA
15038,"10649 LACKMAN ROAD","LENEXA","KS",66219,38.936462104,-94.760804564,38,"10649 LACKMAN ROAD, LENEXA, KS, 66219","Match","Exact","10649 LACKMAN RD, LENEXA, KS, 66219",91271176,"L"
15039,"1065 24TH AVENUE SW SUITE 116","OWATONNA","MN",55060,44.094038443,-93.2566155009999,39,"1065 24TH AVENUE SW SUITE 116, OWATONNA, MN, 55060","Match","Non_Exact","1065 24TH AVE NW, OWATONNA, MN, 55060",38170370,"R"
15040,"1065 A NC HWY 150 W","SUMMERFIELD","NC",27358,36.196859606,-79.85521714,40,"1065 A NC HWY 150 W, SUMMERFIELD, NC, 27358","Match","Non_Exact","1065 STATE HWY 150, SUMMERFIELD, NC, 27358",617538359,"R"
15041,"1065 ACORN LANE","JAMES CREEK","PA",16657,40.2871418220001,-78.245468107,41,"1065 ACORN LANE, JAMES CREEK, PA, 16657","Match","Exact","1065 ACORN LN, JAMES CREEK, PA, 16657",50623388,"R"
15042,"1065 ALTMAN WAY","IRON STATION","NC",28080,35.461205841,-81.103096649,42,"1065 ALTMAN WAY, IRON STATION, NC, 28080","Match","Exact","1065 ALTMAN WAY, IRON STATION, NC, 28080",69537558,"R"
15043,"1065 ASH ROAD","HOFFMAN ESTATES","IL",60169,42.0469226590001,-88.070919504,43,"1065 ASH ROAD, HOFFMAN ESTATES, IL, 60169","Match","Exact","1065 ASH RD, HOFFMAN EST, IL, 60169",111694014,"R"
15044,"1065 AUGUSTA LANE","GREENVILLE","NC",27858,35.5544190000001,-77.294823236,44,"1065 AUGUSTA LANE, GREENVILLE, NC, 27858","Match","Exact","1065 AUGUSTA LN, GREENVILLE, NC, 27858",618609752,"L"
15045,"1065 AVILA TERRAZA","FREMONT","CA",94538,37.5592881760001,-121.967612806,45,"1065 AVILA TERRAZA, FREMONT, CA, 94538","Match","Exact","1065 AVILA TERRAZA, FREMONT, CA, 94538",125081605,"L"
15046,"1065 BAKER AVE","SCHENECTADY","NY",12309,42.8068832760001,-73.9048681789999,46,"1065 BAKER AVE, SCHENECTADY, NY, 12309","Match","Exact","1065 BAKER AVE, SCHENECTADY, NY, 12309",18029636,"L"
15047,"1065 BIRDIE CIRCLE","NORTH SALT LAKE","UT",84054,40.8400001150001,-111.886025644,47,"1065 BIRDIE CIRCLE, NORTH SALT LAKE, UT, 84054","Match","Exact","1065 BIRDIE CIR, N SALT LAKE, UT, 84054",155325033,"L"
15048,"1065 BLUE BIRD LANE","WAKE FOREST","NC",27587,35.9628660170001,-78.537608103,48,"1065 BLUE BIRD LANE, WAKE FOREST, NC, 27587","Match","Exact","1065 BLUE BIRD LN, WAKE FOREST, NC, 27587",647042048,"L"
15049,"1065 BLUFF VISTA DRIVE","COLUMBUS","OH",43235,40.116211111,-83.044244509,49,"1065 BLUFF VISTA DRIVE, COLUMBUS, OH, 43235","Match","Exact","1065 BLUFF VISTA DR, COLUMBUS, OH, 43235",624574845,"L"
15050,"1065 BORGHESE LANE APT 902","NAPLES","FL",34114,25.9945765200001,-81.6982118939999,50,"1065 BORGHESE LANE APT 902, NAPLES, FL, 34114","Match","Exact","1065 BORGHESE LN, NAPLES, FL, 34114",651870611,"R"
15051,"1065 BOULDER DRIVE","FLORISSANT","MO",63031,38.807782059,-90.3397356679999,51,"1065 BOULDER DRIVE, FLORISSANT, MO, 63031","Match","Exact","1065 BOULDER DR, FLORISSANT, MO, 63031",100119288,"R"
15052,"1065 CENTRAL ST APT B","PALMER","MA",1069,42.157993129,-72.3254546159999,52,"1065 CENTRAL ST APT B, PALMER, MA, 1069","Match","Exact","1065 CENTRAL ST, PALMER, MA, 01069",4029280,"R"
15053,"1065 CHARLES ST","CLEARWATER","FL",33755,27.9936802670001,-82.7931212569999,53,"1065 CHARLES ST, CLEARWATER, FL, 33755","Match","Exact","1065 CHARLES ST, CLEARWATER, FL, 33755",124663979,"R"
15054,"1065 CHIMNEY WAY","ROGERSVILLE","TN",37857,36.4153251340001,-83.1852207329999,54,"1065 CHIMNEY WAY, ROGERSVILLE, TN, 37857","Match","Exact","1065 CHIMNEY WAY, ROGERSVILLE, TN, 37857",652875453,"L"
15055,"1065 COLLINS AVENUE","MARYSVILLE","OH",43040,40.2295441430001,-83.384135058,55,"1065 COLLINS AVENUE, MARYSVILLE, OH, 43040","Match","Exact","1065 COLLINS AVE, MARYSVILLE, OH, 43040",135334253,"R"
15056,"1065 CONN DRIVE","EVANS","GA",30809,33.5780625300001,-82.104529267,56,"1065 CONN DRIVE, EVANS, GA, 30809","Match","Exact","1065 CONN DR, EVANS, GA, 30809",641054234,"R"
15057,"1065 E BEAL AVE APT 54","BUCYRUS","OH",44820,NA,NA,57,"1065 E BEAL AVE APT 54, BUCYRUS, OH, 44820","No_Match",NA,NA,NA,NA
15058,"1065 E BOUTZ RD","LAS CRUCES","NM",88001,32.295363384,-106.762375942,58,"1065 E BOUTZ RD, LAS CRUCES, NM, 88001","Match","Exact","1065 E BOUTZ RD, LAS CRUCES, NM, 88001",189545659,"L"
15059,"1065 E BROADWAY ST SUITE 3","OVIEDO","FL",32765,NA,NA,59,"1065 E BROADWAY ST SUITE 3, OVIEDO, FL, 32765","Tie",NA,NA,NA,NA
15060,"1065 E CRESCENT COURT","CHANDLER","AZ",85249,33.238366168,-111.822701899,60,"1065 E CRESCENT COURT, CHANDLER, AZ, 85249","Match","Exact","1065 E CRESCENT CT, CHANDLER, AZ, 85249",128806538,"R"
15061,"1065 E FREELAND STREET","LONG BEACH","CA",90807,33.8402178260001,-118.180598299,61,"1065 E FREELAND STREET, LONG BEACH, CA, 90807","Match","Exact","1065 E FREELAND ST, LONG BEACH, CA, 90807",141686279,"L"
15062,"1065 E WINDING CREEK DR SUITE 250","EAGLE","ID",83616,43.694416001,-116.340580502,62,"1065 E WINDING CREEK DR SUITE 250, EAGLE, ID, 83616","Match","Non_Exact","1065 E WINDING CREEK DR, EAGLE, ID, 83616",617936454,"R"
15063,"1065 EAGLE CANYON DRIVE","SPARKS","NV",89441,39.651901131,-119.729535867,63,"1065 EAGLE CANYON DRIVE, SPARKS, NV, 89441","Match","Exact","1065 EAGLE CANYON DR, SPARKS, NV, 89441",107090182,"R"
15064,"1065 EAST 146TH STREET","CLEVELAND","OH",44110,41.5502692810001,-81.579576426,64,"1065 EAST 146TH STREET, CLEVELAND, OH, 44110","Match","Exact","1065 E 146TH ST, CLEVELAND, OH, 44110",61121123,"L"
15065,"1065 EAST FLAMINGO 1-404","LAS VEGAS","NV",89119,36.1145240320001,-115.140690754,65,"1065 EAST FLAMINGO 1-404, LAS VEGAS, NV, 89119","Match","Non_Exact","1065 E FLAMINGO RD, LAS VEGAS, NV, 89119",639403236,"R"
15066,"1065 EVANGELINE LANE","VIDOR","TX",77662,30.1651165170001,-93.965951699,66,"1065 EVANGELINE LANE, VIDOR, TX, 77662","Match","Exact","1065 EVANGELINE LN, VIDOR, TX, 77662",74004284,"R"
15067,"1065 GIBSON RD","BENSALEM","PA",19020,40.120611049,-74.9065943419999,67,"1065 GIBSON RD, BENSALEM, PA, 19020","Match","Exact","1065 GIBSON RD, BENSALEM, PA, 19020",134715136,"R"
15068,"1065 GORDON MOUNTAIN VIEW COURT","GRAFORD","TX",76449,32.961263608,-98.395848379,68,"1065 GORDON MOUNTAIN VIEW COURT, GRAFORD, TX, 76449","Match","Exact","1065 GORDON MT VIEW CT, GRAFORD, TX, 76449",642966511,"L"
15069,"1065 GRANT AVENUE     NUMBER 1","BRONX","NY",10456,40.8301660130001,-73.9169921399999,69,"1065 GRANT AVENUE     NUMBER 1, BRONX, NY, 10456","Match","Exact","1065 GRANT AVE, BRONX, NY, 10456",80300446,"L"
15070,"1065 HIGHLAND OAKS DRIVE","SOUTHLAKE","TX",76092,32.928958922,-97.1511026539999,70,"1065 HIGHLAND OAKS DRIVE, SOUTHLAKE, TX, 76092","Match","Exact","1065 HIGHLAND OAKS DR, SOUTHLAKE, TX, 76092",102089221,"L"
15071,"1065 HUFFAKER LN","RENO","NV",89511,NA,NA,71,"1065 HUFFAKER LN, RENO, NV, 89511","Tie",NA,NA,NA,NA
15072,"1065 KEOLU DR","KAILUA","HI",96734,21.37761678,-157.728533382,72,"1065 KEOLU DR, KAILUA, HI, 96734","Match","Exact","1065 KEOLU DR, KAILUA, HI, 96734",203240427,"L"
15073,"1065 N CARLING STREET","HILDALE","UT",84784,37.008770375,-112.970095754,73,"1065 N CARLING STREET, HILDALE, UT, 84784","Match","Exact","1065 CARLING ST, HILDALE, UT, 84784",166156873,"L"
15074,"1065 N OLD MILL RD","PALATINE","IL",60067,42.133356544,-88.0431464659999,74,"1065 N OLD MILL RD, PALATINE, IL, 60067","Match","Exact","1065 N OLD MILL RD, PALATINE, IL, 60067",112384898,"R"
15075,"1065 OLD COUNTRY ROAD STE 201","WESTBURY","NY",11590,40.7544336560001,-73.5603454979999,75,"1065 OLD COUNTRY ROAD STE 201, WESTBURY, NY, 11590","Match","Non_Exact","1065 OLD COUNTRY RD, WESTBURY, NY, 11590",147824764,"L"
15076,"1065 PEACH DRIVE","OGDEN","UT",84404,41.245825046,-111.944075464,76,"1065 PEACH DRIVE, OGDEN, UT, 84404","Match","Exact","1065 PEACH DR, OGDEN, UT, 84404",155697587,"R"
15077,"1065 PERALTA AVE","ALBANY","CA",94706,37.884426379,-122.28639366,77,"1065 PERALTA AVE, ALBANY, CA, 94706","Match","Exact","1065 PERALTA AVE, ALBANY, CA, 94706",606341212,"L"
15078,"1065 SHADY LANE","WILLIAMSTON","NC",27892,35.859789246,-77.122620457,78,"1065 SHADY LANE, WILLIAMSTON, NC, 27892","Match","Exact","1065 SHADY LN, WILLIAMSTON, NC, 27892",56808275,"R"
15079,"1065 SHOWERS DR","NORTH VERNON","IN",47265,39.000475527,-85.636152764,79,"1065 SHOWERS DR, NORTH VERNON, IN, 47265","Match","Exact","1065 SHOWERS DR, NORTH VERNON, IN, 47265",637354367,"R"
15080,"1065 SKEES RD APT 1","WEST PALM BEACH","FL",33411,26.693165902,-80.1576964449999,80,"1065 SKEES RD APT 1, WEST PALM BEACH, FL, 33411","Match","Exact","1065 SKEES RD, WEST PALM BEACH, FL, 33411",641072791,"R"
15081,"1065 SOYER CIRCLE","FOREST","VA",24551,37.3935050220001,-79.294337764,81,"1065 SOYER CIRCLE, FOREST, VA, 24551","Match","Exact","1065 SOYER CIR, FOREST, VA, 24551",624994508,"R"
15082,"1065 SW 8TH ST APT 1053","MIAMI","FL",33130,25.765924329,-80.212251204,82,"1065 SW 8TH ST APT 1053, MIAMI, FL, 33130","Match","Non_Exact","1065 SW 8TH ST, MIAMI, FL, 33130",116017026,"R"
15083,"1065 SW 8TH ST UNIT 309","MIAMI","FL",33130,25.765924329,-80.212251204,83,"1065 SW 8TH ST UNIT 309, MIAMI, FL, 33130","Match","Non_Exact","1065 SW 8TH ST, MIAMI, FL, 33130",116017026,"R"
15084,"1065 W 46ST","MIAMI BEACH","FL",33140,NA,NA,84,"1065 W 46ST, MIAMI BEACH, FL, 33140","No_Match",NA,NA,NA,NA
15085,"1065 W COPPER CT","ROSEBURG","OR",97471,43.209485016,-123.376704843,85,"1065 W COPPER CT, ROSEBURG, OR, 97471","Match","Exact","1065 W COPPER CT, ROSEBURG, OR, 97471",137185571,"R"
15086,"1065 W SIERRA MADRE AVE","GILBERT","AZ",85233,33.3492925300001,-111.812735186,86,"1065 W SIERRA MADRE AVE, GILBERT, AZ, 85233","Match","Exact","1065 W SIERRA MADRE AVE, GILBERT, AZ, 85233",128868870,"L"
15087,"1065 W WINONA STREET","CHICAGO","IL",60640,41.975244757,-87.657280038,87,"1065 W WINONA STREET, CHICAGO, IL, 60640","Match","Exact","1065 W WINONA ST, CHICAGO, IL, 60640",605158060,"L"
15088,"10650 22ND PLACE S","SEATTLE","WA",98168,47.50744588,-122.30307823,88,"10650 22ND PLACE S, SEATTLE, WA, 98168","Match","Exact","10650 22ND PL S, SEATTLE, WA, 98168",239765674,"L"
15089,"10650 CLIFF RIDGE AVE","LAS VEGAS","NV",89129,36.2441663750001,-115.328807037,89,"10650 CLIFF RIDGE AVE, LAS VEGAS, NV, 89129","Match","Exact","10650 CLIFF RIDGE AVE, LAS VEGAS, NV, 89129",202002433,"R"
15090,"10650 CULEBRA RD 104 PMB109","SAN ANTONIO","TX",78251,NA,NA,90,"10650 CULEBRA RD 104 PMB109, SAN ANTONIO, TX, 78251","No_Match",NA,NA,NA,NA
15091,"10650 CULEBRA RD 104-106","SAN ANTONIO","TX",78251,NA,NA,91,"10650 CULEBRA RD 104-106, SAN ANTONIO, TX, 78251","No_Match",NA,NA,NA,NA
15092,"10650 CULEBRA RD STE 104 PMB 129","SAN ANTONIO","TX",78251,NA,NA,92,"10650 CULEBRA RD STE 104 PMB 129, SAN ANTONIO, TX, 78251","No_Match",NA,NA,NA,NA
15093,"10650 CULEBRA RD STE 104/116","SAN ANTONIO","TX",78251,NA,NA,93,"10650 CULEBRA RD STE 104/116, SAN ANTONIO, TX, 78251","No_Match",NA,NA,NA,NA
15094,"10650 HAVERFORD ROAD - SUITE 6","JACKSONVILLE","FL",32218,30.4286700480001,-81.6675363369999,94,"10650 HAVERFORD ROAD - SUITE 6, JACKSONVILLE, FL, 32218","Match","Exact","10650 HAVERFORD RD, JACKSONVILLE, FL, 32218",83890611,"L"
15095,"10650 NE 9TH PL UNIT 826","BELLEVUE","WA",98004,47.6184634900001,-122.198371659,95,"10650 NE 9TH PL UNIT 826, BELLEVUE, WA, 98004","Match","Non_Exact","10650 NE 9TH PL, BELLEVUE, WA, 98004",632185332,"L"
15096,"10650 ROE BLVD SUITE 115","OVERLAND PARK","KS",66207,38.9355960950001,-94.639624506,96,"10650 ROE BLVD SUITE 115, OVERLAND PARK, KS, 66207","Match","Non_Exact","10650 ROE AVE, OVERLAND PARK, KS, 66207",91280528,"R"
15097,"10650 SE LOOP RD","DAYTON","OR",97114,45.206842011,-123.128739653,97,"10650 SE LOOP RD, DAYTON, OR, 97114","Match","Exact","10650 SE LOOP RD, DAYTON, OR, 97114",156503110,"R"
15098,"10652 CALSTON WAY","SAN DIEGO","CA",92126,32.9116804180001,-117.166627865,98,"10652 CALSTON WAY, SAN DIEGO, CA, 92126","Match","Exact","10652 CALSTON WAY, SAN DIEGO, CA, 92126",195659557,"L"
15099,"10652 COUNTY RD 15","LONGMONT","CO",80504,40.155244833,-104.923747591,99,"10652 COUNTY RD 15, LONGMONT, CO, 80504","Match","Exact","10652 CO RD 15, LONGMONT, CO, 80504",635002681,"R"
15100,"10652 FOXEN WAY","HELOTES","TX",78023,29.5999667620001,-98.699355581,100,"10652 FOXEN WAY, HELOTES, TX, 78023","Match","Exact","10652 FOXEN WAY, HELOTES, TX, 78023",645172343,"L"
15101,"10652 NETTLETON ST","SUN VALLEY","CA",91352,34.2248855490001,-118.362882655,101,"10652 NETTLETON ST, SUN VALLEY, CA, 91352","Match","Exact","10652 NETTLETON ST, SUN VALLEY, CA, 91352",141586916,"L"
15102,"10652 RIVIERA PL NE","SEATTLE","WA",98125,47.7070600820001,-122.275258507,102,"10652 RIVIERA PL NE, SEATTLE, WA, 98125","Match","Exact","10652 RIVIERA PL NE, SEATTLE, WA, 98125",629169921,"R"
15103,"10653 CATAWBA AVENUE","FONTANA","CA",92337,34.059818352,-117.458140345,103,"10653 CATAWBA AVENUE, FONTANA, CA, 92337","Match","Exact","10653 CATAWBA AVE, FONTANA, CA, 92337",144641944,"L"
15104,"10655 BOONVILLE HIGHWAY","CHANDLER","IN",47610,38.0274589040001,-87.443853804,104,"10655 BOONVILLE HIGHWAY, CHANDLER, IN, 47610","Match","Exact","10655 BOONVILLE HWY, CHANDLER, IN, 47610",32221114,"L"
15105,"10655 FRANCES LN","LARGO","FL",33774,27.8700760510001,-82.828762227,105,"10655 FRANCES LN, LARGO, FL, 33774","Match","Exact","10655 FRANCES LN, LARGO, FL, 33774",124672707,"L"
15106,"10655 LAZY LAKE DRIVE","ORLANDO","FL",32821,28.4102083450001,-81.443512948,106,"10655 LAZY LAKE DRIVE, ORLANDO, FL, 32821","Match","Exact","10655 LAZY LAKE DR, ORLANDO, FL, 32821",94290149,"L"
15107,"10655 N SHANNON RD","TUCSON","AZ",85742,32.396407192,-111.02989743,107,"10655 N SHANNON RD, TUCSON, AZ, 85742","Match","Exact","10655 N SHANNON RD, TUCSON, AZ, 85742",121394331,"L"
15108,"10655 NE 132ND PL","KIRKLAND","WA",98034,47.7190320970001,-122.197695821,108,"10655 NE 132ND PL, KIRKLAND, WA, 98034","Match","Exact","10655 NE 132ND PL, KIRKLAND, WA, 98034",186599460,"R"
15109,"10655 PARK RUN DRIVE","LAS VEGAS","NV",89144,36.161288686,-115.327427018,109,"10655 PARK RUN DRIVE, LAS VEGAS, NV, 89144","Match","Exact","10655 PARK RUN DR, LAS VEGAS, NV, 89144",201981860,"R"
15110,"10655 WILKOW DRIVE  T 106","ORLANDO","FL",32821,NA,NA,110,"10655 WILKOW DRIVE  T 106, ORLANDO, FL, 32821","No_Match",NA,NA,NA,NA
15111,"10656 KAMEHAMEHA V HWY","KAUNAKAKAI","HI",96748,21.1015071940001,-156.752821671,111,"10656 KAMEHAMEHA V HWY, KAUNAKAKAI, HI, 96748","Match","Exact","10656 KAMEHAMEHA V HWY, KAUNAKAKAI, HI, 96748",642847986,"L"
15112,"10656 PARK VILLAGE PLACE - B","DALLAS","TX",75230,32.894305333,-96.807090097,112,"10656 PARK VILLAGE PLACE - B, DALLAS, TX, 75230","Match","Exact","10656 PARK VILLAGE PL, DALLAS, TX, 75230",625296317,"R"
15113,"10656 SW 186 STREET","MIAMI","FL",33157,25.594149202,-80.364126379,113,"10656 SW 186 STREET, MIAMI, FL, 33157","Match","Non_Exact","10656 SW 186TH LN, MIAMI, FL, 33157",115994587,"L"
15114,"10656 WEST COOK ROAD","FORT WAYNE","IN",46818,41.147490243,-85.282386615,114,"10656 WEST COOK ROAD, FORT WAYNE, IN, 46818","Match","Exact","10656 W COOK RD, FORT WAYNE, IN, 46818",6370025,"L"
15115,"10656 WILSON AVE","GRANDVILLE","MI",49315,NA,NA,115,"10656 WILSON AVE, GRANDVILLE, MI, 49315","No_Match",NA,NA,NA,NA
15116,"10657 MARINE VIEW DR SW","SEATTLE","WA",98146,47.5077204620001,-122.387829451,116,"10657 MARINE VIEW DR SW, SEATTLE, WA, 98146","Match","Exact","10657 MARINE VIEW DR SW, SEATTLE, WA, 98146",239769239,"R"
15117,"10657 MAYFLOWER ROAD","BLUE MOUNDS","WI",53517,42.9511924980001,-89.80730132,117,"10657 MAYFLOWER ROAD, BLUE MOUNDS, WI, 53517","Match","Exact","10657 MAYFLOWER RD, BLUE MOUNDS, WI, 53517",49538780,"L"
15118,"10657 MELODY DR","NORTHGLENN","CO",80234,39.889706243,-104.993266817,118,"10657 MELODY DR, NORTHGLENN, CO, 80234","Match","Exact","10657 MELODY DR, NORTHGLENN, CO, 80234",177438689,"L"
15119,"10657 TATTERSALL DRIVE","MANASSAS","VA",20112,38.72592752,-77.4512707229999,119,"10657 TATTERSALL DRIVE, MANASSAS, VA, 20112","Match","Exact","10657 TATTERSALL DR, MANASSAS, VA, 20112",650782393,"R"
15120,"10659 BRIARLAKE WOODS DR","SAN DIEGO","CA",92130,32.9286938980001,-117.19446424,120,"10659 BRIARLAKE WOODS DR, SAN DIEGO, CA, 92130","Match","Exact","10659 BRIARLAKE WOODS DR, SAN DIEGO, CA, 92130",195724188,"R"
15121,"10659 WEST PICO BOULEVARD","LOS ANGELES","CA",90064,34.042494472,-118.423681436,121,"10659 WEST PICO BOULEVARD, LOS ANGELES, CA, 90064","Match","Exact","10659 W PICO BLVD, LOS ANGELES, CA, 90064",141573165,"R"
15122,"1066 4TH ST","NORTH CATASAUQUA","PA",18032,40.659396729,-75.476171929,122,"1066 4TH ST, NORTH CATASAUQUA, PA, 18032","Match","Non_Exact","1066 4TH ST, CATASAUQUA, PA, 18032",136874542,"L"
15123,"1066 BAINBRIDGE CIRCLE","CORONA","CA",92882,33.8409961720001,-117.585890871,123,"1066 BAINBRIDGE CIRCLE, CORONA, CA, 92882","Match","Exact","1066 BAINBRIDGE CIR, CORONA, CA, 92882",627186042,"R"
15124,"1066 BIG CREEK CIR","NAMPA","ID",83686,43.56223269,-116.593622238,124,"1066 BIG CREEK CIR, NAMPA, ID, 83686","Match","Exact","1066 BIG CREEK CIR, NAMPA, ID, 83686",122838800,"R"
15125,"1066 BOGUE ST ROOM A286","EAST LANSING","MI",48824,NA,NA,125,"1066 BOGUE ST ROOM A286, EAST LANSING, MI, 48824","No_Match",NA,NA,NA,NA
15126,"1066 BOWMANTOWN RD","ROXBORO","NC",27574,36.4928607030001,-78.9028014799999,126,"1066 BOWMANTOWN RD, ROXBORO, NC, 27574","Match","Exact","1066 BOWMANTOWN RD, ROXBORO, NC, 27574",77202700,"R"
15127,"1066 CHAPEL FORGE DRIVE","LANCASTER","PA",17601,40.0739203470001,-76.385370173,127,"1066 CHAPEL FORGE DRIVE, LANCASTER, PA, 17601","Match","Exact","1066 CHAPEL FORGE DR, LANCASTER, PA, 17601",179697207,"R"
15128,"1066 CHRISTMAS PLACE","GREENSBORO","NC",27410,36.1033679490001,-79.901631074,128,"1066 CHRISTMAS PLACE, GREENSBORO, NC, 27410","Match","Exact","1066 CHRISTMAS PL, GREENSBORO, NC, 27410",131129677,"L"
15129,"1066 DAHLIA CT","TRACY","CA",95304,37.7117997770001,-121.408694405,129,"1066 DAHLIA CT, TRACY, CA, 95304","Match","Exact","1066 DAHLIA CT, TRACY, CA, 95304",133920242,"L"
15130,"1066 E 130TH AVE NORTH","MULVANE","KS",67710,37.4501879580001,-97.300957593,130,"1066 E 130TH AVE NORTH, MULVANE, KS, 67710","Match","Non_Exact","1066 E 130TH AVE N, MULVANE, KS, 67110",115833326,"R"
15131,"1066 E 2100 S 11","SALT LAKE CITY","UT",84106,40.725249692,-111.860657019,131,"1066 E 2100 S 11, SALT LAKE CITY, UT, 84106","Match","Non_Exact","1066 2100 S FRONTAGE, SALT LAKE CITY, UT, 84106",176139401,"L"
15132,"1066 E WALNUT CREEK ROAD","COVINA","CA",91724,34.075756492,-117.868569883,132,"1066 E WALNUT CREEK ROAD, COVINA, CA, 91724","Match","Exact","1066 E WALNUT CREEK RD, COVINA, CA, 91724",141776569,"R"
15133,"1066 GARDENVIEW LOOP SUITE 303","WOODBRIDGE","VA",22191,NA,NA,133,"1066 GARDENVIEW LOOP SUITE 303, WOODBRIDGE, VA, 22191","No_Match",NA,NA,NA,NA
15134,"1066 GREEN ACRES LANE","NEENAH","WI",54956,44.1677875620001,-88.4927954079999,134,"1066 GREEN ACRES LANE, NEENAH, WI, 54956","Match","Exact","1066 GREEN ACRES LN, NEENAH, WI, 54956",74517370,"L"
15135,"1066 HANOVER STREET","MANCHESTER","NH",3104,42.987199521,-71.41913851,135,"1066 HANOVER STREET, MANCHESTER, NH, 3104","Match","Exact","1066 HANOVER ST, MANCHESTER, NH, 03104",113533969,"L"
15136,"1066 HAYES DRIVE","GRAY COURT","SC",29645,34.6012276320001,-82.162448206,136,"1066 HAYES DRIVE, GRAY COURT, SC, 29645","Match","Exact","1066 HAYES DR, GRAY COURT, SC, 29645",640167190,"R"
15137,"1066 HIGHWAY 162","BENTON","LA",71006,32.710199179,-93.6834129389999,137,"1066 HIGHWAY 162, BENTON, LA, 71006","Match","Exact","1066 HWY 162, BENTON, LA, 71006",108531905,"R"
15138,"1066 LCR 776","THORNTON","TX",76687,31.435818323,-96.541227077,138,"1066 LCR 776, THORNTON, TX, 76687","Match","Non_Exact","1066 CO RD 776, THORNTON, TX, 76687",25053226,"R"
15139,"1066 PENNSYLVANIA","ST. LOUIS","MO",63130,38.6671766320001,-90.315961102,139,"1066 PENNSYLVANIA, ST. LOUIS, MO, 63130","Match","Non_Exact","1066 PENNSYLVANIA AVE, SAINT LOUIS, MO, 63130",604466387,"R"
15140,"1066 PIKE AVENUE","ATTLEBORO","MA",2703,41.922280658,-71.239604447,140,"1066 PIKE AVENUE, ATTLEBORO, MA, 2703","Match","Exact","1066 PIKE AVE, ATTLEBORO, MA, 02703",46758719,"R"
15141,"1066 PROSPECT ST","SHREVEPORT","LA",71104,32.4878605320001,-93.751394383,141,"1066 PROSPECT ST, SHREVEPORT, LA, 71104","Match","Exact","1066 PROSPECT ST, SHREVEPORT, LA, 71104",57436681,"R"
15142,"1066 RIGBY STREET","NORFOLK","VA",23504,36.8647679520001,-76.2687433039999,142,"1066 RIGBY STREET, NORFOLK, VA, 23504","Match","Non_Exact","1066 RUGBY ST, NORFOLK, VA, 23504",122123760,"L"
15143,"1066 RIVER BEND DR","COOKEVILLE","TN",38506,36.093585321,-85.500802288,143,"1066 RIVER BEND DR, COOKEVILLE, TN, 38506","Match","Exact","1066 RIVER BEND DR, COOKEVILLE, TN, 38506",601420735,"R"
15144,"1066 SARATOGA AVENUE SUITE 100","SAN JOSE","CA",95129,37.3073287,-121.977844973,144,"1066 SARATOGA AVENUE SUITE 100, SAN JOSE, CA, 95129","Match","Exact","1066 SARATOGA AVE, SAN JOSE, CA, 95129",122900745,"L"
15145,"1066 STATE ROUTE 213","HIGH FALLS","NY",12440,41.826525357,-74.1226154999999,145,"1066 STATE ROUTE 213, HIGH FALLS, NY, 12440","Match","Exact","1066 STATE RTE 213, HIGH FALLS, NY, 12440",41920663,"L"
15146,"1066 UNION STREET","BROOKLYN","NY",11225,40.669464589,-73.956762345,146,"1066 UNION STREET, BROOKLYN, NY, 11225","Match","Exact","1066 UNION ST, BROOKLYN, NY, 11225",59078494,"R"
15147,"1066 VIKING DR","STONE MOUNTAIN","GA",30083,33.8096379200001,-84.221502946,147,"1066 VIKING DR, STONE MOUNTAIN, GA, 30083","Match","Exact","1066 VIKING DR, STONE MOUNTAIN, GA, 30083",23364101,"L"
15148,"1066 W GRAND RIVER AVE","HOWELL","MI",48843,42.6026903630001,-83.91742922,148,"1066 W GRAND RIVER AVE, HOWELL, MI, 48843","Match","Non_Exact","1066 E GRAND RIVER AVE, HOWELL, MI, 48843",23553745,"R"
15149,"1066 WEST KING ROAD","MALVERN","PA",19355,40.0276607270001,-75.55473833,149,"1066 WEST KING ROAD, MALVERN, PA, 19355","Match","Exact","1066 W KING RD, MALVERN, PA, 19355",179513057,"L"
15150,"1066 WOODCROFT CHASE NW","MARIETTA","GA",30064,33.9551293540001,-84.59038387,150,"1066 WOODCROFT CHASE NW, MARIETTA, GA, 30064","Match","Exact","1066 WOODCROFT CHASE NW, MARIETTA, GA, 30064",17217928,"L"
15151,"10660 ALISON WAY","INVER GROVE HEIGHTS","MN",55077,44.795175875,-93.1009857719999,151,"10660 ALISON WAY, INVER GROVE HEIGHTS, MN, 55077","Match","Exact","10660 ALISON WAY, INVER GROVE HEIGHTS, MN, 55077",37937207,"R"
15152,"10660 COUNTY RD  293","LAKEVIEW","OH",43331,40.5134664980001,-83.869070333,152,"10660 COUNTY RD  293, LAKEVIEW, OH, 43331","Match","Exact","10660 CO RD 293, LAKEVIEW, OH, 43331",52172652,"R"
15153,"10660 E CHANNELSIDE DR","TUCSON","AZ",85748,32.2248590790001,-110.764981964,153,"10660 E CHANNELSIDE DR, TUCSON, AZ, 85748","Match","Exact","10660 E CHANNELSIDE DR, TUCSON, AZ, 85748",121382600,"L"
15154,"10660 JACATREE COURT","LEHIGH ACRES","FL",33936,26.591757552,-81.6408919839999,154,"10660 JACATREE COURT, LEHIGH ACRES, FL, 33936","Match","Exact","10660 JACATREE CT, LEHIGH ACRES, FL, 33936",118053427,"L"
15155,"10660 NW 56TH CT","CORAL SPRINGS","FL",33076,26.300312139,-80.271354199,155,"10660 NW 56TH CT, CORAL SPRINGS, FL, 33076","Match","Exact","10660 NW 56TH CT, CORAL SPRINGS, FL, 33076",114792049,"R"
15156,"10660 PORTLAND AVE SW","BEACH CITY","OH",44608,40.661522904,-81.59933496,156,"10660 PORTLAND AVE SW, BEACH CITY, OH, 44608","Match","Exact","10660 PORTLAND AVE SW, BEACH CITY, OH, 44608",64719485,"L"
15157,"10660 S TRYON STREET SUITE 12","CHARLOTTE","NC",28273,35.1187380260001,-80.9548508089999,157,"10660 S TRYON STREET SUITE 12, CHARLOTTE, NC, 28273","Match","Non_Exact","10660 S TRYON ST, CHARLOTTE, NC, 28273",70539569,"R"
15158,"10660 SOUTH TRYON STREET","CHARLOTTE","NC",28273,35.1187471150001,-80.9548326029999,158,"10660 SOUTH TRYON STREET, CHARLOTTE, NC, 28273","Match","Exact","10660 S TRYON ST, CHARLOTTE, NC, 28273",70539569,"R"
15159,"10660 SW 44TH COURT","DAVIE","FL",33328,26.065949177,-80.2898440399999,159,"10660 SW 44TH COURT, DAVIE, FL, 33328","Match","Exact","10660 SW 44TH CT, DAVIE, FL, 33328",114777318,"L"
15160,"10660 WASHINGTON STREET","PEMBROKE PINES","FL",33025,26.00070844,-80.2879540119999,160,"10660 WASHINGTON STREET, PEMBROKE PINES, FL, 33025","Match","Exact","10660 WASHINGTON ST, PEMBROKE PINES, FL, 33025",646617821,"R"
15161,"10661 NE QUAYBRIDGE CT","MIAMI","FL",33138,25.874074869,-80.16753203,161,"10661 NE QUAYBRIDGE CT, MIAMI, FL, 33138","Match","Exact","10661 NE QUAYBRIDGE CT, MIAMI, FL, 33138",116043145,"L"
15162,"10661 SW 88 ST - SUITE 116","MIAMI","FL",33176,25.6870119480001,-80.365322205,162,"10661 SW 88 ST - SUITE 116, MIAMI, FL, 33176","Match","Non_Exact","10661 SW 88TH ST, MIAMI, FL, 33176",116281837,"R"
15163,"10661 UTRILLO LANE","NORTHGLENN","CO",80234,39.890044032,-105.009218085,163,"10661 UTRILLO LANE, NORTHGLENN, CO, 80234","Match","Exact","10661 UTRILLO LN, NORTHGLENN, CO, 80234",177295009,"L"
15164,"10663 HARVEST OAKS DR","COLLIERVILLE","TN",38017,35.0224771640001,-89.7074755199999,164,"10663 HARVEST OAKS DR, COLLIERVILLE, TN, 38017","Match","Exact","10663 HARVEST OAKS DR, COLLIERVILLE, TN, 38017",619922884,"L"
15165,"10663 LOVELAND-MADEIRA RD STE 107","LOVELAND","OH",45140,39.2541448060001,-84.29533804,165,"10663 LOVELAND-MADEIRA RD STE 107, LOVELAND, OH, 45140","Match","Non_Exact","10663 LOVELAND MADEIRA RD, LOVELAND, OH, 45140",103946203,"L"
15166,"10663 PORTER RD SE","AUMSVILLE","OR",97325,44.816575035,-122.84631047,166,"10663 PORTER RD SE, AUMSVILLE, OR, 97325","Match","Exact","10663 PORTER RD SE, AUMSVILLE, OR, 97325",156232112,"R"
15167,"10664 CEDARCREST CIRCLE","HIGHLANDS RANCH","CO",80130,39.5224635970001,-104.926829783,167,"10664 CEDARCREST CIRCLE, HIGHLANDS RANCH, CO, 80130","Match","Exact","10664 CEDARCREST CIR, HIGHLANDS RANCH, CO, 80130",130853141,"R"
15168,"10665 DURLAND AVENUE NE","SEATTLE","WA",98125,47.706557886,-122.27771891,168,"10665 DURLAND AVENUE NE, SEATTLE, WA, 98125","Match","Exact","10665 DURLAND AVE NE, SEATTLE, WA, 98125",186586103,"L"
15169,"10665 MYRTLE OAK COURT","BURKE","VA",22015,38.7973586620001,-77.313571225,169,"10665 MYRTLE OAK COURT, BURKE, VA, 22015","Match","Exact","10665 MYRTLE OAK CT, BURKE, VA, 22015",75967699,"L"
15170,"10665 STANHAVEN PLACE SUITE 300A","WHITEPLAINS","MD",20695,NA,NA,170,"10665 STANHAVEN PLACE SUITE 300A, WHITEPLAINS, MD, 20695","No_Match",NA,NA,NA,NA
15171,"10665 SW 190TH ST","MIAMI","FL",33157,25.5905579390001,-80.3641259239999,171,"10665 SW 190TH ST, MIAMI, FL, 33157","Match","Exact","10665 SW 190TH ST, MIAMI, FL, 33157",115994572,"R"
15172,"10665 SW 62 AVENUE","PINECREST","FL",33156,25.6720765520001,-80.29439611,172,"10665 SW 62 AVENUE, PINECREST, FL, 33156","Match","Exact","10665 SW 62ND AVE, PINECREST, FL, 33156",115985864,"L"
15173,"10667 EASTBORNE AVE","LOS ANGELES","CA",90024,34.0537558820001,-118.431453938,173,"10667 EASTBORNE AVE, LOS ANGELES, CA, 90024","Match","Exact","10667 EASTBORNE AVE, LOS ANGELES, CA, 90024",141567968,"R"
15174,"10667 EL SILBIDO AVENUE","FOUNTAIN VALLEY","CA",92708,33.71479192,-117.942644478,174,"10667 EL SILBIDO AVENUE, FOUNTAIN VALLEY, CA, 92708","Match","Exact","10667 EL SILBIDO AVE, FOUNTAIN VALLEY, CA, 92708",144038311,"L"
15175,"10667 W JETER RD","FAYETTEVILLE","AR",72701,35.9943975250001,-94.2282737039999,175,"10667 W JETER RD, FAYETTEVILLE, AR, 72701","Match","Exact","10667 W JETER RD, FAYETTEVILLE, AR, 72701",49078273,"L"
15176,"10668 62ND AVENUE SOUTH","SEATTLE","WA",98718,47.504602349,-122.255954406,176,"10668 62ND AVENUE SOUTH, SEATTLE, WA, 98718","Match","Non_Exact","10668 62ND AVE S, SEATTLE, WA, 98178",648566592,"L"
15177,"10668 GARDENA COURT","CUPERTINO","CA",95014,37.3328480000001,-122.044201752,177,"10668 GARDENA COURT, CUPERTINO, CA, 95014","Match","Exact","10668 GARDENA CT, CUPERTINO, CA, 95014",122938053,"R"
15178,"10668 PINHOLSTER ROAD","JACKSONVILLE","FL",32218,30.429004316,-81.702180851,178,"10668 PINHOLSTER ROAD, JACKSONVILLE, FL, 32218","Match","Exact","10668 PINHOLSTER RD, JACKSONVILLE, FL, 32218",83938173,"L"
15179,"106685 S 3500 RD","PRAGUE","OK",74864,NA,NA,179,"106685 S 3500 RD, PRAGUE, OK, 74864","No_Match",NA,NA,NA,NA
15180,"10669 CANTERBERRY ROAD","FAIRFAX STATION","VA",22039,38.756740054,-77.321266352,180,"10669 CANTERBERRY ROAD, FAIRFAX STATION, VA, 22039","Match","Exact","10669 CANTERBERRY RD, FAIRFAX STATION, VA, 22039",76054640,"L"
15181,"1067 ALAKEA ST - 4TH FLOOR","HONOLULU","HI",96813,21.308411726,-157.860034309,181,"1067 ALAKEA ST - 4TH FLOOR, HONOLULU, HI, 96813","Match","Exact","1067 ALAKEA ST, HONOLULU, HI, 96813",203236381,"R"
15182,"1067 AVONDALE ST","SAN JOSE","CA",95129,37.3075056110001,-122.028600993,182,"1067 AVONDALE ST, SAN JOSE, CA, 95129","Match","Exact","1067 AVONDALE ST, SAN JOSE, CA, 95129",122940465,"R"
15183,"1067 COUNTY ROAD 407","STEPHENVILLE","TX",76401,32.275434838,-98.3738145629999,183,"1067 COUNTY ROAD 407, STEPHENVILLE, TX, 76401","Match","Exact","1067 CO RD 407, STEPHENVILLE, TX, 76401",158538478,"L"
15184,"1067 CROMWELL LN","BELLEVILLE","IL",62221,38.5697501600001,-89.941181312,184,"1067 CROMWELL LN, BELLEVILLE, IL, 62221","Match","Exact","1067 CROMWELL LN, BELLEVILLE, IL, 62221",627545052,"R"
15185,"1067 E HWY 23 STE 96","WOODLAND PARK","CO",80863,NA,NA,185,"1067 E HWY 23 STE 96, WOODLAND PARK, CO, 80863","No_Match",NA,NA,NA,NA
15186,"1067 E SECRETARIAT","DANVILLE","KY",40422,NA,NA,186,"1067 E SECRETARIAT, DANVILLE, KY, 40422","No_Match",NA,NA,NA,NA
15187,"1067 E US HIGHWAY 24 SUITE182","WOODLAND PARK","CO",80863,38.9845755380001,-105.045636115,187,"1067 E US HIGHWAY 24 SUITE182, WOODLAND PARK, CO, 80863","Match","Exact","1067 US HWY 24, WOODLAND PARK, CO, 80863",617292511,"L"
15188,"1067 EMIGRANT CREEK ROAD","ASHLAND","OR",97520,42.1839647840001,-122.637401652,188,"1067 EMIGRANT CREEK ROAD, ASHLAND, OR, 97520","Match","Exact","1067 EMIGRANT CREEK RD, ASHLAND, OR, 97520",636600508,"R"
15189,"1067 FRANKLIN AVE","COLUMBUS","OH",43205,39.9618061740001,-82.9714948609999,189,"1067 FRANKLIN AVE, COLUMBUS, OH, 43205","Match","Exact","1067 FRANKLIN AVE, COLUMBUS, OH, 43205",135579703,"R"
15190,"1067 GOLD HILL DRIVE","SHOW LOW","AZ",85901,NA,NA,190,"1067 GOLD HILL DRIVE, SHOW LOW, AZ, 85901","No_Match",NA,NA,NA,NA
15191,"1067 HEATH AVE NW","PALM BAY","FL",32907,28.0251274720001,-80.7093720409999,191,"1067 HEATH AVE NW, PALM BAY, FL, 32907","Match","Exact","1067 HEATH AVE NW, PALM BAY, FL, 32907",93896553,"R"
15192,"1067 HICKERNELL RD","ELLWOOD CITY","PA",16117,40.8580245960001,-80.2438133909999,192,"1067 HICKERNELL RD, ELLWOOD CITY, PA, 16117","Match","Exact","1067 HICKERNELL RD, ELLWOOD CITY, PA, 16117",65185045,"R"
15193,"1067 HOSBROOK ST","INDIANAPOLIS","IN",46203,39.7544455770001,-86.140541285,193,"1067 HOSBROOK ST, INDIANAPOLIS, IN, 46203","Match","Exact","1067 HOSBROOK ST, INDIANAPOLIS, IN, 46203",107993759,"R"
15194,"1067 LEXINGTON DRIVE","MOODY","AL",35004,33.5769532420001,-86.504404041,194,"1067 LEXINGTON DRIVE, MOODY, AL, 35004","Match","Exact","1067 LEXINGTON DR, MOODY, AL, 35004",635367427,"R"
15195,"1067 MARKET STREET STE 1036","SAN FRANCISCO","CA",94103,37.7810206720001,-122.411625978,195,"1067 MARKET STREET STE 1036, SAN FRANCISCO, CA, 94103","Match","Exact","1067 MARKET ST, SAN FRANCISCO, CA, 94103",192301641,"L"
15196,"1067 N LINCOLN ST","ORANGE","CA",92867,33.80551898,-117.838019154,196,"1067 N LINCOLN ST, ORANGE, CA, 92867","Match","Exact","1067 N LINCOLN ST, ORANGE, CA, 92867",144030987,"R"
15197,"1067 OAK WOOD DR","CAROL STREAM","IL",60188,41.931377625,-88.1558521269999,197,"1067 OAK WOOD DR, CAROL STREAM, IL, 60188","Match","Exact","1067 OAK WOOD DR, CAROL STREAM, IL, 60188",112569144,"L"
15198,"1067 OLD YORK RD","RINGOES","NJ",8551,40.4318841520001,-74.8665606449999,198,"1067 OLD YORK RD, RINGOES, NJ, 8551","Match","Exact","1067 OLD YORK RD, RINGOES, NJ, 08551",60013563,"R"
15199,"1067 PARK AVENUE","BRIDGEPORT","CT",6604,41.1753696160001,-73.198949184,199,"1067 PARK AVENUE, BRIDGEPORT, CT, 6604","Match","Exact","1067 PARK AVE, BRIDGEPORT, CT, 06604",3224235,"L"
15200,"1067 RISING STAR DRIVE","BEDFORD","VA",24523,37.23793805,-79.4183597529999,200,"1067 RISING STAR DRIVE, BEDFORD, VA, 24523","Match","Exact","1067 RISING STAR DR, BEDFORD, VA, 24523",62677965,"R"
15201,"1067 RUDYARD DRIVE","PERTH AMBOY","NJ",8861,40.537912804,-74.2802822749999,201,"1067 RUDYARD DRIVE, PERTH AMBOY, NJ, 8861","Match","Exact","1067 RUDYARD DR, PERTH AMBOY, NJ, 08861",60280153,"L"
15202,"1067 S 1400 W","SALT LAKE CITY","UT",84104,40.7471413860001,-111.931161456,202,"1067 S 1400 W, SALT LAKE CITY, UT, 84104","Match","Exact","1067 S 1400 W, SALT LAKE CITY, UT, 84104",176149910,"L"
15203,"1067 SCOTT RD","KENLY","NC",27542,35.591046267,-78.0960520899999,203,"1067 SCOTT RD, KENLY, NC, 27542","Match","Exact","1067 SCOTT RD, KENLY, NC, 27542",26556635,"L"
15204,"1067 SHENANDOAH DRIVE SE","SALEM","OR",97301,44.91727059,-122.965830304,204,"1067 SHENANDOAH DRIVE SE, SALEM, OR, 97301","Match","Non_Exact","1067 SHENANDOAH DR SE, SALEM, OR, 97317",156253608,"R"
15205,"1067 SOUTH 1400 WEST","SALT LAKE CITY","UT",84104,40.7471507920001,-111.931161473,205,"1067 SOUTH 1400 WEST, SALT LAKE CITY, UT, 84104","Match","Exact","1067 S 1400 W, SALT LAKE CITY, UT, 84104",176149910,"L"
15206,"1067 US HIGHWAY 1","COLUMBIA FALLS","ME",4623,44.649709509,-67.709666678,206,"1067 US HIGHWAY 1, COLUMBIA FALLS, ME, 4623","Match","Exact","1067 US HWY 1, COLUMBIA FALLS, ME, 04623",625265216,"L"
15207,"1067 W MAIN STREET","CENTRAL","SC",29630,34.7163848120001,-82.788153165,207,"1067 W MAIN STREET, CENTRAL, SC, 29630","Match","Exact","1067 W MAIN ST, CENTRAL, SC, 29630",26176514,"R"
15208,"1067 WEST SEAGATE DRIVE","DELTONA","FL",32725,28.9407289820001,-81.2426619779999,208,"1067 WEST SEAGATE DRIVE, DELTONA, FL, 32725","Match","Exact","1067 W SEAGATE DR, DELTONA, FL, 32725",94560399,"R"
15209,"10670 114TH ST N","STILLWATER","MN",55082,45.1142086180001,-92.891330065,209,"10670 114TH ST N, STILLWATER, MN, 55082","Match","Exact","10670 114TH ST N, STILLWATER, MN, 55082",97831931,"R"
15210,"10670 ABRAMS DRIVE","COLORADO SPRINGS","CO",80925,38.7371158730001,-104.63230426,210,"10670 ABRAMS DRIVE, COLORADO SPRINGS, CO, 80925","Match","Exact","10670 ABRAMS DR, COLORADO SPRINGS, CO, 80925",646016608,"R"
15211,"10670 ATRIUM DR","SAN DIEGO","CA",92131,32.9024340170001,-117.103384885,211,"10670 ATRIUM DR, SAN DIEGO, CA, 92131","Match","Exact","10670 ATRIUM DR, SAN DIEGO, CA, 92131",195319430,"L"
15212,"10670 COY STREET","ALDEN","MI",49612,44.8792386270001,-85.276587938,212,"10670 COY STREET, ALDEN, MI, 49612","Match","Exact","10670 COY ST, ALDEN, MI, 49612",145804188,"L"
15213,"10670 LINTON ROAD","SANDERSVILLE","GA",31082,NA,NA,213,"10670 LINTON ROAD, SANDERSVILLE, GA, 31082","No_Match",NA,NA,NA,NA
15214,"10670 LINTON ROAD","WARTHEN","GA",31094,33.0954674000001,-82.913470353,214,"10670 LINTON ROAD, WARTHEN, GA, 31094","Match","Non_Exact","10670 LINTON RD S, WARTHEN, GA, 31094",651233361,"R"
15215,"10670 TUTTLEHILL RD","MILAN","MI",48160,42.029205072,-83.5979200359999,215,"10670 TUTTLEHILL RD, MILAN, MI, 48160","Match","Exact","10670 TUTTLEHILL RD, MILAN, MI, 48160",40490030,"R"
15216,"10670 WEYMOUTH STREET 2","BETHESDA","MD",20814,39.029335814,-77.091232595,216,"10670 WEYMOUTH STREET 2, BETHESDA, MD, 20814","Match","Exact","10670 WEYMOUTH ST, BETHESDA, MD, 20814",62061277,"L"
15217,"10671 ERIE DRIVE","CROWN POINT","IN",46307,41.4254504720001,-87.232321714,217,"10671 ERIE DRIVE, CROWN POINT, IN, 46307","Match","Exact","10671 ERIE DR, CROWN POINT, IN, 46307",98458892,"L"
15218,"10671 GEIST RIDGE COURT","FISHERS","IN",46040,39.9429697300001,-85.8986321789999,218,"10671 GEIST RIDGE COURT, FISHERS, IN, 46040","Match","Exact","10671 GEIST RIDGE CT, FISHERS, IN, 46040",29336925,"L"
15219,"10672 S CRESCENT BEND DR","SANDY","UT",84070,40.5570871250001,-111.884005478,219,"10672 S CRESCENT BEND DR, SANDY, UT, 84070","Match","Exact","10672 CRESCENT BEND DR, SANDY, UT, 84070",638533459,"L"
15220,"10673 LONG LEAF LANE","WALDORF","MD",20603,38.633731475,-76.9414186069999,220,"10673 LONG LEAF LANE, WALDORF, MD, 20603","Match","Exact","10673 LONG LEAF LN, WALDORF, MD, 20603",642678452,"R"
15221,"10673 W LAKE HAZEL RD 1023","BOISE","ID",83709,43.5465105810001,-116.315066868,221,"10673 W LAKE HAZEL RD 1023, BOISE, ID, 83709","Match","Exact","10673 LAKE HAZEL RD, BOISE, ID, 83709",117861516,"L"
15222,"10673 W LAKE HAZEN SUITE 7","BOISE","ID",83709,NA,NA,222,"10673 W LAKE HAZEN SUITE 7, BOISE, ID, 83709","No_Match",NA,NA,NA,NA
15223,"10674 SELLERS CIR","STOCKTON","CA",95209,38.053454667,-121.352020941,223,"10674 SELLERS CIR, STOCKTON, CA, 95209","Match","Exact","10674 SELLERS CIR, STOCKTON, CA, 95209",133932100,"R"
15224,"10675 8TH AVE","HESPERIA","CA",92345,34.44482486,-117.314356947,224,"10675 8TH AVE, HESPERIA, CA, 92345","Match","Exact","10675 8TH AVE, HESPERIA, CA, 92345",144588988,"R"
15225,"10675 CALLE MAR DE MARIPOSA 1109","SAN DIEGO","CA",92130,32.9133780700001,-117.223366935,225,"10675 CALLE MAR DE MARIPOSA 1109, SAN DIEGO, CA, 92130","Match","Non_Exact","10675 CLL MAR DE MARIPOSA, SAN DIEGO, CA, 92130",612896022,"L"
15226,"10675 NW 45TH ST","CORAL SPRINGS","FL",33065,26.285846712,-80.2686146889999,226,"10675 NW 45TH ST, CORAL SPRINGS, FL, 33065","Match","Exact","10675 NW 45TH ST, CORAL SPRINGS, FL, 33065",114689766,"R"
15227,"10676 26TH AVE NW","ANTLER","ND",58711,48.9655974950001,-101.278149647,227,"10676 26TH AVE NW, ANTLER, ND, 58711","Match","Exact","10676 26TH AVE NW, ANTLER, ND, 58711",199407865,"R"
15228,"10676 MISTY MEADOWS DRIVE","HAMPTON","GA",30228,33.4634294960001,-84.3565535879999,228,"10676 MISTY MEADOWS DRIVE, HAMPTON, GA, 30228","Match","Exact","10676 MISTY MEADOWS DR, HAMPTON, GA, 30228",646629003,"L"
15229,"10677 ESSEX SQUARE BLVD","FORT MYESR","FL",33913,26.594934197,-81.742533158,229,"10677 ESSEX SQUARE BLVD, FORT MYESR, FL, 33913","Match","Non_Exact","10677 ESSEX SQUARE BLVD, FORT MYERS, FL, 33913",646585651,"L"
15230,"10678 PALM SPRING DRIVE","BOCA RATON","FL",33428,26.3395948780001,-80.214307478,230,"10678 PALM SPRING DRIVE, BOCA RATON, FL, 33428","Match","Exact","10678 PALM SPRING DR, BOCA RATON, FL, 33428",115483753,"L"
15231,"10679 LAKE IAMONIA DRIVE","TALLAHASSEE","FL",32312,30.621954633,-84.233973686,231,"10679 LAKE IAMONIA DRIVE, TALLAHASSEE, FL, 32312","Match","Exact","10679 LAKE IAMONIA DR, TALLAHASSEE, FL, 32312",82867562,"R"
15232,"10679 MELODY PLACE","ADELANTO","CA",92301,34.5268020080001,-117.431121721,232,"10679 MELODY PLACE, ADELANTO, CA, 92301","Match","Exact","10679 MELODY PL, ADELANTO, CA, 92301",144738494,"L"
15233,"1067B STEVENSON STREET","COLTON","CA",92324,34.079668768,-117.340075834,233,"1067B STEVENSON STREET, COLTON, CA, 92324","Match","Exact","1067 STEVENSON ST, COLTON, CA, 92324",647988146,"R"
15234,"1068 12TH STREET","SYRACUSE","NE",68446,40.6640302340001,-96.1767510449999,234,"1068 12TH STREET, SYRACUSE, NE, 68446","Match","Exact","1068 12TH ST, SYRACUSE, NE, 68446",639188733,"L"
15235,"1068 AL ROBERTS RD","SENOIA","GA",30276,33.2220352950001,-84.610445451,235,"1068 AL ROBERTS RD, SENOIA, GA, 30276","Match","Exact","1068 AL ROBERTS RD, SENOIA, GA, 30276",9351764,"L"
15236,"1068 BARONA ROAD","LAKESIDE","CA",92040,32.9452858610001,-116.847275362,236,"1068 BARONA ROAD, LAKESIDE, CA, 92040","Match","Exact","1068 BARONA RD, LAKESIDE, CA, 92040",195332255,"R"
15237,"1068 BECKLEY DR","WILLIAMSTOWN","NJ",8094,39.6711243240001,-75.0334980869999,237,"1068 BECKLEY DR, WILLIAMSTOWN, NJ, 8094","Match","Exact","1068 BECKLEY DR, WILLIAMSTOWN, NJ, 08094",614108094,"L"
15238,"1068 BRIAR CREST DR","NEW ULM","TX",78950,29.8178641120001,-96.490301928,238,"1068 BRIAR CREST DR, NEW ULM, TX, 78950","Match","Exact","1068 BRIAR CREST DR, NEW ULM, TX, 78950",41204342,"R"
15239,"1068 CALLE GONZALEZ 102","SAN JUAN","PR",925,18.3993880420001,-66.0529917709999,239,"1068 CALLE GONZALEZ 102, SAN JUAN, PR, 925","Match","Non_Exact","1068 CLL GONZALEZ, SAN JUAN, PR, 00925",206626488,"L"
15240,"1068 CARLISLE HIGHWAY","CHARLOTTE","MI",48813,42.553468008,-84.8569721009999,240,"1068 CARLISLE HIGHWAY, CHARLOTTE, MI, 48813","Match","Exact","1068 CARLISLE HWY, CHARLOTTE, MI, 48813",639646642,"R"
15241,"1068 CRAWFORD STREET","ARCADIA","LA",71001,32.5607953950001,-92.935246342,241,"1068 CRAWFORD STREET, ARCADIA, LA, 71001","Match","Exact","1068 CRAWFORD ST, ARCADIA, LA, 71001",114398559,"L"
15242,"1068 DARREN CIR E","CORDOVA","TN",38018,35.155043472,-89.749191388,242,"1068 DARREN CIR E, CORDOVA, TN, 38018","Match","Non_Exact","1068 DARREN CIR W, CORDOVA, TN, 38018",611499218,"L"
15243,"1068 EAST CROOKED CREEK DRIVE","WASHINGTON","UT",84780,NA,NA,243,"1068 EAST CROOKED CREEK DRIVE, WASHINGTON, UT, 84780","No_Match",NA,NA,NA,NA
15244,"1068 FASSLER AVENUE","PACIFICA","CA",94044,37.5989766390001,-122.482160312,244,"1068 FASSLER AVENUE, PACIFICA, CA, 94044","Match","Exact","1068 FASSLER AVE, PACIFICA, CA, 94044",192410821,"R"
15245,"1068 HAZEL DR","LAWRENCEBURG","KY",40342,38.01453056,-84.93426927,245,"1068 HAZEL DR, LAWRENCEBURG, KY, 40342","Match","Exact","1068 HAZEL DR, LAWRENCEBURG, KY, 40342",43453332,"R"
15246,"1068 HICKORY GLEN RD","WINSTON SALEM","NC",27106,36.1494187750001,-80.2895327479999,246,"1068 HICKORY GLEN RD, WINSTON SALEM, NC, 27106","Match","Exact","1068 HICKORY GLEN RD, WINSTON SALEM, NC, 27106",84626487,"R"
15247,"1068 IVORYHILL DRIVE","INDEPENDENCE","KY",41051,38.9465501980001,-84.5795355669999,247,"1068 IVORYHILL DRIVE, INDEPENDENCE, KY, 41051","Match","Exact","1068 IVORYHILL DR, INDEPENDENCE, KY, 41051",103886867,"L"
15248,"1068 LAKESIDE DRIVE","FORT TOWSON","OK",74735,34.0015966610001,-95.262993987,248,"1068 LAKESIDE DRIVE, FORT TOWSON, OK, 74735","Match","Exact","1068 LAKESIDE DR, FORT TOWSON, OK, 74735",63161037,"L"
15249,"1068 NORTH 100 EAST","CHESTERTON","IN",46304,41.5881461980001,-87.047546745,249,"1068 NORTH 100 EAST, CHESTERTON, IN, 46304","Match","Exact","1068 N 100 E, CHESTERTON, IN, 46304",640210430,"R"
15250,"1068 NORTH DAVIS AVE","WEED","CA",96094,41.43115261,-122.379654435,250,"1068 NORTH DAVIS AVE, WEED, CA, 96094","Match","Exact","1068 N DAVIS AVE, WEED, CA, 96094",113252952,"R"
15251,"1068 NORTH VINE STREET","HAZLE TWP","PA",18202,40.974453973,-75.9801627149999,251,"1068 NORTH VINE STREET, HAZLE TWP, PA, 18202","Match","Exact","1068 N VINE ST, HAZLE TOWNSHIP, PA, 18202",80922240,"L"
15252,"1068 OAKLAWN DRIVE","CULPEPER","VA",22701,38.466725508,-78.005055001,252,"1068 OAKLAWN DRIVE, CULPEPER, VA, 22701","Match","Exact","1068 OAKLAWN DR, CULPEPER, VA, 22701",29834587,"R"
15253,"1068 OLD CREEK CT","ELGIN","IL",60120,42.061983674,-88.250238001,253,"1068 OLD CREEK CT, ELGIN, IL, 60120","Match","Exact","1068 OLD CREEK CT, ELGIN, IL, 60120",111887608,"L"
15254,"1068 RUSHLEIGH RD","CLEVELAND HEIGHTS","OH",44121,41.5311860900001,-81.550989374,254,"1068 RUSHLEIGH RD, CLEVELAND HEIGHTS, OH, 44121","Match","Exact","1068 RUSHLEIGH RD, CLEVELAND HEIGHTS, OH, 44121",61124159,"R"
15255,"1068 SEVEN HILLS CURV","MOBILE","AL",36695,30.6674613260001,-88.261531949,255,"1068 SEVEN HILLS CURV, MOBILE, AL, 36695","Match","Exact","1068 SEVEN HILLS CURV, MOBILE, AL, 36695",61835705,"L"
15256,"1068 TOM LEDBETTER RD","WACO","TX",76712,31.5312985750001,-97.271343998,256,"1068 TOM LEDBETTER RD, WACO, TX, 76712","Match","Exact","1068 TOM LEDBETTER RD, WACO, TX, 76712",635380964,"L"
15257,"1068 W 560 N","ST GEORGE","UT",84770,37.1180094870001,-113.606714493,257,"1068 W 560 N, ST GEORGE, UT, 84770","Match","Exact","1068 W 560 N, SAINT GEORGE, UT, 84770",166166756,"L"
15258,"1068 WEST ONONDAGA STREET","SYRACUSE","NY",13204,43.034154626,-76.16896975,258,"1068 WEST ONONDAGA STREET, SYRACUSE, NY, 13204","Match","Exact","1068 W ONONDAGA ST, SYRACUSE, NY, 13204",46570170,"R"
15259,"1068 WINDING DOWN WAY","GRAYSON","GA",30017,33.8654016020001,-83.965771914,259,"1068 WINDING DOWN WAY, GRAYSON, GA, 30017","Match","Exact","1068 WINDING DOWN WAY, GRAYSON, GA, 30017",637928021,"L"
15260,"1068 WINDSOR RD","TERRE HAUTE","IN",47802,39.4116900010001,-87.400859338,260,"1068 WINDSOR RD, TERRE HAUTE, IN, 47802","Match","Exact","1068 WINDSOR RD, TERRE HAUTE, IN, 47802",636459992,"R"
15261,"10680 WASHINGTON STREET APT 108","PEMBROKE PINES","FL",33025,26.000612833,-80.291336863,261,"10680 WASHINGTON STREET APT 108, PEMBROKE PINES, FL, 33025","Match","Exact","10680 WASHINGTON ST, PEMBROKE PINES, FL, 33025",646617805,"R"
15262,"10681 HUNTERS RIDGE TRAIL SW","NISSWA","MN",56468,46.4171752120001,-94.3959580109999,262,"10681 HUNTERS RIDGE TRAIL SW, NISSWA, MN, 56468","Match","Exact","10681 HUNTERS RIDGE TRL SW, NISSWA, MN, 56468",612348884,"R"
15263,"10682 HEATHER RIDGE DRIVE","SAN DIEGO","CA",92130,32.927833595,-117.205302586,263,"10682 HEATHER RIDGE DRIVE, SAN DIEGO, CA, 92130","Match","Exact","10682 HEATHER RIDGE DR, SAN DIEGO, CA, 92130",612861554,"L"
15264,"10682 TWO NOTCH RD APT 6204","ELGIN","SC",29045,34.131880349,-80.845629026,264,"10682 TWO NOTCH RD APT 6204, ELGIN, SC, 29045","Match","Exact","10682 TWO NOTCH RD, ELGIN, SC, 29045",651604489,"R"
15265,"10684 BARBERRY DRIVE","HAMPTON","GA",30228,33.466832772,-84.3485405059999,265,"10684 BARBERRY DRIVE, HAMPTON, GA, 30228","Match","Exact","10684 BARBERRY DR, HAMPTON, GA, 30228",23328125,"L"
15266,"10684-A CRESTWOOD DR","MANASSAS","VA",20109,38.7789846740001,-77.513604933,266,"10684-A CRESTWOOD DR, MANASSAS, VA, 20109","Match","Exact","10684 CRESTWOOD DR, MANASSAS, VA, 20109",207146978,"R"
15267,"10685-B HAZELHURST DRIVE STE 22364","HOUSTON","TX",77043,29.79707648,-95.561159796,267,"10685-B HAZELHURST DRIVE STE 22364, HOUSTON, TX, 77043","Match","Exact","10685 HAZELHURST DR, HOUSTON, TX, 77043",96635270,"L"
15268,"10688 GREEN MOUNTAIN CIRCLE","COLUMBIA","MD",21044,39.223515869,-76.872584848,268,"10688 GREEN MOUNTAIN CIRCLE, COLUMBIA, MD, 21044","Match","Exact","10688 GREEN MOUNTAIN CIR, COLUMBIA, MD, 21044",636218673,"R"
15269,"10689 HIGH BEAM CT","COLUMBIA","MD",21044,39.208699816,-76.880233737,269,"10689 HIGH BEAM CT, COLUMBIA, MD, 21044","Match","Exact","10689 HIGH BEAM CT, COLUMBIA, MD, 21044",158939548,"L"
15270,"10689 HIGHLAND DR","INDIANAPOLIS","IN",46280,39.943866735,-86.1336971169999,270,"10689 HIGHLAND DR, INDIANAPOLIS, IN, 46280","Match","Exact","10689 HIGHLAND DR, INDIANAPOLIS, IN, 46280",29294866,"R"
15271,"10689 NORTH KENDALL DRIVE SUITE 307","MIAMI","FL",33176,NA,NA,271,"10689 NORTH KENDALL DRIVE SUITE 307, MIAMI, FL, 33176","No_Match",NA,NA,NA,NA
15272,"10689 WAKEMAN COURT","MANASSAS","VA",20110,38.7346251710001,-77.519147577,272,"10689 WAKEMAN COURT, MANASSAS, VA, 20110","Match","Non_Exact","10689 WAKEMEN CT, MANASSAS, VA, 20110",76534427,"L"
15273,"1069 ADAMS STREET SE","OLYMPIA","WA",98501,47.03874656,-122.897057408,273,"1069 ADAMS STREET SE, OLYMPIA, WA, 98501","Match","Exact","1069 ADAMS ST SE, OLYMPIA, WA, 98501",180944363,"R"
15274,"1069 AMHERST BLVD","LONDON","OH",43140,39.9060617700001,-83.4338435559999,274,"1069 AMHERST BLVD, LONDON, OH, 43140","Match","Exact","1069 AMHERST BLVD, LONDON, OH, 43140",135268227,"L"
15275,"1069 BUCKINGHAM AVENUE","LINCOLN PARK","MI",48146,42.235617157,-83.1780798899999,275,"1069 BUCKINGHAM AVENUE, LINCOLN PARK, MI, 48146","Match","Exact","1069 BUCKINGHAM AVE, LINCOLN PARK, MI, 48146",95702285,"L"
15276,"1069 BUCKINGHAM","LINCOLN PARK","MI",48146,42.235617157,-83.1780798899999,276,"1069 BUCKINGHAM, LINCOLN PARK, MI, 48146","Match","Non_Exact","1069 BUCKINGHAM AVE, LINCOLN PARK, MI, 48146",95702285,"L"
15277,"1069 CALICO AVE","BILLINGS","MT",59105,45.8193856080001,-108.514052485,277,"1069 CALICO AVE, BILLINGS, MT, 59105","Match","Exact","1069 CALICO AVE, BILLINGS, MT, 59105",181483551,"R"
15278,"1069 E 90TH AVE NORTH","BELLE PLAINE","KS",67013,37.392293942,-97.301945172,278,"1069 E 90TH AVE NORTH, BELLE PLAINE, KS, 67013","Match","Exact","1069 E 90TH AVE N, BELLE PLAINE, KS, 67013",115833465,"L"
15279,"1069 E 95TH STREET","BROOKLYN","NY",11355,40.644308966,-73.904262998,279,"1069 E 95TH STREET, BROOKLYN, NY, 11355","Match","Non_Exact","1069 E 95TH ST, BROOKLYN, NY, 11236",59101761,"L"
15280,"1069 EAGLE BLVD","HASLET","TX",76052,NA,NA,280,"1069 EAGLE BLVD, HASLET, TX, 76052","No_Match",NA,NA,NA,NA
15281,"1069 ELNO AVE","KENT","OH",44240,41.1456430760001,-81.382608193,281,"1069 ELNO AVE, KENT, OH, 44240","Match","Exact","1069 ELNO AVE, KENT, OH, 44240",137515537,"R"
15282,"1069 FAXON","MEMPHIS","TN",38107,NA,NA,282,"1069 FAXON, MEMPHIS, TN, 38107","No_Match",NA,NA,NA,NA
15283,"1069 GOLDEN GATE AVE  APT F","SAN FRANCISCO","CA",94115,37.7800551940001,-122.428059289,283,"1069 GOLDEN GATE AVE  APT F, SAN FRANCISCO, CA, 94115","Match","Exact","1069 GOLDEN GATE AVE, SAN FRANCISCO, CA, 94115",192283712,"L"
15284,"1069 HILLSBORO MILE UNIT 502","HILLSBORO BEACH","FL",33062,26.2821749930001,-80.07977039,284,"1069 HILLSBORO MILE UNIT 502, HILLSBORO BEACH, FL, 33062","Match","Exact","1069 HILLSBORO MILE, HILLSBORO BCH, FL, 33062",650082035,"R"
15285,"1069 LAKEFIELD WALK","MARIETTA","GA",30064,33.930220573,-84.6300279549999,285,"1069 LAKEFIELD WALK, MARIETTA, GA, 30064","Match","Exact","1069 LAKEFIELD WALK, MARIETTA, GA, 30064",614174438,"R"
15286,"1069 MAIN STREET","SEBASTIAN","FL",32958,NA,NA,286,"1069 MAIN STREET, SEBASTIAN, FL, 32958","No_Match",NA,NA,NA,NA
15287,"1069 MARTIN LUTHER KING JR DRIVE NW","ATLANTA","GA",30314,33.7547559270001,-84.422796222,287,"1069 MARTIN LUTHER KING JR DRIVE NW, ATLANTA, GA, 30314","Match","Non_Exact","1069 MARTIN LUTHER KING JR DR SW, ATLANTA, GA, 30314",17342402,"R"
15288,"1069 MOUNTAIN RD","STOWE","VT",5672,44.4739976020001,-72.6991387859999,288,"1069 MOUNTAIN RD, STOWE, VT, 5672","Match","Exact","1069 MOUNTAIN RD, STOWE, VT, 05672",136629749,"L"
15289,"1069 N 900 E","GREENTOWN","IN",46936,40.494566132,-85.957055001,289,"1069 N 900 E, GREENTOWN, IN, 46936","Match","Exact","1069 N 900 E, GREENTOWN, IN, 46936",27283505,"L"
15290,"1069 NORTH 38TH STREET","BATON ROUGE","LA",70802,30.45771899,-91.151998452,290,"1069 NORTH 38TH STREET, BATON ROUGE, LA, 70802","Match","Exact","1069 N 38TH ST, BATON ROUGE, LA, 70802",92183874,"L"
15291,"1069 NORTH D STREET","SAN BERNARDINO","CA",92410,34.118954628,-117.291929426,291,"1069 NORTH D STREET, SAN BERNARDINO, CA, 92410","Match","Exact","1069 N D ST, SAN BERNARDINO, CA, 92410",144655309,"R"
15292,"1069 SEABOARD AVENUE APT 20","ATLANTA","GA",30307,33.757471035,-84.35204413,292,"1069 SEABOARD AVENUE APT 20, ATLANTA, GA, 30307","Match","Non_Exact","1069 SEABOARD AVE NE, ATLANTA, GA, 30307",17408279,"R"
15293,"1069 SHERREN ST WEST","ST","MN",55113,45.008916658,-93.1450983779999,293,"1069 SHERREN ST WEST, ST, MN, 55113","Match","Non_Exact","1069 SHERREN ST W, SAINT PAUL, MN, 55113",97640733,"R"
15294,"1069 W ARGYLE STREET","CHICAGO","IL",60640,41.9732736,-87.65729792,294,"1069 W ARGYLE STREET, CHICAGO, IL, 60640","Match","Exact","1069 W ARGYLE ST, CHICAGO, IL, 60640",605155525,"L"
15295,"1069 W BROAD ST","COLUMBUS","OH",43222,39.9587396210001,-83.0291755649999,295,"1069 W BROAD ST, COLUMBUS, OH, 43222","Match","Exact","1069 W BROAD ST, COLUMBUS, OH, 43222",135574875,"L"
15296,"1069 WILSON AVE","TEANECK","NJ",7666,40.8976137970001,-74.024356416,296,"1069 WILSON AVE, TEANECK, NJ, 7666","Match","Exact","1069 WILSON AVE, TEANECK, NJ, 07666",64388554,"R"
15297,"1069 WINDING CREEK","CEDAR HILL","TX",75104,32.600420446,-96.921586963,297,"1069 WINDING CREEK, CEDAR HILL, TX, 75104","Match","Non_Exact","1069 WINDING CREEK DR, CEDAR HILL, TX, 75104",103005077,"L"
15298,"1069 WINTER LANE","TALLAHASSEE","FL",32311,30.437318926,-84.195367398,298,"1069 WINTER LANE, TALLAHASSEE, FL, 32311","Match","Exact","1069 WINTER LN, TALLAHASSEE, FL, 32311",82885729,"L"
15299,"10691 100TH AVE N","MAPLE GROVE","MN",55369,45.135631818,-93.4171567609999,299,"10691 100TH AVE N, MAPLE GROVE, MN, 55369","Match","Exact","10691 100TH AVE N, MAPLE GROVE, MN, 55369",43815880,"L"
15300,"10691 CR 33A","WAPAKONETA","OH",45895,40.563089274,-84.244768603,300,"10691 CR 33A, WAPAKONETA, OH, 45895","Match","Exact","10691 CO RD 33A, WAPAKONETA, OH, 45895",209200941,"L"
15301,"10691 DEER RUN DRIVE","GRAFTON","OH",44044,41.331603409,-82.0582951759999,301,"10691 DEER RUN DRIVE, GRAFTON, OH, 44044","Match","Exact","10691 DEER RUN DR, GRAFTON, OH, 44044",55422201,"R"
15302,"10691 DEERSHADOW LANE","CINCINNATI","OH",45242,39.2587471780001,-84.348535235,302,"10691 DEERSHADOW LANE, CINCINNATI, OH, 45242","Match","Exact","10691 DEERSHADOW LN, CINCINNATI, OH, 45242",103945712,"R"
15303,"10692 90TH STREET","OTTUMWA","IA",52501,41.0167562300001,-92.366053542,303,"10692 90TH STREET, OTTUMWA, IA, 52501","Match","Exact","10692 90TH ST, OTTUMWA, IA, 52501",89630199,"L"
15304,"10692 HADDINGTON DR STE 100","HOUSTON","TX",77043,29.799922301,-95.5603433809999,304,"10692 HADDINGTON DR STE 100, HOUSTON, TX, 77043","Match","Exact","10692 HADDINGTON DR, HOUSTON, TX, 77043",96019771,"R"
15305,"10692 HADDINGTON DR STE 100","HOUSTON","TX",77429,29.799922301,-95.5603433809999,305,"10692 HADDINGTON DR STE 100, HOUSTON, TX, 77429","Match","Non_Exact","10692 HADDINGTON DR, HOUSTON, TX, 77043",96019771,"R"
15306,"10692 N POLAR LANE","LITTLETON","CO",80125,39.5181340780001,-105.067564185,306,"10692 N POLAR LANE, LITTLETON, CO, 80125","Match","Exact","10692 N POLAR LN, LITTLETON, CO, 80125",130825015,"R"
15307,"10693 WATER FALLS LN","VIENNA","VA",22182,38.975526803,-77.314847749,307,"10693 WATER FALLS LN, VIENNA, VA, 22182","Match","Exact","10693 WATER FALLS LN, VIENNA, VA, 22182",619963563,"L"
15308,"10694 SOMERSET RD","THORNVILLE","OH",43076,39.9279844820001,-82.3431825649999,308,"10694 SOMERSET RD, THORNVILLE, OH, 43076","Match","Exact","10694 SOMERSET RD, THORNVILLE, OH, 43076",61496578,"L"
15309,"10695 DEAN MARTIN DR/  UNIT 1181","LAS VEGAS","NV",89141,35.9942381120001,-115.183528059,309,"10695 DEAN MARTIN DR/  UNIT 1181, LAS VEGAS, NV, 89141","Match","Non_Exact","10695 DEAN MARTIN DR, LAS VEGAS, NV, 89141",624984689,"R"
15310,"10696 LIGHOUSE PT","SOUTH LYON","MI",48178,NA,NA,310,"10696 LIGHOUSE PT, SOUTH LYON, MI, 48178","No_Match",NA,NA,NA,NA
15311,"10696 SANTA LAGUNA DR","BOCA RATON","FL",33428,26.3678047540001,-80.214717838,311,"10696 SANTA LAGUNA DR, BOCA RATON, FL, 33428","Match","Exact","10696 SANTA LAGUNA DR, BOCA RATON, FL, 33428",115574788,"R"
15312,"10696-A CRESTWOOD DR","MANASSAS","VA",20109,38.778978088,-77.513643127,312,"10696-A CRESTWOOD DR, MANASSAS, VA, 20109","Match","Exact","10696 CRESTWOOD DR, MANASSAS, VA, 20109",207146978,"R"
15313,"10697 OLD HAMMOCK WAY","WELLINGTON","FL",33414,26.6669043900001,-80.2182708999999,313,"10697 OLD HAMMOCK WAY, WELLINGTON, FL, 33414","Match","Exact","10697 OLD HAMMOCK WAY, WELLINGTON, FL, 33414",644092855,"R"
15314,"10698 E BAILS PL","AURORA","CO",80012,39.6825777930001,-104.86298155,314,"10698 E BAILS PL, AURORA, CO, 80012","Match","Exact","10698 E BAILS PL, AURORA, CO, 80012",177518669,"L"
15315,"10698 SPLIT OAK DRIVE","NORTHPORT","AL",35475,33.327245696,-87.546171558,315,"10698 SPLIT OAK DRIVE, NORTHPORT, AL, 35475","Match","Exact","10698 SPLIT OAK DR, NORTHPORT, AL, 35475",650598842,"L"
15316,"10699 US RT 60  SUITE 43","ASHLAND","KY",41102,NA,NA,316,"10699 US RT 60  SUITE 43, ASHLAND, KY, 41102","No_Match",NA,NA,NA,NA
15317,"106A MORRIS STREET","FORT VALLEY","GA",31030,32.5443969730001,-83.880234752,317,"106A MORRIS STREET, FORT VALLEY, GA, 31030","Match","Exact","106 MORRIS ST, FORT VALLEY, GA, 31030",93718906,"L"
15318,"106A N JEFFERSON AVENUE","EATONTON","GA",31024,33.4606423380001,-83.298936946,318,"106A N JEFFERSON AVENUE, EATONTON, GA, 31024","Match","Non_Exact","106 JEFFERSON RD, EATONTON, GA, 31024",647790397,"R"
15319,"106A N MAIN STREET","PONTOTOC","MS",38863,34.249601028,-88.9995183249999,319,"106A N MAIN STREET, PONTOTOC, MS, 38863","Match","Exact","106 N MAIN ST, PONTOTOC, MS, 38863",77005666,"R"
15320,"107  WHEELER AVENUE","BROCKTON","MA",2301,42.0858341250001,-71.0397598659999,320,"107  WHEELER AVENUE, BROCKTON, MA, 2301","Match","Exact","107 WHEELER AVE, BROCKTON, MA, 02301",87443304,"R"
15321,"107 1/2 COURTHOUSE SQUARE","EDGEFIELD","SC",29824,33.78928676,-81.9292478949999,321,"107 1/2 COURTHOUSE SQUARE, EDGEFIELD, SC, 29824","Match","Exact","107 COURTHOUSE SQ, EDGEFIELD, SC, 29824",55834462,"L"
15322,"107 1/2 SOUTH MAIN STREET","FAIRFIELD","IA",52556,41.006481487,-91.963765171,322,"107 1/2 SOUTH MAIN STREET, FAIRFIELD, IA, 52556","Match","Exact","107 S MAIN ST, FAIRFIELD, IA, 52556",84418436,"R"
15323,"107 11TH ST NW","ROCHESTER","MN",55901,44.0340947970001,-92.464869881,323,"107 11TH ST NW, ROCHESTER, MN, 55901","Match","Exact","107 11TH ST NW, ROCHESTER, MN, 55901",612121041,"R"
15324,"107 13TH STREET","LYNCHBURG","VA",24504,37.4120427190001,-79.138600034,324,"107 13TH STREET, LYNCHBURG, VA, 24504","Match","Exact","107 13TH ST, LYNCHBURG, VA, 24504",62627095,"R"
15325,"107 1ST ST SOUTH SUITE 307","CHARLOTTESVILLE","VA",22902,38.0306815010001,-78.4815584689999,325,"107 1ST ST SOUTH SUITE 307, CHARLOTTESVILLE, VA, 22902","Match","Exact","107 1ST ST S, CHARLOTTESVILLE, VA, 22902",83370718,"R"
15326,"107 2ND STREET","SPRINGDALE","MT",59082,45.7378111410001,-110.224474579,326,"107 2ND STREET, SPRINGDALE, MT, 59082","Match","Exact","107 2ND ST, SPRINGDALE, MT, 59082",610910126,"L"
15327,"107 3RD ST","GRUVER","IA",51334,43.3928485100001,-94.7054036599999,327,"107 3RD ST, GRUVER, IA, 51334","Match","Exact","107 3RD ST, GRUVER, IA, 51334",9586139,"L"
15328,"107 5TH AVENUE NW","FORT PAYNE","AL",35967,NA,NA,328,"107 5TH AVENUE NW, FORT PAYNE, AL, 35967","No_Match",NA,NA,NA,NA
15329,"107 7TH AVE NW","RONAN","MT",59864,47.530543698,-114.107769251,329,"107 7TH AVE NW, RONAN, MT, 59864","Match","Exact","107 7TH AVE NW, RONAN, MT, 59864",206923549,"L"
15330,"107 A CLIFTON STREET","KERNERSVILLE","NC",27284,36.123616102,-80.078526739,330,"107 A CLIFTON STREET, KERNERSVILLE, NC, 27284","Match","Exact","107 CLIFTON ST, KERNERSVILLE, NC, 27284",84617890,"R"
15331,"107 ABBEY ROAD","WAXAHACHIE","TX",75165,32.4087954460001,-96.806172055,331,"107 ABBEY ROAD, WAXAHACHIE, TX, 75165","Match","Exact","107 ABBEY RD, WAXAHACHIE, TX, 75165",638835028,"R"
15332,"107 ABBEY TERRACE","DREXEL HILL","PA",19026,39.9366848930001,-75.2870395849999,332,"107 ABBEY TERRACE, DREXEL HILL, PA, 19026","Match","Exact","107 ABBEY TER, DREXEL HILL, PA, 19026",134898729,"R"
15333,"107 ABBY LANE","PORT ORANGE","FL",32127,29.1035493860001,-80.9939077779999,333,"107 ABBY LANE, PORT ORANGE, FL, 32127","Match","Non_Exact","107 ABBEY LN, PORT ORANGE, FL, 32127",94529906,"R"
15334,"107 ALICE DRIVE APT 7","THIBODAUX","LA",70301,29.7785317820001,-90.809386395,334,"107 ALICE DRIVE APT 7, THIBODAUX, LA, 70301","Match","Exact","107 ALICE DR, THIBODAUX, LA, 70301",92341126,"R"
15335,"107 ALICE STREET","ESSEX","IA",51638,40.8292902530001,-95.298392556,335,"107 ALICE STREET, ESSEX, IA, 51638","Match","Exact","107 ALICE ST, ESSEX, IA, 51638",10222410,"L"
15336,"107 ALLISON AVENUE","HOHENWALD","TN",38462,35.5484008120001,-87.548306824,336,"107 ALLISON AVENUE, HOHENWALD, TN, 38462","Match","Exact","107 ALLISON AVE, HOHENWALD, TN, 38462",26752018,"L"
15337,"107 ALPINE TERRACE","OAKLAND","CA",94618,37.845293892,-122.238975501,337,"107 ALPINE TERRACE, OAKLAND, CA, 94618","Match","Exact","107 ALPINE TER, OAKLAND, CA, 94618",124999730,"L"
15338,"107 AMBER STREET","FITZGERALD","GA",31750,31.706776291,-83.2309850619999,338,"107 AMBER STREET, FITZGERALD, GA, 31750","Match","Exact","107 AMBER ST, FITZGERALD, GA, 31750",639588080,"R"
15339,"107 ANNALISE DR","CLARKSVILLE","TN",37043,36.50607288,-87.2216148049999,339,"107 ANNALISE DR, CLARKSVILLE, TN, 37043","Match","Exact","107 ANNALISE DR, CLARKSVILLE, TN, 37043",635026008,"R"
15340,"107 APOLLO LANE","MILTON","DE",19968,38.764868677,-75.290602968,340,"107 APOLLO LANE, MILTON, DE, 19968","Match","Exact","107 APOLLO LN, MILTON, DE, 19968",106080810,"R"
15341,"107 ARAPAHO DR","KATHLEEN","GA",31047,32.510201782,-83.642233577,341,"107 ARAPAHO DR, KATHLEEN, GA, 31047","Match","Exact","107 ARAPAHO DR, KATHLEEN, GA, 31047",618737398,"R"
15342,"107 ARCHDEACON AVENUE","CARLISLE","KY",40311,38.31302286,-84.023000703,342,"107 ARCHDEACON AVENUE, CARLISLE, KY, 40311","Match","Exact","107 ARCHDEACON AVE, CARLISLE, KY, 40311",54430575,"R"
15343,"107 ARLINGTON ROW","MACON","GA",31210,32.8801002970001,-83.7357634849999,343,"107 ARLINGTON ROW, MACON, GA, 31210","Match","Exact","107 ARLINGTON ROW, MACON, GA, 31210",81081302,"R"
15344,"107 ASHFORD PLACE 2524","WEST MONROE","LA",71055,NA,NA,344,"107 ASHFORD PLACE 2524, WEST MONROE, LA, 71055","No_Match",NA,NA,NA,NA
15345,"107 ASHFORD PLACE","GREENWOOD","SC",29646,34.1765753810001,-82.20995041,345,"107 ASHFORD PLACE, GREENWOOD, SC, 29646","Match","Exact","107 ASHFORD PL, GREENWOOD, SC, 29646",50805325,"L"
15346,"107 ATFIELD WAY","FOLSOM","CA",95630,38.6579935350001,-121.142297186,346,"107 ATFIELD WAY, FOLSOM, CA, 95630","Match","Exact","107 ATFIELD WAY, FOLSOM, CA, 95630",133384001,"L"
15347,"107 AUBURN TRACE POINTE","ST PETERS","MO",63376,38.764191838,-90.674549745,347,"107 AUBURN TRACE POINTE, ST PETERS, MO, 63376","Match","Exact","107 AUBURN TRACE POINTE, SAINT PETERS, MO, 63376",647288476,"L"
15348,"107 AVENUE LOUIS PASTEUR BOX 121","BOSTON","MA",2115,42.337322478,-71.1031127699999,348,"107 AVENUE LOUIS PASTEUR BOX 121, BOSTON, MA, 2115","Match","Exact","107 AVE LOUIS PASTEUR, BOSTON, MA, 02115",85728402,"R"
15349,"107 AVON DRIVE","HUBERT","NC",28539,34.6960757690001,-77.191273993,349,"107 AVON DRIVE, HUBERT, NC, 28539","Match","Exact","107 AVON DR, HUBERT, NC, 28539",14027278,"L"
15350,"107 B EAST DAVIS STREET","CULPEPER","VA",22701,38.4732688510001,-77.995896634,350,"107 B EAST DAVIS STREET, CULPEPER, VA, 22701","Match","Exact","107 E DAVIS ST, CULPEPER, VA, 22701",29836033,"L"
15351,"107 B PINEVIEW AVE","SEVERNA PARK","MD",21146,39.0927942100001,-76.57422452,351,"107 B PINEVIEW AVE, SEVERNA PARK, MD, 21146","Match","Exact","107 PINEVIEW AVE, SEVERNA PARK, MD, 21146",618261076,"R"
15352,"107 BAINBRIDGE CROSSING","CANTON","MS",39046,32.518113672,-90.013131691,352,"107 BAINBRIDGE CROSSING, CANTON, MS, 39046","Match","Exact","107 BAINBRIDGE CROSSING, CANTON, MS, 39046",645714950,"L"
15353,"107 BAYBERRY HILLS","MCDONOUGH","GA",30253,33.5082442460001,-84.19472573,353,"107 BAYBERRY HILLS, MCDONOUGH, GA, 30253","Match","Exact","107 BAYBERRY HILLS, MCDONOUGH, GA, 30253",644516921,"L"
15354,"107 BAYVIEW ROAD","MANHASSET","NY",11030,40.8125813770001,-73.705944989,354,"107 BAYVIEW ROAD, MANHASSET, NY, 11030","Match","Exact","107 BAYVIEW RD, MANHASSET, NY, 11030",147658655,"R"
15355,"107 BEACON RD","MIDDLE RIVER","MD",21220,39.3363137150001,-76.4564810319999,355,"107 BEACON RD, MIDDLE RIVER, MD, 21220","Match","Exact","107 BEACON RD, MIDDLE RIVER, MD, 21220",191571748,"L"
15356,"107 BEEBE POND ROAD","CANAAN","NY",12029,42.393337844,-73.413742692,356,"107 BEEBE POND ROAD, CANAAN, NY, 12029","Match","Exact","107 BEEBE POND RD, CANAAN, NY, 12029",41483809,"R"
15357,"107 BEECHWOOD DRIVE","ROANOKE RAPIDS","NC",27870,36.443524611,-77.634376688,357,"107 BEECHWOOD DRIVE, ROANOKE RAPIDS, NC, 27870","Match","Exact","107 BEECHWOOD DR, ROANOKE RAPIDS, NC, 27870",56731407,"R"
15358,"107 BELLE VALLEE DRIVE","COLUMBUS","MS",39705,33.5377866740001,-88.419361356,358,"107 BELLE VALLEE DRIVE, COLUMBUS, MS, 39705","Match","Exact","107 BELLE VALLEE DR, COLUMBUS, MS, 39705",627579241,"L"
15359,"107 BERTRON ROAD","FLEMINGTON","NJ",8822,40.546677532,-74.825553441,359,"107 BERTRON ROAD, FLEMINGTON, NJ, 8822","Match","Exact","107 BERTRON RD, FLEMINGTON, NJ, 08822",60027458,"R"
15360,"107 BEULAH DR","DANVILLE","WV",25053,38.0865766430001,-81.846622014,360,"107 BEULAH DR, DANVILLE, WV, 25053","Match","Non_Exact","107 BEULAH ST, DANVILLE, WV, 25053",78551528,"L"
15361,"107 BLACKWOOD LANE","DOUGLASSVILLE","PA",19518,40.236978794,-75.74549523,361,"107 BLACKWOOD LANE, DOUGLASSVILLE, PA, 19518","Match","Exact","107 BLACKWOOD LN, DOUGLASSVILLE, PA, 19518",642061351,"R"
15362,"107 BLUE FLAG COURT","WHITEHOUSE STATION","NJ",8889,40.617439118,-74.7655291039999,362,"107 BLUE FLAG COURT, WHITEHOUSE STATION, NJ, 8889","Match","Exact","107 BLUE FLAG CT, WHITEHOUSE STATION, NJ, 08889",60024676,"L"
15363,"107 BREEZEWAY LANE","GREENSBORO","NC",27405,36.1350387480001,-79.7760372719999,363,"107 BREEZEWAY LANE, GREENSBORO, NC, 27405","Match","Exact","107 BREEZEWAY LN, GREENSBORO, NC, 27405",623981456,"R"
15364,"107 BRIARWOOD DR","DALTON","OH",44618,40.8016689520001,-81.700729004,364,"107 BRIARWOOD DR, DALTON, OH, 44618","Match","Exact","107 BRIARWOOD DR, DALTON, OH, 44618",58759947,"L"
15365,"107 BROADWAY","CHESTERTON","IN",46304,41.6107327620001,-87.0524113609999,365,"107 BROADWAY, CHESTERTON, IN, 46304","Match","Exact","107 BROADWAY, CHESTERTON, IN, 46304",119910303,"L"
15366,"107 BROADWELL ROAD","BOAZ","AL",35956,34.183274146,-86.0965956269999,366,"107 BROADWELL ROAD, BOAZ, AL, 35956","Match","Exact","107 BROADWELL RD, BOAZ, AL, 35956",66761612,"L"
15367,"107 BROOKFIELD DRIVE","GREENWOOD","SC",29646,34.1782616830001,-82.208150437,367,"107 BROOKFIELD DRIVE, GREENWOOD, SC, 29646","Match","Exact","107 BROOKFIELD DR, GREENWOOD, SC, 29646",50805335,"L"
15368,"107 BROOKSHIRE CT","KINGSLAND","GA",31548,30.8125724650001,-81.614580667,368,"107 BROOKSHIRE CT, KINGSLAND, GA, 31548","Match","Exact","107 BROOKSHIRE CT, KINGSLAND, GA, 31548",629672841,"L"
15369,"107 BROOKSIDE DR","NEW PROVIDENCE","NJ",7974,40.705263374,-74.391724723,369,"107 BROOKSIDE DR, NEW PROVIDENCE, NJ, 7974","Match","Exact","107 BROOKSIDE DR, NEW PROVIDENCE, NJ, 07974",60602979,"L"
15370,"107 BROWNING COURT","LEESBURG","GA",31763,31.6676020730001,-84.2667818589999,370,"107 BROWNING COURT, LEESBURG, GA, 31763","Match","Exact","107 BROWNING CT, LEESBURG, GA, 31763",624944833,"L"
15371,"107 CAMBRIDGE DR N","GRIFFIN","GA",30224,33.1645520650001,-84.312980839,371,"107 CAMBRIDGE DR N, GRIFFIN, GA, 30224","Match","Non_Exact","107 CAMBRIDGE DR, GRIFFIN, GA, 30224",83671099,"L"
15372,"107 CANNON VIEW DR","RED WING","MN",55066,44.5729054620001,-92.610307768,372,"107 CANNON VIEW DR, RED WING, MN, 55066","Match","Exact","107 CANNON VIEW DR, RED WING, MN, 55066",31559956,"L"
15373,"107 CAPE CHARLES COURT","NINETY SIX","SC",29666,34.237330598,-81.9986283389999,373,"107 CAPE CHARLES COURT, NINETY SIX, SC, 29666","Match","Exact","107 CAPE CHARLES CT, NINETY SIX, SC, 29666",50812639,"L"
15374,"107 CARLS LANE","KOSCIUSKO","MS",39090,33.0444516860001,-89.588660625,374,"107 CARLS LANE, KOSCIUSKO, MS, 39090","Match","Exact","107 CARLS LN, KOSCIUSKO, MS, 39090",152335300,"R"
15375,"107 CAROLINA CLOSE DRIVE","FRANKLIN","TN",37069,35.9503770640001,-86.864771111,375,"107 CAROLINA CLOSE DRIVE, FRANKLIN, TN, 37069","Match","Exact","107 CAROLINA CLOSE DR, FRANKLIN, TN, 37069",619109644,"R"
15376,"107 CASS STREET SUITE A","TRAVERSE CITY","MI",49684,44.763825792,-85.6209985799999,376,"107 CASS STREET SUITE A, TRAVERSE CITY, MI, 49684","Match","Exact","107 CASS ST, TRAVERSE CITY, MI, 49684",145514915,"R"
15377,"107 CASSELL ROAD","OLIVER SPRINGS","TN",37840,36.0691630910001,-84.4828524869999,377,"107 CASSELL ROAD, OLIVER SPRINGS, TN, 37840","Match","Exact","107 CASSELL RD, OLIVER SPRINGS, TN, 37840",633864281,"R"
15378,"107 CATHERINE AVE","MAHWAH","NJ",7430,41.105841717,-74.151802521,378,"107 CATHERINE AVE, MAHWAH, NJ, 7430","Match","Exact","107 CATHERINE AVE, MAHWAH, NJ, 07430",64400188,"L"
15379,"107 CEDAR SPRINGS TRAIL","HENDERSONVILLE","TN",37075,36.2994244430001,-86.593424474,379,"107 CEDAR SPRINGS TRAIL, HENDERSONVILLE, TN, 37075","Match","Exact","107 CEDAR SPRINGS TRL, HENDERSONVILLE, TN, 37075",29781487,"L"
15380,"107 CENTENNIAL STREET STE 102A","LA PLATA","MD",20646,38.527238848,-76.98032948,380,"107 CENTENNIAL STREET STE 102A, LA PLATA, MD, 20646","Match","Exact","107 CENTENNIAL ST, LA PLATA, MD, 20646",639103656,"R"
15381,"107 CHELSEA CT","PHOENIX","OR",97535,NA,NA,381,"107 CHELSEA CT, PHOENIX, OR, 97535","No_Match",NA,NA,NA,NA
15382,"107 CHERRY STREET","WEST ORANGE","NJ",7052,40.793039186,-74.2313641,382,"107 CHERRY STREET, WEST ORANGE, NJ, 7052","Match","Exact","107 CHERRY ST, WEST ORANGE, NJ, 07052",63449446,"R"
15383,"107 CHERRYWOOD DRIVE","NASHUA","NH",3062,42.70898107,-71.494773004,383,"107 CHERRYWOOD DRIVE, NASHUA, NH, 3062","Match","Exact","107 CHERRYWOOD DR, NASHUA, NH, 03062",641527749,"R"
15384,"107 CHESAPEAKE BLVD SUITE 112","ELKTON","MD",21921,39.6033752270001,-75.786647467,384,"107 CHESAPEAKE BLVD SUITE 112, ELKTON, MD, 21921","Match","Exact","107 CHESAPEAKE BLVD, ELKTON, MD, 21921",187407851,"R"
15385,"107 CHESTNUT RIDGE DR","BEAVER FALLS","PA",15010,40.757761305,-80.3748354529999,385,"107 CHESTNUT RIDGE DR, BEAVER FALLS, PA, 15010","Match","Exact","107 CHESTNUT RIDGE DR, BEAVER FALLS, PA, 15010",52583473,"L"
15386,"107 CHESTNUT STREET","BOSTON","MA",2108,42.356576456,-71.0719321989999,386,"107 CHESTNUT STREET, BOSTON, MA, 2108","Match","Exact","107 CHESTNUT ST, BOSTON, MA, 02108",85725557,"R"
15387,"107 CHESTNUT STREET","WILMINGTON","NC",28401,34.237584428,-77.948534789,387,"107 CHESTNUT STREET, WILMINGTON, NC, 28401","Match","Exact","107 CHESTNUT ST, WILMINGTON, NC, 28401",152762250,"L"
15388,"107 CHETSWORTH LANE","GREENVILLE","SC",29607,34.796319517,-82.319606772,388,"107 CHETSWORTH LANE, GREENVILLE, SC, 29607","Match","Exact","107 CHETSWORTH LN, GREENVILLE, SC, 29607",38321269,"L"
15389,"107 CHURCHCLIFF DRIVE","WOODSTOCK","GA",30188,34.087077822,-84.454599892,389,"107 CHURCHCLIFF DRIVE, WOODSTOCK, GA, 30188","Match","Exact","107 CHURCHCLIFF DR, WOODSTOCK, GA, 30188",618485779,"L"
15390,"107 CLUB CENTRE COURT APT 4","EDWARDSVILLE","IL",62025,38.7802539910001,-89.984005108,390,"107 CLUB CENTRE COURT APT 4, EDWARDSVILLE, IL, 62025","Match","Exact","107 CLUB CENTRE CT, EDWARDSVILLE, IL, 62025",107713104,"L"
15391,"107 CLUBSTONE LANE","CARY","NC",27518,35.718767692,-78.776226241,391,"107 CLUBSTONE LANE, CARY, NC, 27518","Match","Exact","107 CLUBSTONE LN, CARY, NC, 27518",72530626,"R"
15392,"107 COAL HOLLOW ROAD","GREENSBURG","PA",15601,40.361332911,-79.525810054,392,"107 COAL HOLLOW ROAD, GREENSBURG, PA, 15601","Match","Exact","107 COAL HOLLOW RD, GREENSBURG, PA, 15601",52971804,"R"
15393,"107 COLUMBIANA ROAD","HOMEWOOD","AL",35209,33.4664638940001,-86.820393364,393,"107 COLUMBIANA ROAD, HOMEWOOD, AL, 35209","Match","Exact","107 COLUMBIANA RD, HOMEWOOD, AL, 35209",81581019,"L"
15394,"107 COLVILLE CT","WINNABOW","NC",28479,34.1829372440001,-77.995842501,394,"107 COLVILLE CT, WINNABOW, NC, 28479","Match","Exact","107 COLVILLE CT, WINNABOW, NC, 28479",625614299,"L"
15395,"107 COLWELL AVE","HAMMONTON","NJ",8037,39.6403582140001,-74.8115180569999,395,"107 COLWELL AVE, HAMMONTON, NJ, 8037","Match","Exact","107 COLWELL AVE, HAMMONTON, NJ, 08037",202477245,"L"
15396,"107 CONCORD ST","HOLLISTON","MA",1746,42.215159789,-71.425644295,396,"107 CONCORD ST, HOLLISTON, MA, 1746","Match","Exact","107 CONCORD ST, HOLLISTON, MA, 01746",86849909,"L"
15397,"107 CONLEY STREET","MORGANTON","NC",28655,35.723136154,-81.6954419589999,397,"107 CONLEY STREET, MORGANTON, NC, 28655","Match","Exact","107 CONLEY ST, MORGANTON, NC, 28655",37168052,"L"
15398,"107 CONNIE DR","HENDERSONVILLE","TN",37075,36.289117837,-86.624665158,398,"107 CONNIE DR, HENDERSONVILLE, TN, 37075","Match","Exact","107 CONNIE DR, HENDERSONVILLE, TN, 37075",29790374,"R"
15399,"107 CONVENT ROAD","SYOSSET","NY",11791,40.8210156860001,-73.492250494,399,"107 CONVENT ROAD, SYOSSET, NY, 11791","Match","Exact","107 CONVENT RD, SYOSSET, NY, 11791",147640370,"L"
15400,"107 CORNELIA LANE","MILFORD","PA",18337,41.321879079,-74.8720615139999,400,"107 CORNELIA LANE, MILFORD, PA, 18337","Match","Exact","107 CORNELIA LN, MILFORD, PA, 18337",191403736,"L"
15401,"107 COTTAGE HILL AVENUE","BUTLER","PA",16001,40.850693871,-79.89498771,401,"107 COTTAGE HILL AVENUE, BUTLER, PA, 16001","Match","Exact","107 COTTAGE HILL AVE, BUTLER, PA, 16001",52680536,"R"
15402,"107 COUNTRY KITCHEN ROAD","BARNESVILLE","GA",30204,33.028081861,-84.170634322,402,"107 COUNTRY KITCHEN ROAD, BARNESVILLE, GA, 30204","Match","Exact","107 COUNTRY KITCHEN RD, BARNESVILLE, GA, 30204",66652134,"L"
15403,"107 COUNTY ROAD 4433","BOSS","MO",65440,37.6465240160001,-91.192620864,403,"107 COUNTY ROAD 4433, BOSS, MO, 65440","Match","Exact","107 CO RD 4433, BOSS, MO, 65440",45192128,"R"
15404,"107 COURT SQUARE WEST","COVINGTON","TN",38019,NA,NA,404,"107 COURT SQUARE WEST, COVINGTON, TN, 38019","No_Match",NA,NA,NA,NA
15405,"107 CRANBURY RD","BRICK","NJ",8724,40.0712246430001,-74.0995519099999,405,"107 CRANBURY RD, BRICK, NJ, 8724","Match","Exact","107 CRANBURY RD, BRICK, NJ, 08724",203733842,"L"
15406,"107 CREEKRIDGE PL","COLONIAL HEIGHTS","VA",23834,37.2740147010001,-77.3970329109999,406,"107 CREEKRIDGE PL, COLONIAL HEIGHTS, VA, 23834","Match","Exact","107 CREEKRIDGE PL, COLONIAL HEIGHTS, VA, 23834",615063207,"L"
15407,"107 CRESCENT AVE","LOUISVILLE","KY",40206,38.2551431470001,-85.686807428,407,"107 CRESCENT AVE, LOUISVILLE, KY, 40206","Match","Exact","107 CRESCENT AVE, LOUISVILLE, KY, 40206",96851781,"R"
15408,"107 CRESTVIEW DRIVE","MORGANTOWN","WV",26505,39.6742993340001,-79.9572062989999,408,"107 CRESTVIEW DRIVE, MORGANTOWN, WV, 26505","Match","Exact","107 CRESTVIEW DR, MORGANTOWN, WV, 26505",50753453,"R"
15409,"107 CROMWELL COURT","SUMMERVILLE","SC",29485,32.9843355840001,-80.201538161,409,"107 CROMWELL COURT, SUMMERVILLE, SC, 29485","Match","Exact","107 CROMWELL CT, SUMMERVILLE, SC, 29485",178464908,"L"
15410,"107 CRYSTAL FALLS WAY","BERLIN","CT",6037,41.60896826,-72.734062405,410,"107 CRYSTAL FALLS WAY, BERLIN, CT, 6037","Match","Exact","107 CRYSTAL FALLS WAY, BERLIN, CT, 06037",624170528,"L"
15411,"107 CULPEEPER LANE","EASLEY","SC",29642,34.7784461740001,-82.5429135639999,411,"107 CULPEEPER LANE, EASLEY, SC, 29642","Match","Non_Exact","107 CULPEPPER LN, EASLEY, SC, 29642",624769744,"L"
15412,"107 CYNTHIA STREET","CLINTON","MS",39056,32.3494325950001,-90.3274053069999,412,"107 CYNTHIA STREET, CLINTON, MS, 39056","Match","Exact","107 CYNTHIA ST, CLINTON, MS, 39056",65362567,"R"
15413,"107 CYPRESS DRIVE","DOTHAN","AL",36301,31.186281847,-85.392439324,413,"107 CYPRESS DRIVE, DOTHAN, AL, 36301","Match","Exact","107 CYPRESS DR, DOTHAN, AL, 36301",101216073,"L"
15414,"107 DARTMOUTH AVE","SAN CARLOS","CA",94070,37.5092537150001,-122.275581769,414,"107 DARTMOUTH AVE, SAN CARLOS, CA, 94070","Match","Exact","107 DARTMOUTH AVE, SAN CARLOS, CA, 94070",647259517,"L"
15415,"107 DAVIS STREET APT  6","ANCHORAGE","AK",99508,61.224049032,-149.786080391,415,"107 DAVIS STREET APT  6, ANCHORAGE, AK, 99508","Match","Exact","107 DAVIS ST, ANCHORAGE, AK, 99508",190801934,"L"
15416,"107 DEAN ST","WOODSTOCK","IL",60098,42.3142830040001,-88.447385703,416,"107 DEAN ST, WOODSTOCK, IL, 60098","Match","Exact","107 DEAN ST, WOODSTOCK, IL, 60098",119816925,"R"
15417,"107 DEMERE OAKS CIRCLE","SAINT SIMONS ISLAND","GA",31522,31.137410468,-81.389180778,417,"107 DEMERE OAKS CIRCLE, SAINT SIMONS ISLAND, GA, 31522","Match","Exact","107 DEMERE OAKS CIR, ST SIMONS ISLAND, GA, 31522",9136507,"L"
15418,"107 DEPOT LOOP","LYNCH","KY",40855,NA,NA,418,"107 DEPOT LOOP, LYNCH, KY, 40855","No_Match",NA,NA,NA,NA
15419,"107 DIAL STREET","LAURENS","SC",29360,34.4892548510001,-82.010642515,419,"107 DIAL STREET, LAURENS, SC, 29360","Match","Exact","107 DIAL ST, LAURENS, SC, 29360",44431038,"R"
15420,"107 DICKENSON CT","STEPHENS CITY","VA",22655,39.0878690580001,-78.189875397,420,"107 DICKENSON CT, STEPHENS CITY, VA, 22655","Match","Exact","107 DICKENSON CT, STEPHENS CITY, VA, 22655",55590616,"L"
15421,"107 DORCHESTER ROAD","LOUISVILLE","KY",40223,38.248456257,-85.586823614,421,"107 DORCHESTER ROAD, LOUISVILLE, KY, 40223","Match","Exact","107 DORCHESTER RD, LOUISVILLE, KY, 40223",96863474,"R"
15422,"107 DUFF DR","YORKTOWN","VA",23692,37.1644293140001,-76.441088782,422,"107 DUFF DR, YORKTOWN, VA, 23692","Match","Exact","107 DUFF DR, YORKTOWN, VA, 23692",103765702,"L"
15423,"107 E 17TH ST REAR","CONNERSVILLE","IN",47331,NA,NA,423,"107 E 17TH ST REAR, CONNERSVILLE, IN, 47331","Tie",NA,NA,NA,NA
15424,"107 E 2ND STREET","DEWITT","IA",52742,41.8170075420001,-90.531668764,424,"107 E 2ND STREET, DEWITT, IA, 52742","Match","Non_Exact","107 E 2ND ST, DE WITT, IA, 52742",16805095,"R"
15425,"107 E 80TH STREET","KANSAS CITY","MO",64114,38.9830259780001,-94.5887736609999,425,"107 E 80TH STREET, KANSAS CITY, MO, 64114","Match","Exact","107 E 80TH ST, KANSAS CITY, MO, 64114",91455021,"R"
15426,"107 E BASELINE RD STE A2","TEMPE","AZ",85283,NA,NA,426,"107 E BASELINE RD STE A2, TEMPE, AZ, 85283","Tie",NA,NA,NA,NA
15427,"107 E BEARD AVE","SYRACUSE","NY",13205,43.0272678170001,-76.144955677,427,"107 E BEARD AVE, SYRACUSE, NY, 13205","Match","Exact","107 E BEARD AVE, SYRACUSE, NY, 13205",46571846,"L"
15428,"107 E CENTER ST","WHITE OAK","TX",75693,32.5327723230001,-94.861742889,428,"107 E CENTER ST, WHITE OAK, TX, 75693","Match","Exact","107 E CENTER ST, WHITE OAK, TX, 75693",647927892,"L"
15429,"107 E COKER LN","CONWAY","SC",29526,33.781757025,-79.0179632219999,429,"107 E COKER LN, CONWAY, SC, 29526","Match","Exact","107 E COKER LN, CONWAY, SC, 29526",630426045,"R"
15430,"107 E ELIZABETH ST","CIMARRON","KS",67835,37.816810624,-100.346416886,430,"107 E ELIZABETH ST, CIMARRON, KS, 67835","Match","Non_Exact","107 E ELIZABETH AVE, CIMARRON, KS, 67835",145767035,"R"
15431,"107 E ELM ST","OXFORD","KS",67119,37.2796605410001,-97.168560449,431,"107 E ELM ST, OXFORD, KS, 67119","Match","Exact","107 ELM ST, OXFORD, KS, 67119",115811810,"R"
15432,"107 E GARVEY AVE APT 287","MONTEREY PARK","CA",91755,34.062556898,-118.122593625,432,"107 E GARVEY AVE APT 287, MONTEREY PARK, CA, 91755","Match","Non_Exact","107 E GARVEY AVE, MONTEREY PARK, CA, 91755",141637196,"L"
15433,"107 E MAIN STREET","PICKENS","SC",29671,34.8837287700001,-82.707658508,433,"107 E MAIN STREET, PICKENS, SC, 29671","Match","Exact","107 E MAIN ST, PICKENS, SC, 29671",26157824,"L"
15434,"107 E MAIN STREET","SMITHVILLE","MO",64089,39.3871065800001,-94.580690693,434,"107 E MAIN STREET, SMITHVILLE, MO, 64089","Match","Exact","107 E MAIN ST, SMITHVILLE, MO, 64089",89749714,"L"
15435,"107 E MARTIN L KING","MOUND BAYOU","MS",38762,NA,NA,435,"107 E MARTIN L KING, MOUND BAYOU, MS, 38762","Tie",NA,NA,NA,NA
15436,"107 E PINE ST","HOUSTON","MO",65483,37.326390502,-91.956230508,436,"107 E PINE ST, HOUSTON, MO, 65483","Match","Exact","107 E PINE ST, HOUSTON, MO, 65483",26434848,"R"
15437,"107 E PRICE RD SUITE A2","BROWNSVILLE","TX",78521,25.9360375570001,-97.495509753,437,"107 E PRICE RD SUITE A2, BROWNSVILLE, TX, 78521","Match","Exact","107 PRICE RD, BROWNSVILLE, TX, 78521",90024102,"L"
15438,"107 E SWEETWATER CREEK DR","LONGWOOD","FL",32779,28.704365986,-81.431079726,438,"107 E SWEETWATER CREEK DR, LONGWOOD, FL, 32779","Match","Exact","107 E SWEETWATER CREEK DR, LONGWOOD, FL, 32779",605416780,"L"
15439,"107 E SWEETWATER CREEK DRIVE","LONGWOOD","FL",32779,28.704365986,-81.431079726,439,"107 E SWEETWATER CREEK DRIVE, LONGWOOD, FL, 32779","Match","Exact","107 E SWEETWATER CREEK DR, LONGWOOD, FL, 32779",605416780,"L"
15440,"107 E WALL STREET","CREEDE","CO",81130,37.8528528690001,-106.926435133,440,"107 E WALL STREET, CREEDE, CO, 81130","Match","Exact","107 WALL ST, CREEDE, CO, 81130",176943911,"L"
15441,"107 E WILSON AVE","NORFOLK","NE",68701,42.0458331460001,-97.406868034,441,"107 E WILSON AVE, NORFOLK, NE, 68701","Match","Exact","107 E WILSON AVE, NORFOLK, NE, 68701",161567192,"L"
15442,"107 EAST  126TH STREET APT 7F","NEW YORK","NY",10035,40.805596092,-73.9382059129999,442,"107 EAST  126TH STREET APT 7F, NEW YORK, NY, 10035","Match","Exact","107 E 126TH ST, NEW YORK, NY, 10035",59658082,"L"
15443,"107 EAST 126 STREET 8T","NEW YORK","NY",10035,40.805596092,-73.9382059129999,443,"107 EAST 126 STREET 8T, NEW YORK, NY, 10035","Match","Exact","107 E 126TH ST, NEW YORK, NY, 10035",59658082,"L"
15444,"107 EAST 126 STREET","NEW YORK","NY",10035,40.805596092,-73.9382059129999,444,"107 EAST 126 STREET, NEW YORK, NY, 10035","Match","Exact","107 E 126TH ST, NEW YORK, NY, 10035",59658082,"L"
15445,"107 EAST 14TH STREET","CLAY CITY","IN",47841,39.270442089,-87.1118256669999,445,"107 EAST 14TH STREET, CLAY CITY, IN, 47841","Match","Exact","107 E 14TH ST, CLAY CITY, IN, 47841",41747186,"R"
15446,"107 EAST 1ST STREET","CLE ELUM","WA",98922,47.1948518830001,-120.938166443,446,"107 EAST 1ST STREET, CLE ELUM, WA, 98922","Match","Exact","107 E 1ST ST, CLE ELUM, WA, 98922",157197968,"L"
15447,"107 EAST 2ND STREET","BROOKLYN","NY",11218,40.6490376630001,-73.979415434,447,"107 EAST 2ND STREET, BROOKLYN, NY, 11218","Match","Exact","107 E 2ND ST, BROOKLYN, NY, 11218",59080433,"L"
15448,"107 EAST BROADWAY 2/F","NEW YORK","NY",10002,40.7138209180001,-73.9930227149999,448,"107 EAST BROADWAY 2/F, NEW YORK, NY, 10002","Match","Exact","107 E BROADWAY, NEW YORK, NY, 10002",59662076,"R"
15449,"107 EAST E STREET","RANDOLPH","IA",51649,40.8723210220001,-95.5671374299999,449,"107 EAST E STREET, RANDOLPH, IA, 51649","Match","Non_Exact","107 E ST, RANDOLPH, IA, 51649",9915176,"L"
15450,"107 EAST MAIN STREET","UNIONTOWN","PA",15401,39.9007649160001,-79.72176596,450,"107 EAST MAIN STREET, UNIONTOWN, PA, 15401","Match","Exact","107 E MAIN ST, UNIONTOWN, PA, 15401",51138060,"R"
15451,"107 EAST MAPLE STREET","MCBAIN","MI",49657,44.193814672,-85.2104064979999,451,"107 EAST MAPLE STREET, MCBAIN, MI, 49657","Match","Non_Exact","107 E MAPLE ST, MC BAIN, MI, 49657",146064989,"R"
15452,"107 EAST MEADOWBROOK DRIVE","RED BANK","TN",37415,NA,NA,452,"107 EAST MEADOWBROOK DRIVE, RED BANK, TN, 37415","No_Match",NA,NA,NA,NA
15453,"107 EAST SECOND STREET","BOUND BROOK","NJ",8805,40.562978684,-74.533204422,453,"107 EAST SECOND STREET, BOUND BROOK, NJ, 8805","Match","Exact","107 E 2ND ST, BOUND BROOK, NJ, 08805",59940747,"L"
15454,"107 ELM RD","BARRINGTON","IL",60010,42.1620927550001,-88.13535545,454,"107 ELM RD, BARRINGTON, IL, 60010","Match","Exact","107 ELM RD, BARRINGTON, IL, 60010",119635215,"R"
15455,"107 EMERALD CT","ROYAL PALM BCH","FL",33411,26.7315451310001,-80.24596115,455,"107 EMERALD CT, ROYAL PALM BCH, FL, 33411","Match","Exact","107 EMERALD CT, ROYAL PALM BEACH, FL, 33411",115341302,"R"
15456,"107 EQUESTRIAN CT","FORSYTH","GA",31029,33.1204014750001,-83.995583992,456,"107 EQUESTRIAN CT, FORSYTH, GA, 31029","Match","Exact","107 EQUESTRIAN CT, FORSYTH, GA, 31029",624344743,"R"
15457,"107 ERNEST STREET","NORTH MASSAPEQUA","NY",11758,40.7115440170001,-73.4533880229999,457,"107 ERNEST STREET, NORTH MASSAPEQUA, NY, 11758","Match","Exact","107 ERNEST ST, N MASSAPEQUA, NY, 11758",147650238,"R"
15458,"107 ESTANCIAS DE SANTA MARIA","MANATI","PR",674,NA,NA,458,"107 ESTANCIAS DE SANTA MARIA, MANATI, PR, 674","No_Match",NA,NA,NA,NA
15459,"107 ESTATES WAY","WARNER ROBINS","GA",31088,32.579792824,-83.6940785479999,459,"107 ESTATES WAY, WARNER ROBINS, GA, 31088","Match","Exact","107 ESTATES WAY, WARNER ROBINS, GA, 31088",636150647,"R"
15460,"107 EVENINGWIND DR","MARION","AR",72364,35.1909800080001,-90.180871184,460,"107 EVENINGWIND DR, MARION, AR, 72364","Match","Exact","107 EVENINGWIND DR, MARION, AR, 72364",69380495,"L"
15461,"107 EVERGREEN RD","NEW EGYPT","NJ",8533,40.0790245520001,-74.532103924,461,"107 EVERGREEN RD, NEW EGYPT, NJ, 8533","Match","Exact","107 EVERGREEN RD, NEW EGYPT, NJ, 08533",640452017,"R"
15462,"107 FAIRFILED CIRCLE EAST","ROYERSFORD","PA",19468,40.1998062850001,-75.5060363159999,462,"107 FAIRFILED CIRCLE EAST, ROYERSFORD, PA, 19468","Match","Non_Exact","107 FAIRFIELD CIR, ROYERSFORD, PA, 19468",645862400,"L"
15463,"107 FEDERAL HILL RD","HOLLIS","NH",3049,42.7630852520001,-71.603625468,463,"107 FEDERAL HILL RD, HOLLIS, NH, 3049","Match","Exact","107 FEDERAL HILL RD, HOLLIS, NH, 03049",651335922,"R"
15464,"107 FEDERAL ST","MILTON","DE",19968,38.777265862,-75.310355342,464,"107 FEDERAL ST, MILTON, DE, 19968","Match","Exact","107 FEDERAL ST, MILTON, DE, 19968",106081226,"R"
15465,"107 FENLEY AVE  APT D10","LOUISVILLE","KY",40207,38.254954286,-85.671139517,465,"107 FENLEY AVE  APT D10, LOUISVILLE, KY, 40207","Match","Exact","107 FENLEY AVE, LOUISVILLE, KY, 40207",640120321,"R"
15466,"107 FERN CT","DANVILLE","CA",94506,37.8056353320001,-121.947538377,466,"107 FERN CT, DANVILLE, CA, 94506","Match","Exact","107 FERN CT, DANVILLE, CA, 94506",607864811,"R"
15467,"107 FIELDSTONE CT","CHAPEL HILL","NC",27514,35.977801212,-79.043377012,467,"107 FIELDSTONE CT, CHAPEL HILL, NC, 27514","Match","Exact","107 FIELDSTONE CT, CHAPEL HILL, NC, 27514",72409703,"L"
15468,"107 FLAMINGO AVENUE","STUART","FL",34996,27.202423127,-80.226018401,468,"107 FLAMINGO AVENUE, STUART, FL, 34996","Match","Non_Exact","107 SE FLAMINGO AVE, STUART, FL, 34996",120404320,"R"
15469,"107 FLYING HILLS CIRCLE","CARY","NC",27513,35.794140639,-78.827288586,469,"107 FLYING HILLS CIRCLE, CARY, NC, 27513","Match","Exact","107 FLYING HILLS CIR, CARY, NC, 27513",72548195,"R"
15470,"107 FLYNN ROAD","WESTVILLE","IN",46391,NA,NA,470,"107 FLYNN ROAD, WESTVILLE, IN, 46391","Tie",NA,NA,NA,NA
15471,"107 FOUNDRY ST","COATESVILLE","PA",19320,39.991266738,-75.80187934,471,"107 FOUNDRY ST, COATESVILLE, PA, 19320","Match","Exact","107 FOUNDRY ST, COATESVILLE, PA, 19320",179512389,"L"
15472,"107 FOXCREST COURT","CARY","NC",27513,35.778443227,-78.842815582,472,"107 FOXCREST COURT, CARY, NC, 27513","Match","Exact","107 FOXCREST CT, CARY, NC, 27513",72570233,"L"
15473,"107 FOXWOOD COURT","NORTH AUGUSTA","SC",29860,33.55923711,-81.94643838,473,"107 FOXWOOD COURT, NORTH AUGUSTA, SC, 29860","Match","Exact","107 FOXWOOD CT, NORTH AUGUSTA, SC, 29860",65001142,"R"
15474,"107 GEISSINGER AVENUE","MILLVILLE","NJ",8332,39.394517566,-75.0087780429999,474,"107 GEISSINGER AVENUE, MILLVILLE, NJ, 8332","Match","Exact","107 GEISSINGER AVE, MILLVILLE, NJ, 08332",174133162,"R"
15475,"107 GEORGE STREET","SARATOGA SPRINGS","NY",12866,43.077234204,-73.774622874,475,"107 GEORGE STREET, SARATOGA SPRINGS, NY, 12866","Match","Exact","107 GEORGE ST, SARATOGA SPGS, NY, 12866",18765556,"L"
15476,"107 GILBERT STREET","GARDEN GROVE","CA",92841,NA,NA,476,"107 GILBERT STREET, GARDEN GROVE, CA, 92841","No_Match",NA,NA,NA,NA
15477,"107 GLADE SHADOW DR","EULESS","TX",76039,32.8792595890001,-97.082660805,477,"107 GLADE SHADOW DR, EULESS, TX, 76039","Match","Exact","107 GLADE SHADOW DR, EULESS, TX, 76039",101869147,"R"
15478,"107 GLOSTER MILL WAY","LAWRENCEVILLE","GA",30044,33.9170295330001,-84.062660475,478,"107 GLOSTER MILL WAY, LAWRENCEVILLE, GA, 30044","Match","Exact","107 GLOSTER MILL WAY, LAWRENCEVILLE, GA, 30044",636099302,"L"
15479,"107 GOVERNOR FORAKER PLACE","HILLSBORO","OH",45133,NA,NA,479,"107 GOVERNOR FORAKER PLACE, HILLSBORO, OH, 45133","No_Match",NA,NA,NA,NA
15480,"107 GRAEME DR","NASHVILLE","TN",37214,36.1729713720001,-86.70158609,480,"107 GRAEME DR, NASHVILLE, TN, 37214","Match","Exact","107 GRAEME DR, NASHVILLE, TN, 37214",97195111,"L"
15481,"107 GRANT AVE","WHEELING","WV",26003,40.054046208,-80.661699364,481,"107 GRANT AVE, WHEELING, WV, 26003","Match","Exact","107 GRANT AVE, WHEELING, WV, 26003",38091084,"L"
15482,"107 GRAY ROAD","NORTH YARMOUTH","ME",4097,43.843162513,-70.263938358,482,"107 GRAY ROAD, NORTH YARMOUTH, ME, 4097","Match","Exact","107 GRAY RD, NORTH YARMOUTH, ME, 04097",625618535,"R"
15483,"107 GREEN FERN LANE","BOONSBORO","MD",21713,39.522390703,-77.65908687,483,"107 GREEN FERN LANE, BOONSBORO, MD, 21713","Match","Exact","107 GREEN FERN LN, BOONSBORO, MD, 21713",639626763,"L"
15484,"107 GREENWOOD TRACE","FAIRBURN","GA",30213,33.5383103520001,-84.567847823,484,"107 GREENWOOD TRACE, FAIRBURN, GA, 30213","Match","Exact","107 GREENWOOD TRCE, FAIRBURN, GA, 30213",625653733,"R"
15485,"107 GREYFIELD LANE","SANDY SPRINGS","GA",30350,33.9988629320001,-84.343185476,485,"107 GREYFIELD LANE, SANDY SPRINGS, GA, 30350","Match","Exact","107 GREYFIELD LN, SANDY SPRINGS, GA, 30350",17432990,"R"
15486,"107 GROSBEAK CT","LAKE FREDERICK","VA",22630,39.052639114,-78.165924612,486,"107 GROSBEAK CT, LAKE FREDERICK, VA, 22630","Match","Exact","107 GROSBEAK CT, LAKE FREDERICK, VA, 22630",651768065,"L"
15487,"107 GROSS STREET","KINGSTON","NY",12401,41.9256025770001,-73.980126081,487,"107 GROSS STREET, KINGSTON, NY, 12401","Match","Exact","107 GROSS ST, KINGSTON, NY, 12401",41880101,"R"
15488,"107 GROVE ST","MORRISVILLE","PA",19067,40.208521241,-74.772433811,488,"107 GROVE ST, MORRISVILLE, PA, 19067","Match","Exact","107 GROVE ST, MORRISVILLE, PA, 19067",134768917,"R"
15489,"107 GULF DRIVE","DUNANSVILLE","PA",16635,40.413816098,-78.451554489,489,"107 GULF DRIVE, DUNANSVILLE, PA, 16635","Match","Non_Exact","107 GULF DR, DUNCANSVILLE, PA, 16635",632215718,"L"
15490,"107 GULLANE","WILLIAMSBURG","VA",23188,37.294484261,-76.78690553,490,"107 GULLANE, WILLIAMSBURG, VA, 23188","Match","Exact","107 GULLANE, WILLIAMSBURG, VA, 23188",103769775,"R"
15491,"107 HARRISON RD","PARSIPPANY","NJ",7054,40.860756925,-74.4321735359999,491,"107 HARRISON RD, PARSIPPANY, NJ, 7054","Match","Exact","107 HARRISON RD, PARSIPPANY, NJ, 07054",60445049,"L"
15492,"107 HARTMAN ROAD","DANVILLE","PA",17821,41.0216538060001,-76.573854427,492,"107 HARTMAN ROAD, DANVILLE, PA, 17821","Match","Exact","107 HARTMAN RD, DANVILLE, PA, 17821",59200777,"L"
15493,"107 HARVARD STREET","MONROE","NC",28112,34.974065223,-80.55604296,493,"107 HARVARD STREET, MONROE, NC, 28112","Match","Exact","107 HARVARD ST, MONROE, NC, 28112",14174551,"R"
15494,"107 HENDRICKSON AVENUE","ROCKVILLE CENTRE","NY",11570,40.651551238,-73.6522670109999,494,"107 HENDRICKSON AVENUE, ROCKVILLE CENTRE, NY, 11570","Match","Exact","107 HENDRICKSON AVE, ROCKVILLE CENTRE, NY, 11570",147680262,"L"
15495,"107 HIDDEN SPRINGS CIRCLE","KISSIMMEE","FL",34743,28.3410297940001,-81.3513142529999,495,"107 HIDDEN SPRINGS CIRCLE, KISSIMMEE, FL, 34743","Match","Exact","107 HIDDEN SPRINGS CIR, KISSIMMEE, FL, 34743",176678161,"L"
15496,"107 HIGHLAND AVENUE","NEPTUNE","NJ",7753,40.191130393,-74.03923238,496,"107 HIGHLAND AVENUE, NEPTUNE, NJ, 7753","Match","Exact","107 HIGHLAND AVE, NEPTUNE, NJ, 07753",90458788,"R"
15497,"107 HIGHWAY TO BAY BLVD","SAFETY HARBOR","FL",34695,28.0263000410001,-82.691138011,497,"107 HIGHWAY TO BAY BLVD, SAFETY HARBOR, FL, 34695","Match","Exact","107 HIGHWAY TO BAY BLVD, SAFETY HARBOR, FL, 34695",124768763,"L"
15498,"107 HILLMAN RD","COLRAIN","MA",1340,42.702428136,-72.753848139,498,"107 HILLMAN RD, COLRAIN, MA, 1340","Match","Exact","107 HILLMAN RD, COLRAIN, MA, 01340",39925991,"L"
15499,"107 HILLVIEW DRIVE","WOODBURY","TN",37190,35.8276521540001,-86.089389951,499,"107 HILLVIEW DRIVE, WOODBURY, TN, 37190","Match","Exact","107 HILLVIEW DR, WOODBURY, TN, 37190",87944938,"R"
15500,"107 HINDMAN STREET","EDGEWOOD","TX",75117,32.7002454560001,-95.8767245,500,"107 HINDMAN STREET, EDGEWOOD, TX, 75117","Match","Exact","107 HINDMAN ST, EDGEWOOD, TX, 75117",646721949,"L"
