"ID","Address","City","State","Zip","lat","long","id","input_address","match_indicator","match_type","matched_address","tiger_line_id","tiger_side"
189501,"3711 WEST 135TH ST","HAWTHORNE","CA",90250,33.909179415,-118.337670847,1,"3711 WEST 135TH ST, HAWTHORNE, CA, 90250","Match","Exact","3711 W 135TH ST, HAWTHORNE, CA, 90250",141657445,"R"
189502,"3711 WEST CHICAGO AVENUE","CHICAGO","IL",60651,41.8954284210001,-87.719215138,2,"3711 WEST CHICAGO AVENUE, CHICAGO, IL, 60651","Match","Exact","3711 W CHICAGO AVE, CHICAGO, IL, 60651",111759408,"L"
189503,"3711 WEST SCOTT STREET","MILWAUKEE","WI",53215,43.0189968440001,-87.960343119,3,"3711 WEST SCOTT STREET, MILWAUKEE, WI, 53215","Match","Exact","3711 W SCOTT ST, MILWAUKEE, WI, 53215",77734731,"L"
189504,"37110 CHARLES TOWN PIKE","HILLSBORO","VA",20132,39.19796037,-77.7195179,4,"37110 CHARLES TOWN PIKE, HILLSBORO, VA, 20132","Match","Exact","37110 CHARLES TOWN PIKE, HILLSBORO, VA, 20132",62319622,"R"
189505,"37114 N THRILL HILL RD","EUSTIS","FL",32736,28.889601015,-81.618179921,5,"37114 N THRILL HILL RD, EUSTIS, FL, 32736","Match","Exact","37114 N THRILL HILL RD, EUSTIS, FL, 32736",94168309,"R"
189506,"37116 POWER DR","HILLIARD","FL",32046,30.7136201970001,-81.926318613,6,"37116 POWER DR, HILLIARD, FL, 32046","Match","Exact","37116 POWER DR, HILLIARD, FL, 32046",648443420,"L"
189507,"37119 N 16TH ST","PHOENIX","AZ",85086,33.8225498560001,-112.047895916,7,"37119 N 16TH ST, PHOENIX, AZ, 85086","Match","Exact","37119 N 16TH ST, PHOENIX, AZ, 85086",128955839,"R"
189508,"3712 77TH AVE SE","MERCER ISLAND","WA",98040,47.577356867,-122.236315197,8,"3712 77TH AVE SE, MERCER ISLAND, WA, 98040","Match","Exact","3712 77TH AVE SE, MERCER ISLAND, WA, 98040",186606057,"L"
189509,"3712 ALDER STREET","EAST CHICAGO","IN",46312,41.6458343370001,-87.442625736,9,"3712 ALDER STREET, EAST CHICAGO, IN, 46312","Match","Exact","3712 ALDER ST, EAST CHICAGO, IN, 46312",98423733,"R"
189510,"3712 APPIAN ST","PLEASANTON","CA",94588,37.692002115,-121.88702762,10,"3712 APPIAN ST, PLEASANTON, CA, 94588","Match","Exact","3712 APPIAN ST, PLEASANTON, CA, 94588",125072349,"R"
189511,"3712 ATLAS STREET","GREENSBORO","NC",27405,36.12584816,-79.795250739,11,"3712 ATLAS STREET, GREENSBORO, NC, 27405","Match","Exact","3712 ATLAS ST, GREENSBORO, NC, 27405",131030314,"R"
189512,"3712 BARRINGTON BRIDGE PL","HENRICO","VA",23233,37.6382391220001,-77.604614053,12,"3712 BARRINGTON BRIDGE PL, HENRICO, VA, 23233","Match","Exact","3712 BARRINGTON BRIDGE PL, HENRICO, VA, 23233",106662331,"L"
189513,"3712 BRODIE WAY","DUBLIN","CA",94568,37.7136827030001,-121.867685687,13,"3712 BRODIE WAY, DUBLIN, CA, 94568","Match","Exact","3712 BRODIE WAY, DUBLIN, CA, 94568",638566108,"R"
189514,"3712 BURBANK AVENUE","MIDDLETOWN","OH",45044,39.4952767520001,-84.36594009,14,"3712 BURBANK AVENUE, MIDDLETOWN, OH, 45044","Match","Exact","3712 BURBANK AVE, MIDDLETOWN, OH, 45044",113809045,"R"
189515,"3712 CARMONA AVE STE 4","LOS ANGELES","CA",90016,34.0194247970001,-118.36717583,15,"3712 CARMONA AVE STE 4, LOS ANGELES, CA, 90016","Match","Exact","3712 CARMONA AVE, LOS ANGELES, CA, 90016",141601346,"L"
189516,"3712 CHAPARRAL DRIVE","ROANOKE","VA",24018,37.2133985630001,-80.00308072,16,"3712 CHAPARRAL DRIVE, ROANOKE, VA, 24018","Match","Exact","3712 CHAPARRAL DR, ROANOKE, VA, 24018",62924312,"L"
189517,"3712 DEL MAR AVE","SAN DIEGO","CA",92106,32.7282594760001,-117.23969509,17,"3712 DEL MAR AVE, SAN DIEGO, CA, 92106","Match","Exact","3712 DEL MAR AVE, SAN DIEGO, CA, 92106",195339889,"R"
189518,"3712 DEL PAYNE LN","PFLUGERVILLE","TX",78660,30.462265057,-97.559623608,18,"3712 DEL PAYNE LN, PFLUGERVILLE, TX, 78660","Match","Exact","3712 DEL PAYNE LN, PFLUGERVILLE, TX, 78660",649127524,"R"
189519,"3712 DUCK AVE","KEY WEST","FL",33040,24.5664599630001,-81.755069485,19,"3712 DUCK AVE, KEY WEST, FL, 33040","Match","Exact","3712 DUCK AVE, KEY WEST, FL, 33040",116475596,"L"
189520,"3712 E PALMER ST","GILBERT","AZ",85298,33.2356488200001,-111.710307453,20,"3712 E PALMER ST, GILBERT, AZ, 85298","Match","Exact","3712 E PALMER ST, GILBERT, AZ, 85298",244029149,"L"
189521,"3712 EAKLEY COURT","RALEIGH","NC",27606,35.770686019,-78.703037275,21,"3712 EAKLEY COURT, RALEIGH, NC, 27606","Match","Exact","3712 EAKLEY CT, RALEIGH, NC, 27606",72501094,"R"
189522,"3712 HERSCHEL STREET","NEW ORLEANS","LA",70114,29.9265307320001,-90.02013656,22,"3712 HERSCHEL STREET, NEW ORLEANS, LA, 70114","Match","Exact","3712 HERSCHEL ST, NEW ORLEANS, LA, 70114",191743048,"L"
189523,"3712 KEENE AVE","BALTIMORE","MD",21206,39.346740976,-76.550937951,23,"3712 KEENE AVE, BALTIMORE, MD, 21206","Match","Exact","3712 KEENE AVE, BALTIMORE, MD, 21206",206449120,"L"
189524,"3712 MANTEO CIR","ORLANDO","FL",32837,NA,NA,24,"3712 MANTEO CIR, ORLANDO, FL, 32837","Tie",NA,NA,NA,NA
189525,"3712 MELODY LN","BACLIFF","TX",77518,29.5131744820001,-94.994161567,25,"3712 MELODY LN, BACLIFF, TX, 77518","Match","Exact","3712 MELODY LN, BACLIFF, TX, 77518",96685487,"R"
189526,"3712 N BROADWAY 470","CHICAGO","IL",60613,NA,NA,26,"3712 N BROADWAY 470, CHICAGO, IL, 60613","No_Match",NA,NA,NA,NA
189527,"3712 N BROADWAY SUITE 288","CHICAGO","IL",60613,NA,NA,27,"3712 N BROADWAY SUITE 288, CHICAGO, IL, 60613","No_Match",NA,NA,NA,NA
189528,"3712 N BROADWAY UNIT 333","CHICAGO","IL",60613,NA,NA,28,"3712 N BROADWAY UNIT 333, CHICAGO, IL, 60613","No_Match",NA,NA,NA,NA
189529,"3712 NASH LN","PLANO","TX",75025,33.0739878970001,-96.764680506,29,"3712 NASH LN, PLANO, TX, 75025","Match","Exact","3712 NASH LN, PLANO, TX, 75025",123531185,"L"
189530,"3712 NE 178TH ST","LAKE FOREST","WA",98155,47.755983132,-122.288892387,30,"3712 NE 178TH ST, LAKE FOREST, WA, 98155","Match","Non_Exact","3712 NE 178TH ST, LK FOREST PK, WA, 98155",186576722,"L"
189531,"3712 NONAVILLE RD","MOUNT JULIET","TN",37122,36.275381069,-86.537151404,31,"3712 NONAVILLE RD, MOUNT JULIET, TN, 37122","Match","Exact","3712 NONAVILLE RD, MOUNT JULIET, TN, 37122",645004514,"L"
189532,"3712 NORTH BROADWAY ROOM 462","CHICAGO","IL",60613,41.94949251,-87.648573244,32,"3712 NORTH BROADWAY ROOM 462, CHICAGO, IL, 60613","Match","Non_Exact","3712 N BROADWAY ST, CHICAGO, IL, 60613",605002953,"L"
189533,"3712 RINGGOLD ROAD BOX 339","CHATTANOOGA","TN",37412,NA,NA,33,"3712 RINGGOLD ROAD BOX 339, CHATTANOOGA, TN, 37412","No_Match",NA,NA,NA,NA
189534,"3712 ROBIN STREET","ANCHORAGE","AK",99504,61.18710273,-149.739203574,34,"3712 ROBIN STREET, ANCHORAGE, AK, 99504","Match","Exact","3712 ROBIN ST, ANCHORAGE, AK, 99504",190803169,"R"
189535,"3712 SUTHERLAND ROAD","SHAKER HEIGHTS","OH",44122,41.4596149650001,-81.5420178429999,35,"3712 SUTHERLAND ROAD, SHAKER HEIGHTS, OH, 44122","Match","Exact","3712 SUTHERLAND RD, SHAKER HEIGHTS, OH, 44122",61128990,"R"
189536,"3712 TALL GRASS DRIVE","NAPERVILLE","IL",60564,41.6980232700001,-88.2172344529999,36,"3712 TALL GRASS DRIVE, NAPERVILLE, IL, 60564","Match","Exact","3712 TALL GRASS DR, NAPERVILLE, IL, 60564",111611012,"L"
189537,"3712 THOROUGHBRED LN","JOLIET","IL",60435,41.58969053,-88.148445685,37,"3712 THOROUGHBRED LN, JOLIET, IL, 60435","Match","Exact","3712 THOROUGHBRED LN, JOLIET, IL, 60435",617398063,"L"
189538,"3712 VERDE GLEN LANE","CUMMING","GA",30040,34.1869178530001,-84.149910769,38,"3712 VERDE GLEN LANE, CUMMING, GA, 30040","Match","Exact","3712 VERDE GLEN LN, CUMMING, GA, 30040",629562440,"L"
189539,"3712 W 54TH ST","LOS ANGELES","CA",90043,33.99306553,-118.338080193,39,"3712 W 54TH ST, LOS ANGELES, CA, 90043","Match","Exact","3712 W 54TH ST, LOS ANGELES, CA, 90043",141654739,"L"
189540,"3712 W LEODRA LN","PHOENIX","AZ",85041,33.388080561,-112.138516824,40,"3712 W LEODRA LN, PHOENIX, AZ, 85041","Match","Exact","3712 W LEODRA LN, PHOENIX, AZ, 85041",647560076,"L"
189541,"3712 WILLIAMSBURG CIRCLE","AUSTIN","TX",78731,30.366826673,-97.753576171,41,"3712 WILLIAMSBURG CIRCLE, AUSTIN, TX, 78731","Match","Exact","3712 WILLIAMSBURG CIR, AUSTIN, TX, 78731",64002689,"R"
189542,"37120 CHARDON ROAD","WILLOUGHBY HILLS","OH",44094,41.588215373,-81.413145345,42,"37120 CHARDON ROAD, WILLOUGHBY HILLS, OH, 44094","Match","Exact","37120 CHARDON RD, WILLOUGHBY HILLS, OH, 44094",137461295,"R"
189543,"37124 OAK STREET A","NEWARK","CA",94560,37.5272645310001,-122.038925602,43,"37124 OAK STREET A, NEWARK, CA, 94560","Match","Exact","37124 OAK ST, NEWARK, CA, 94560",125083881,"L"
189544,"37125 RACHEL LANE","EUSTIS","FL",32736,28.888914508,-81.4786816279999,44,"37125 RACHEL LANE, EUSTIS, FL, 32736","Match","Exact","37125 RACHEL LN, EUSTIS, FL, 32736",94144476,"R"
189545,"3713 AMBER MEADOWS DR","CHARLOTTE","NC",28269,35.372227981,-80.7626084569999,45,"3713 AMBER MEADOWS DR, CHARLOTTE, NC, 28269","Match","Exact","3713 AMBER MEADOWS DR, CHARLOTTE, NC, 28269",611446424,"R"
189546,"3713 BAINBRIDGE TRACE DRIVE","IRONDALE","AL",35210,33.5254372570001,-86.67712678,46,"3713 BAINBRIDGE TRACE DRIVE, IRONDALE, AL, 35210","Match","Exact","3713 BAINBRIDGE TRACE DR, IRONDALE, AL, 35210",637504881,"R"
189547,"3713 BARBERRY","HOUSTON","TX",77051,29.6513304220001,-95.3696021059999,47,"3713 BARBERRY, HOUSTON, TX, 77051","Match","Non_Exact","3713 BARBERRY DR, HOUSTON, TX, 77051",96088918,"L"
189548,"3713 CEDAR LANE","STONECREST","GA",30038,NA,NA,48,"3713 CEDAR LANE, STONECREST, GA, 30038","No_Match",NA,NA,NA,NA
189549,"3713 CLAIRMONT RD","BISMARCK","ND",58503,46.846659253,-100.832569006,49,"3713 CLAIRMONT RD, BISMARCK, ND, 58503","Match","Exact","3713 CLAIRMONT RD, BISMARCK, ND, 58503",643009746,"R"
189550,"3713 COLLINGWOOD ST","MIDLAND","MI",48642,43.630951784,-84.18416927,50,"3713 COLLINGWOOD ST, MIDLAND, MI, 48642","Match","Non_Exact","3713 COLLINGWOOD CT, MIDLAND, MI, 48642",81199361,"R"
189551,"3713 GLEN AVE","BALTIMORE","MD",21215,39.354392261,-76.690778581,51,"3713 GLEN AVE, BALTIMORE, MD, 21215","Match","Exact","3713 GLEN AVE, BALTIMORE, MD, 21215",206403813,"L"
189552,"3713 LEWIS LN","AMARILLO","TX",79109,35.172530905,-101.872765723,52,"3713 LEWIS LN, AMARILLO, TX, 79109","Match","Exact","3713 LEWIS LN, AMARILLO, TX, 79109",182654905,"L"
189553,"3713 METHODIST PARK RD","VALDESE","NC",28690,35.713152746,-81.5601218589999,53,"3713 METHODIST PARK RD, VALDESE, NC, 28690","Match","Exact","3713 METHODIST PARK RD, VALDESE, NC, 28690",37179473,"L"
189554,"3713 N NOTTINGHAM AVE","CHICAGO","IL",60634,41.947467165,-87.804616966,54,"3713 N NOTTINGHAM AVE, CHICAGO, IL, 60634","Match","Exact","3713 N NOTTINGHAM AVE, CHICAGO, IL, 60634",111750338,"R"
189555,"3713 PALISADES DR","PHILADELPHIA","PA",19129,40.0112328820001,-75.195823016,55,"3713 PALISADES DR, PHILADELPHIA, PA, 19129","Match","Exact","3713 PALISADES DR, PHILADELPHIA, PA, 19129",131451142,"R"
189556,"3713 PINE ST","JACKSONVILLE","FL",32205,30.29354167,-81.705986463,56,"3713 PINE ST, JACKSONVILLE, FL, 32205","Match","Exact","3713 PINE ST, JACKSONVILLE, FL, 32205",83913468,"R"
189557,"3713 S GEORGE MASON DR 908W","FALLS CHURCH","VA",22041,38.843282017,-77.115908345,57,"3713 S GEORGE MASON DR 908W, FALLS CHURCH, VA, 22041","Match","Non_Exact","3713 S GEORGE MASON DR, FALLS CHURCH, VA, 22041",649768181,"L"
189558,"3713 S GEORGE MASON DR UNIT 604W","FALLS CHURCH","VA",22041,38.843282017,-77.115908345,58,"3713 S GEORGE MASON DR UNIT 604W, FALLS CHURCH, VA, 22041","Match","Non_Exact","3713 S GEORGE MASON DR, FALLS CHURCH, VA, 22041",649768181,"L"
189559,"3713 SHASTA CIRCLE","RIVERTON","UT",84065,40.535457514,-111.979315197,59,"3713 SHASTA CIRCLE, RIVERTON, UT, 84065","Match","Exact","3713 SHASTA CIR, RIVERTON, UT, 84065",176147424,"L"
189560,"3713 SUMMERFIELD AVE","GRAND ISLAND","NE",68803,NA,NA,60,"3713 SUMMERFIELD AVE, GRAND ISLAND, NE, 68803","No_Match",NA,NA,NA,NA
189561,"3713 TALL CEDARS RD","CEDAR PARK","TX",78613,30.519714418,-97.769537357,61,"3713 TALL CEDARS RD, CEDAR PARK, TX, 78613","Match","Exact","3713 TALL CEDARS RD, CEDAR PARK, TX, 78613",617950260,"L"
189562,"3713 TEMPLE DR","LEXINGTON","KY",40517,37.980560896,-84.517544168,62,"3713 TEMPLE DR, LEXINGTON, KY, 40517","Match","Exact","3713 TEMPLE DR, LEXINGTON, KY, 40517",31924696,"R"
189563,"3713 TOLLGATE TERRACE","FALLS CHURCH","VA",22041,38.843426837,-77.1472919559999,63,"3713 TOLLGATE TERRACE, FALLS CHURCH, VA, 22041","Match","Exact","3713 TOLLGATE TER, FALLS CHURCH, VA, 22041",75981689,"L"
189564,"3713 W ARTHINGTON","CHICAGO","IL",60624,41.8699296070001,-87.718278262,64,"3713 W ARTHINGTON, CHICAGO, IL, 60624","Match","Non_Exact","3713 W ARTHINGTON ST, CHICAGO, IL, 60624",111798635,"L"
189565,"3713 W DAVIDSON LN","PHOENIX","AZ",85051,33.569950744,-112.139903385,65,"3713 W DAVIDSON LN, PHOENIX, AZ, 85051","Match","Exact","3713 W DAVIDSON LN, PHOENIX, AZ, 85051",128196725,"L"
189566,"3713 WASHINGTON AVE","ABINGDON","MD",21009,39.453111188,-76.257148178,66,"3713 WASHINGTON AVE, ABINGDON, MD, 21009","Match","Exact","3713 WASHINGTON AVE, ABINGDON, MD, 21009",191645056,"R"
189567,"3713 WREXHAM ST","FRISCO","TX",75036,33.158809557,-96.918495181,67,"3713 WREXHAM ST, FRISCO, TX, 75036","Match","Exact","3713 WREXHAM ST, FRISCO, TX, 75036",642930881,"R"
189568,"37130 CALICO BLVD B22","YERMO","CA",92398,34.908876374,-116.852818672,68,"37130 CALICO BLVD B22, YERMO, CA, 92398","Match","Exact","37130 CALICO BLVD, YERMO, CA, 92398",144741674,"L"
189569,"37133 CHESTNUT MOUNTAIN ROAD","DAMASCUS","VA",24236,36.623180786,-81.715862736,69,"37133 CHESTNUT MOUNTAIN ROAD, DAMASCUS, VA, 24236","Match","Exact","37133 CHESTNUT MOUNTAIN RD, DAMASCUS, VA, 24236",154355617,"R"
189570,"37135 N CREMONA AVE","LAKE VILLA","IL",60046,42.4028628820001,-88.0384039909999,70,"37135 N CREMONA AVE, LAKE VILLA, IL, 60046","Match","Exact","37135 N CREMONA AVE, LAKE VILLA, IL, 60046",119624443,"R"
189571,"3714 165TH ST","BLUE GRASS","IA",52726,41.5002652970001,-90.836267987,71,"3714 165TH ST, BLUE GRASS, IA, 52726","Match","Exact","3714 165TH ST, BLUE GRASS, IA, 52726",99001213,"R"
189572,"3714 BOWLING LN","ORANGE","TX",77630,30.0911473200001,-93.775824626,72,"3714 BOWLING LN, ORANGE, TX, 77630","Match","Exact","3714 BOWLING LN, ORANGE, TX, 77630",74009122,"L"
189573,"3714 CAMPBELL ST SUITE 8","SANDUSKY","OH",44870,41.413928318,-82.7029615169999,73,"3714 CAMPBELL ST SUITE 8, SANDUSKY, OH, 44870","Match","Exact","3714 CAMPBELL ST, SANDUSKY, OH, 44870",55337710,"R"
189574,"3714 GARFIELD STREET NORTHWEST","WASHINGTON","DC",20007,38.9275266650001,-77.073473902,74,"3714 GARFIELD STREET NORTHWEST, WASHINGTON, DC, 20007","Match","Exact","3714 GARFIELD ST NW, WASHINGTON, DC, 20007",76220845,"L"
189575,"3714 KENNEDY RD","TAYLORVILLE","IL",62568,39.535812585,-89.241778204,75,"3714 KENNEDY RD, TAYLORVILLE, IL, 62568","Match","Exact","3714 KENNEDY RD, TAYLORVILLE, IL, 62568",605367276,"L"
189576,"3714 KIRKWOOD DRIVE","CORNING","CA",96021,39.9051388990001,-122.17849951,76,"3714 KIRKWOOD DRIVE, CORNING, CA, 96021","Match","Non_Exact","3714 KIRKWOOD RD, CORNING, CA, 96021",119385388,"R"
189577,"3714 LATIMORE ROAD","SHAKER HEIGHTS","OH",44122,41.45924712,-81.549330749,77,"3714 LATIMORE ROAD, SHAKER HEIGHTS, OH, 44122","Match","Exact","3714 LATIMORE RD, SHAKER HEIGHTS, OH, 44122",61128821,"R"
189578,"3714 MEADOW SPRING DRIVE","SUGAR LAND","TX",77479,29.5777613970001,-95.6214334919999,78,"3714 MEADOW SPRING DRIVE, SUGAR LAND, TX, 77479","Match","Exact","3714 MEADOW SPRING DR, SUGAR LAND, TX, 77479",643675443,"R"
189579,"3714 MORRIS PL","CINCINNATI","OH",45226,39.113113512,-84.4360345979999,79,"3714 MORRIS PL, CINCINNATI, OH, 45226","Match","Exact","3714 MORRIS PL, CINCINNATI, OH, 45226",103937329,"L"
189580,"3714 N 500 E","PROVO","UT",84604,40.2826607330001,-111.650758519,80,"3714 N 500 E, PROVO, UT, 84604","Match","Exact","3714 N 500 E, PROVO, UT, 84604",134207710,"R"
189581,"3714 N 54TH ST","OMAHA","NE",68104,41.292557962,-95.997495762,81,"3714 N 54TH ST, OMAHA, NE, 68104","Match","Exact","3714 N 54TH ST, OMAHA, NE, 68104",116977898,"L"
189582,"3714 NEWROCK DRIVE","SAN ANTONIO","TX",78230,29.5307946470001,-98.5562545179999,82,"3714 NEWROCK DRIVE, SAN ANTONIO, TX, 78230","Match","Exact","3714 NEWROCK DR, SAN ANTONIO, TX, 78230",101492895,"L"
189583,"3714 NORTH 6TH STREET","MINNEAPOLIS","MN",55412,NA,NA,83,"3714 NORTH 6TH STREET, MINNEAPOLIS, MN, 55412","No_Match",NA,NA,NA,NA
189584,"3714 RUFFIN ROAD","NORTH PRINCE GEORGE","VA",23860,37.2622713970001,-77.243038543,84,"3714 RUFFIN ROAD, NORTH PRINCE GEORGE, VA, 23860","Match","Exact","3714 RUFFIN RD, NORTH PRINCE GEORGE, VA, 23860",649936246,"L"
189585,"3714 S ALSTON AVE","DURHAM","NC",27713,35.927079147,-78.8871024869999,85,"3714 S ALSTON AVE, DURHAM, NC, 27713","Match","Exact","3714 S ALSTON AVE, DURHAM, NC, 27713",71772608,"L"
189586,"3714 SHANNONS GREEN WAY","ALEXANDRIA","VA",22309,38.735272159,-77.094954176,86,"3714 SHANNONS GREEN WAY, ALEXANDRIA, VA, 22309","Match","Exact","3714 SHANNONS GREEN WAY, ALEXANDRIA, VA, 22309",76046571,"L"
189587,"3714 SOUTH OLIVE AVE","WEST PALM BEACH","FL",33405,26.677538702,-80.0524502499999,87,"3714 SOUTH OLIVE AVE, WEST PALM BEACH, FL, 33405","Match","Exact","3714 S OLIVE AVE, WEST PALM BEACH, FL, 33405",115279600,"L"
189588,"3714 VALLEY VIEW LN   APT 3026","IRVING","TX",75062,32.851211752,-97.0215461179999,88,"3714 VALLEY VIEW LN   APT 3026, IRVING, TX, 75062","Match","Exact","3714 VALLEY VIEW LN, IRVING, TX, 75062",103236565,"R"
189589,"3714 W LONE CACTUS","GLENDALE","AZ",85308,33.67902244,-112.140624358,89,"3714 W LONE CACTUS, GLENDALE, AZ, 85308","Match","Non_Exact","3714 W LONE CACTUS DR, GLENDALE, AZ, 85308",128175486,"R"
189590,"3714 WEST VALLEY DR","MISSOURI CITY","TX",77459,29.563752449,-95.543074509,90,"3714 WEST VALLEY DR, MISSOURI CITY, TX, 77459","Match","Exact","3714 W VALLEY DR, MISSOURI CITY, TX, 77459",227745424,"R"
189591,"3714 WOODCREST DR","COLLEYVILLE","TX",76034,32.864265889,-97.171207624,91,"3714 WOODCREST DR, COLLEYVILLE, TX, 76034","Match","Exact","3714 WOODCREST DR, COLLEYVILLE, TX, 76034",641186552,"R"
189592,"37141 COYOTE DRIVE","HILLIARD","FL",32046,30.703138197,-81.898585214,92,"37141 COYOTE DRIVE, HILLIARD, FL, 32046","Match","Exact","37141 COYOTE DR, HILLIARD, FL, 32046",610872818,"R"
189593,"3715 120TH AVE SE","BELLEVUE","WA",98006,47.576425897,-122.179367816,93,"3715 120TH AVE SE, BELLEVUE, WA, 98006","Match","Exact","3715 120TH AVE SE, BELLEVUE, WA, 98006",640606272,"R"
189594,"3715 120TH AVE SE","SEATTLE","WA",98125,NA,NA,94,"3715 120TH AVE SE, SEATTLE, WA, 98125","No_Match",NA,NA,NA,NA
189595,"3715 73RD ST STE 204","JACKSON HEIGHTS","NY",11372,NA,NA,95,"3715 73RD ST STE 204, JACKSON HEIGHTS, NY, 11372","No_Match",NA,NA,NA,NA
189596,"3715 AMBER OAKS DRIVE","HOWELL","MI",48855,42.647965861,-83.9260402319999,96,"3715 AMBER OAKS DRIVE, HOWELL, MI, 48855","Match","Exact","3715 AMBER OAKS DR, HOWELL, MI, 48855",650575945,"L"
189597,"3715 BELT BOULEVARD","RICHMOND","VA",23234,37.474491265,-77.456197297,97,"3715 BELT BOULEVARD, RICHMOND, VA, 23234","Match","Exact","3715 BELT BLVD, RICHMOND, VA, 23234",635775022,"L"
189598,"3715 BENNINGTON CT","CARLSBAD","CA",92010,33.165840948,-117.303649813,98,"3715 BENNINGTON CT, CARLSBAD, CA, 92010","Match","Exact","3715 BENNINGTON CT, CARLSBAD, CA, 92010",195291193,"R"
189599,"3715 BLANDWOOD DR","CHARLOTTE","NC",28217,35.1994981720001,-80.888408348,99,"3715 BLANDWOOD DR, CHARLOTTE, NC, 28217","Match","Exact","3715 BLANDWOOD DR, CHARLOTTE, NC, 28217",70484843,"L"
189600,"3715 BRANDYWINE STREET NW","WASHINGTON","DC",20016,38.9496912700001,-77.072613798,100,"3715 BRANDYWINE STREET NW, WASHINGTON, DC, 20016","Match","Exact","3715 BRANDYWINE ST NW, WASHINGTON, DC, 20016",76220518,"R"
189601,"3715 BRIGHT STAR RD","DOUGLASVILLE","GA",30135,33.705111183,-84.7861746249999,101,"3715 BRIGHT STAR RD, DOUGLASVILLE, GA, 30135","Match","Exact","3715 BRIGHT STAR RD, DOUGLASVILLE, GA, 30135",16647676,"R"
189602,"3715 CC ROAD","MADISON","KS",66860,38.148506185,-96.048802052,102,"3715 CC ROAD, MADISON, KS, 66860","Match","Exact","3715 CC RD, MADISON, KS, 66860",10733075,"L"
189603,"3715 CHELSEA","WEBB CITY","MO",64870,37.112011355,-94.464405735,103,"3715 CHELSEA, WEBB CITY, MO, 64870","Match","Non_Exact","3715 CHELSEA DR, WEBB CITY, MO, 64870",66168569,"L"
189604,"3715 CLARIDGE CT","TEMPLE","TX",76502,31.0659610550001,-97.397461844,104,"3715 CLARIDGE CT, TEMPLE, TX, 76502","Match","Exact","3715 CLARIDGE CT, TEMPLE, TX, 76502",146157739,"L"
189605,"3715 CLASSIC DR S","MEMPHIS","TN",38125,35.051429619,-89.769478335,105,"3715 CLASSIC DR S, MEMPHIS, TN, 38125","Match","Exact","3715 CLASSIC DR S, MEMPHIS, TN, 38125",72967679,"R"
189606,"3715 COKER ST 119","IRVING","TX",75062,32.8534198070001,-96.961232943,106,"3715 COKER ST 119, IRVING, TX, 75062","Match","Exact","3715 COKER ST, IRVING, TX, 75062",102890979,"L"
189607,"3715 COLONIAL TRL SW","LILBURN","GA",30047,33.864700709,-84.0836280139999,107,"3715 COLONIAL TRL SW, LILBURN, GA, 30047","Match","Exact","3715 COLONIAL TRL SW, LILBURN, GA, 30047",88915587,"R"
189608,"3715 E  AUTUMN DR","PETERSBURG","VA",23803,37.2209234260001,-77.4957443759999,108,"3715 E  AUTUMN DR, PETERSBURG, VA, 23803","Match","Exact","3715 E AUTUMN DR, PETERSBURG, VA, 23803",648437957,"R"
189609,"3715 E 29TH ST","BRYAN","TX",77802,30.649515014,-96.334583246,109,"3715 E 29TH ST, BRYAN, TX, 77802","Match","Exact","3715 E 29TH ST, BRYAN, TX, 77802",636471517,"L"
189610,"3715 E BELMONT AVE","VISALIA","CA",93292,36.321245918,-119.251304894,110,"3715 E BELMONT AVE, VISALIA, CA, 93292","Match","Exact","3715 E BELMONT AVE, VISALIA, CA, 93292",607600916,"R"
189611,"3715 EASTMAN ROAD","RANDALLSTOWN","MD",21133,39.3757811470001,-76.799314489,111,"3715 EASTMAN ROAD, RANDALLSTOWN, MD, 21133","Match","Exact","3715 EASTMAN RD, RANDALLSTOWN, MD, 21133",191463276,"R"
189612,"3715 ESTEPONA AVE","DORAL","FL",33178,25.8103093240001,-80.364310082,112,"3715 ESTEPONA AVE, DORAL, FL, 33178","Match","Exact","3715 ESTEPONA AVE, DORAL, FL, 33178",116318027,"R"
189613,"3715 FIELDSTONE ROAD","RANDALLSTOWN","MD",21133,39.36941926,-76.791728608,113,"3715 FIELDSTONE ROAD, RANDALLSTOWN, MD, 21133","Match","Exact","3715 FIELDSTONE RD, RANDALLSTOWN, MD, 21133",191510984,"R"
189614,"3715 HANCOCK DR","DECATUR","GA",30034,33.682994164,-84.236758543,114,"3715 HANCOCK DR, DECATUR, GA, 30034","Match","Exact","3715 HANCOCK DR, DECATUR, GA, 30034",642415603,"R"
189615,"3715 HARDEN ROAD","RALEIGH","NC",27607,35.8131752520001,-78.703391481,115,"3715 HARDEN ROAD, RALEIGH, NC, 27607","Match","Exact","3715 HARDEN RD, RALEIGH, NC, 27607",208360809,"R"
189616,"3715 N 188TH AVE","LITCHFIELD PARK","AZ",85340,33.488632453,-112.462508857,116,"3715 N 188TH AVE, LITCHFIELD PARK, AZ, 85340","Match","Exact","3715 N 188TH AVE, LITCHFIELD PARK, AZ, 85340",243946473,"R"
189617,"3715 NORTHCREST RD SUITE 7","ATLANTA","GA",30340,33.8989619430001,-84.25103656,117,"3715 NORTHCREST RD SUITE 7, ATLANTA, GA, 30340","Match","Exact","3715 NORTHCREST RD, ATLANTA, GA, 30340",23407085,"R"
189618,"3715 NORTHSIDE PARKWAY SUITE 2-600","ATLANTA","GA",30327,33.855249809,-84.431342904,118,"3715 NORTHSIDE PARKWAY SUITE 2-600, ATLANTA, GA, 30327","Match","Non_Exact","3715 NORTHSIDE PKWY NW, ATLANTA, GA, 30327",618353372,"R"
189619,"3715 NORTHSIDE PKWY 100 STE 500","ATLANTA","GA",30327,33.855249809,-84.431342904,119,"3715 NORTHSIDE PKWY 100 STE 500, ATLANTA, GA, 30327","Match","Non_Exact","3715 NORTHSIDE PKWY NW, ATLANTA, GA, 30327",618353372,"R"
189620,"3715 NORTHSIDE PKWY B 100 STE 500","ATLANTA","GA",30327,33.855249809,-84.431342904,120,"3715 NORTHSIDE PKWY B 100 STE 500, ATLANTA, GA, 30327","Match","Non_Exact","3715 NORTHSIDE PKWY NW, ATLANTA, GA, 30327",618353372,"R"
189621,"3715 NORTHSIDE PKWY STE 1-320","ATLANTA","GA",30327,33.855249809,-84.431342904,121,"3715 NORTHSIDE PKWY STE 1-320, ATLANTA, GA, 30327","Match","Non_Exact","3715 NORTHSIDE PKWY NW, ATLANTA, GA, 30327",618353372,"R"
189622,"3715 OAK LANE","ASHTABULA","OH",44004,41.8275212950001,-80.807859332,122,"3715 OAK LANE, ASHTABULA, OH, 44004","Match","Exact","3715 OAK LN, ASHTABULA, OH, 44004",117330963,"R"
189623,"3715 PENNSYLVANIA AVE","DUBUQUE","IA",52002,42.50109811,-90.733992453,123,"3715 PENNSYLVANIA AVE, DUBUQUE, IA, 52002","Match","Exact","3715 PENNSYLVANIA AVE, DUBUQUE, IA, 52002",648276468,"R"
189624,"3715 SOUTH 200 WEST","NIBLEY","UT",84321,41.665420382,-111.837932969,124,"3715 SOUTH 200 WEST, NIBLEY, UT, 84321","Match","Exact","3715 S 200 W, NIBLEY, UT, 84321",628886992,"R"
189625,"3715 SUFFOLK STREET","DURHAM","NC",27707,35.954398763,-78.947427846,125,"3715 SUFFOLK STREET, DURHAM, NC, 27707","Match","Exact","3715 SUFFOLK ST, DURHAM, NC, 27707",71740044,"L"
189626,"3715 SW 29TH ST STE 200","TOPEKA","KS",66614,39.014750142,-95.7233382749999,126,"3715 SW 29TH ST STE 200, TOPEKA, KS, 66614","Match","Non_Exact","3715 SW 29TH ST, TOPEKA, KS, 66614",17943343,"L"
189627,"3715 SW GILBERT PL","PENDLETON","OR",97801,NA,NA,127,"3715 SW GILBERT PL, PENDLETON, OR, 97801","No_Match",NA,NA,NA,NA
189628,"3715 TRUMAN ST","COLUMBIA","SC",29204,34.045916494,-81.0020220869999,128,"3715 TRUMAN ST, COLUMBIA, SC, 29204","Match","Exact","3715 TRUMAN ST, COLUMBIA, SC, 29204",71821268,"L"
189629,"3715 W WASHINGTON STREET","SNOVER","MI",48472,43.4609651110001,-82.979375443,129,"3715 W WASHINGTON STREET, SNOVER, MI, 48472","Match","Exact","3715 WASHINGTON ST, SNOVER, MI, 48472",111051504,"R"
189630,"3715 W WISCONSIN AVE - 4","TAMPA","FL",33611,27.8820063270001,-82.504685178,130,"3715 W WISCONSIN AVE - 4, TAMPA, FL, 33611","Match","Non_Exact","3715 W WISCONSIN AVE, TAMPA, FL, 33611",104528821,"R"
189631,"3715 WEST SAINT KATERI DRIVE","PHOENIX","AZ",85041,33.385363711,-112.138804999,131,"3715 WEST SAINT KATERI DRIVE, PHOENIX, AZ, 85041","Match","Exact","3715 W SAINT KATERI DR, PHOENIX, AZ, 85041",619895109,"L"
189632,"3715 WILLIAMS POINT DR","CUMMING","GA",30028,34.264960568,-84.197526242,132,"3715 WILLIAMS POINT DR, CUMMING, GA, 30028","Match","Exact","3715 WILLIAMS POINT DR, CUMMING, GA, 30028",646267322,"L"
189633,"3715 WILSON CREEK RD","BERKSHIRE","NY",34609,42.291806427,-76.1438567929999,133,"3715 WILSON CREEK RD, BERKSHIRE, NY, 34609","Match","Non_Exact","3715 WILSON CREEK RD, BERKSHIRE, NY, 13736",46716847,"L"
189634,"3715 WINDY HILL DRIVE SE","CONYERS","GA",30013,33.5949232450001,-83.996397012,134,"3715 WINDY HILL DRIVE SE, CONYERS, GA, 30013","Match","Exact","3715 WINDY HILL DR SE, CONYERS, GA, 30013",23747016,"L"
189635,"3715 WINFIELD COURT SW","ATLANTA","GA",30331,33.713291154,-84.5023387639999,135,"3715 WINFIELD COURT SW, ATLANTA, GA, 30331","Match","Exact","3715 WINFIELD CT SW, ATLANTA, GA, 30331",618354118,"L"
189636,"3715 WOODVILLE HWY","TALLAHASSEE","FL",32305,30.391437754,-84.277053689,136,"3715 WOODVILLE HWY, TALLAHASSEE, FL, 32305","Match","Exact","3715 WOODVILLE HWY, TALLAHASSEE, FL, 32305",82852360,"L"
189637,"3716 38TH AVE NE","ESMOND","ND",58332,47.954364674,-99.7695746209999,137,"3716 38TH AVE NE, ESMOND, ND, 58332","Match","Exact","3716 38TH AVE N E, ESMOND, ND, 58332",181324417,"L"
189638,"3716 50TH STREET","DES MOINES","IA",50310,41.6285498240001,-93.687746048,138,"3716 50TH STREET, DES MOINES, IA, 50310","Match","Exact","3716 50TH ST, DES MOINES, IA, 50310",65779106,"L"
189639,"3716 53RD STREET","SACRAMENTO","CA",95820,38.5405180990001,-121.443955552,139,"3716 53RD STREET, SACRAMENTO, CA, 95820","Match","Exact","3716 53RD ST, SACRAMENTO, CA, 95820",133336136,"R"
189640,"3716 ALE CIR","ATLANTA","GA",30344,33.654751059,-84.488916863,140,"3716 ALE CIR, ATLANTA, GA, 30344","Match","Exact","3716 ALE CIR, ATLANTA, GA, 30344",647331624,"L"
189641,"3716 ARAPAHO PLACE","CARLSBAD","CA",92010,33.1537705280001,-117.290046249,141,"3716 ARAPAHO PLACE, CARLSBAD, CA, 92010","Match","Exact","3716 ARAPAHO PL, CARLSBAD, CA, 92010",641622944,"L"
189642,"3716 BARRINGTON RD","ROCKFORD","IL",61107,42.281302241,-89.0378285479999,142,"3716 BARRINGTON RD, ROCKFORD, IL, 61107","Match","Exact","3716 BARRINGTON RD, ROCKFORD, IL, 61107",49262073,"L"
189643,"3716 BIG SPRINGS ROAD","DECATUR","GA",30034,33.6915799500001,-84.236588495,143,"3716 BIG SPRINGS ROAD, DECATUR, GA, 30034","Match","Exact","3716 BIG SPRINGS RD, DECATUR, GA, 30034",23386674,"L"
189644,"3716 DEER XING","MEMPHIS","TN",38115,35.0470180510001,-89.844158882,144,"3716 DEER XING, MEMPHIS, TN, 38115","Match","Exact","3716 DEER CROSSING, MEMPHIS, TN, 38115",72965261,"L"
189645,"3716 E MAFFEO RD","PHOENIX","AZ",85050,33.6886715310001,-111.998668812,145,"3716 E MAFFEO RD, PHOENIX, AZ, 85050","Match","Exact","3716 E MAFFEO RD, PHOENIX, AZ, 85050",640949301,"L"
189646,"3716 E TRADITIONS COURT","HOUSTON","TX",77082,29.7139433930001,-95.661057955,146,"3716 E TRADITIONS COURT, HOUSTON, TX, 77082","Match","Exact","3716 E TRADITIONS CT, HOUSTON, TX, 77082",96296441,"L"
189647,"3716 E VETERANS MEMORIAL BLVD STE C","KILLEEN","TX",76541,NA,NA,147,"3716 E VETERANS MEMORIAL BLVD STE C, KILLEEN, TX, 76541","No_Match",NA,NA,NA,NA
189648,"3716 HAVEN AVE","RACINE","WI",53405,42.72494347,-87.8239385529999,148,"3716 HAVEN AVE, RACINE, WI, 53405","Match","Exact","3716 HAVEN AVE, RACINE, WI, 53405",77909211,"R"
189649,"3716 HILLSDALE ROAD","BALTIMORE","MD",21207,39.332993392,-76.693219434,149,"3716 HILLSDALE ROAD, BALTIMORE, MD, 21207","Match","Exact","3716 HILLSDALE RD, BALTIMORE, MD, 21207",206405214,"L"
189650,"3716 LINVILLE GORGE WAY","CARY","NC",27519,35.773409649,-78.890605433,150,"3716 LINVILLE GORGE WAY, CARY, NC, 27519","Match","Exact","3716 LINVILLE GORGE WAY, CARY, NC, 27519",646841386,"R"
189651,"3716 N 12TH STREET","PHOENIX","AZ",85014,33.490811433,-112.05634024,151,"3716 N 12TH STREET, PHOENIX, AZ, 85014","Match","Exact","3716 N 12TH ST, PHOENIX, AZ, 85014",128209054,"L"
189652,"3716 N WOODLAWN AVE","METAIRIE","LA",70006,30.0093100880001,-90.184154137,152,"3716 N WOODLAWN AVE, METAIRIE, LA, 70006","Match","Exact","3716 N WOODLAWN AVE, METAIRIE, LA, 70006",93497530,"L"
189653,"3716 PALOS VERDES WAY","S SAN FRANCISCO","CA",94080,37.6465634640001,-122.462443994,153,"3716 PALOS VERDES WAY, S SAN FRANCISCO, CA, 94080","Match","Exact","3716 PALOS VERDES WAY, S SAN FRAN, CA, 94080",192371326,"R"
189654,"3716 ST ANDREWS PL","ELKHART","IN",46517,41.644913117,-85.9822757599999,154,"3716 ST ANDREWS PL, ELKHART, IN, 46517","Match","Exact","3716 SAINT ANDREWS PL, ELKHART, IN, 46517",7761714,"R"
189655,"3716 TENTH AVE STE 11G","NEW YORK","NY",10034,40.8595284730001,-73.922519213,155,"3716 TENTH AVE STE 11G, NEW YORK, NY, 10034","Match","Exact","3716 10TH AVE, NEW YORK, NY, 10034",610067341,"L"
189656,"3716 VAUCLUSE DR  APT 98","EULESS","TX",76040,32.8168914870001,-97.0725377969999,156,"3716 VAUCLUSE DR  APT 98, EULESS, TX, 76040","Match","Exact","3716 VAUCLUSE DR, EULESS, TX, 76040",102110013,"L"
189657,"3716 W W T HARRIS BLVD","CHARLOTTE","NC",28269,35.333003579,-80.793426601,157,"3716 W W T HARRIS BLVD, CHARLOTTE, NC, 28269","Match","Exact","3716 W W T HARRIS BLVD, CHARLOTTE, NC, 28269",642649783,"R"
189658,"3716 WEST DICKENS AVE","CHICAGO","IL",60647,41.9190810950001,-87.719802563,158,"3716 WEST DICKENS AVE, CHICAGO, IL, 60647","Match","Exact","3716 W DICKENS AVE, CHICAGO, IL, 60647",111758806,"R"
189659,"3716 WEST GARRISON AVE","BALTIMORE","MD",21215,39.3443203590001,-76.678575875,159,"3716 WEST GARRISON AVE, BALTIMORE, MD, 21215","Match","Exact","3716 W GARRISON AVE, BALTIMORE, MD, 21215",206405393,"R"
189660,"3716 WEST WT HARRIS BOULEVARD STE A","CHARLOTTE","NC",28269,35.3330040060001,-80.7934138159999,160,"3716 WEST WT HARRIS BOULEVARD STE A, CHARLOTTE, NC, 28269","Match","Non_Exact","3716 W W T HARRIS BLVD, CHARLOTTE, NC, 28269",642649783,"R"
189661,"3717 1/2 MILITARY AVE","LOS ANGELES","CA",90034,34.0163503960001,-118.415243676,161,"3717 1/2 MILITARY AVE, LOS ANGELES, CA, 90034","Match","Exact","3717 MILITARY AVE, LOS ANGELES, CA, 90034",141573887,"R"
189662,"3717 166TH PL NE","ARLINGTON","WA",98223,NA,NA,162,"3717 166TH PL NE, ARLINGTON, WA, 98223","No_Match",NA,NA,NA,NA
189663,"3717 BEAUX ST","CHARLOTTE","NC",28208,35.229572315,-80.901544631,163,"3717 BEAUX ST, CHARLOTTE, NC, 28208","Match","Exact","3717 BEAUX ST, CHARLOTTE, NC, 28208",70475679,"L"
189664,"3717 BOSTON ST STE 367","BALTIMORE","MD",21224,39.277181366,-76.56323566,164,"3717 BOSTON ST STE 367, BALTIMORE, MD, 21224","Match","Exact","3717 BOSTON ST, BALTIMORE, MD, 21224",206439533,"R"
189665,"3717 BOSTON STREET NUM 345","BALTIMORE","MD",21224,39.277181366,-76.56323566,165,"3717 BOSTON STREET NUM 345, BALTIMORE, MD, 21224","Match","Exact","3717 BOSTON ST, BALTIMORE, MD, 21224",206439533,"R"
189666,"3717 BREAN DOWN RD","PFLUGERVILLE","TX",78660,30.464808094,-97.559083728,166,"3717 BREAN DOWN RD, PFLUGERVILLE, TX, 78660","Match","Exact","3717 BREAN DOWN RD, PFLUGERVILLE, TX, 78660",641802865,"R"
189667,"3717 CAROLYN ROAD","FORT WORTH","TX",76109,32.6953110590001,-97.3681721949999,167,"3717 CAROLYN ROAD, FORT WORTH, TX, 76109","Match","Exact","3717 CAROLYN RD, FORT WORTH, TX, 76109",101886369,"L"
189668,"3717 DANDRIDGE CIRCLE","MATTHEWS","NC",28105,35.1440503860001,-80.689579173,168,"3717 DANDRIDGE CIRCLE, MATTHEWS, NC, 28105","Match","Exact","3717 DANDRIDGE CIR, MATTHEWS, NC, 28105",70496624,"R"
189669,"3717 INGOMAR STREET NW","WASHINGTON","DC",20015,38.958366174,-77.0723776519999,169,"3717 INGOMAR STREET NW, WASHINGTON, DC, 20015","Match","Exact","3717 INGOMAR ST NW, WASHINGTON, DC, 20015",76220322,"R"
189670,"3717 KINGSGATE DRIVE","HEPHZIBAH","GA",30815,33.3701741690001,-82.071083777,170,"3717 KINGSGATE DRIVE, HEPHZIBAH, GA, 30815","Match","Exact","3717 KINGSGATE DR, HEPHZIBAH, GA, 30815",632672865,"R"
189671,"3717 KIRKSVILLE RD","LANCASTER","KY",40444,NA,NA,171,"3717 KIRKSVILLE RD, LANCASTER, KY, 40444","No_Match",NA,NA,NA,NA
189672,"3717 KRYSTLE CT","HILLSBOROUGH","NC",27278,36.112968751,-79.049633563,172,"3717 KRYSTLE CT, HILLSBOROUGH, NC, 27278","Match","Exact","3717 KRYSTLE CT, HILLSBOROUGH, NC, 27278",72412011,"R"
189673,"3717 LEE CT","LEAVENWORTH","KS",66048,39.2805219360001,-94.956921795,173,"3717 LEE CT, LEAVENWORTH, KS, 66048","Match","Exact","3717 LEE CT, LEAVENWORTH, KS, 66048",600577656,"R"
189674,"3717 MADRID DRIVE","FORT WORTH","TX",76133,32.645878458,-97.3735215309999,174,"3717 MADRID DRIVE, FORT WORTH, TX, 76133","Match","Exact","3717 MADRID DR, FORT WORTH, TX, 76133",101893695,"L"
189675,"3717 MCCONNELLSVILLE RD","BLOSSVALE","NY",13308,43.280884648,-75.650582855,175,"3717 MCCONNELLSVILLE RD, BLOSSVALE, NY, 13308","Match","Exact","3717 MCCONNELLSVILLE RD, BLOSSVALE, NY, 13308",171536660,"R"
189676,"3717 ORCHARD AVE","BENSALEM","PA",19020,40.1414543230001,-74.948742087,176,"3717 ORCHARD AVE, BENSALEM, PA, 19020","Match","Exact","3717 ORCHARD AVE, BENSALEM, PA, 19020",134711490,"R"
189677,"3717 OSBORNE DRIVE","WARRENTON","VA",20187,38.7426665250001,-77.668561392,177,"3717 OSBORNE DRIVE, WARRENTON, VA, 20187","Match","Exact","3717 OSBORNE DR, WARRENTON, VA, 20187",615866573,"L"
189678,"3717 OTTO WAY","AUBURN","CA",95602,38.9880495670001,-121.080081562,178,"3717 OTTO WAY, AUBURN, CA, 95602","Match","Exact","3717 OTTO WAY, AUBURN, CA, 95602",106767072,"L"
189679,"3717 RUNDO DRIVE","ORLANDO","FL",32818,28.592575546,-81.471548693,179,"3717 RUNDO DRIVE, ORLANDO, FL, 32818","Match","Exact","3717 RUNDO DR, ORLANDO, FL, 32818",94268838,"R"
189680,"3717 S LA BREA AVE APT 739","LOS ANGELES","CA",90016,NA,NA,180,"3717 S LA BREA AVE APT 739, LOS ANGELES, CA, 90016","No_Match",NA,NA,NA,NA
189681,"3717 SCHOFIELD AVE","WESTON","WI",54476,44.904793517,-89.5778255119999,181,"3717 SCHOFIELD AVE, WESTON, WI, 54476","Match","Exact","3717 SCHOFIELD AVE, WESTON, WI, 54476",117140465,"R"
189682,"3717 SOUTH 120TH STREET","OMAHA","NE",68144,41.222309825,-96.100724156,182,"3717 SOUTH 120TH STREET, OMAHA, NE, 68144","Match","Exact","3717 S 120TH ST, OMAHA, NE, 68144",116996859,"L"
189683,"3717 TELEGRAPH AVE","OAKLAND","CA",94609,37.825820304,-122.265457146,183,"3717 TELEGRAPH AVE, OAKLAND, CA, 94609","Match","Exact","3717 TELEGRAPH AVE, OAKLAND, CA, 94609",606071684,"L"
189684,"3717 TOLLGATE TERRACE","FALLS CHURCH","VA",22041,38.843367291,-77.1473438369999,184,"3717 TOLLGATE TERRACE, FALLS CHURCH, VA, 22041","Match","Exact","3717 TOLLGATE TER, FALLS CHURCH, VA, 22041",75981689,"L"
189685,"3717 W STREET NW","WASHINGTON","DC",20007,38.9191762930001,-77.074267849,185,"3717 W STREET NW, WASHINGTON, DC, 20007","Match","Exact","3717 W ST NW, WASHINGTON, DC, 20007",76221014,"R"
189686,"3717 WEST 3RD STREET  SUITE 208","LOS ANGELES","CA",90020,34.0690366160001,-118.296931935,186,"3717 WEST 3RD STREET  SUITE 208, LOS ANGELES, CA, 90020","Match","Exact","3717 W 3RD ST, LOS ANGELES, CA, 90020",141604905,"R"
189687,"3717 WEST CUSTER DRIVE","BOISE","ID",83705,43.590583087,-116.227894191,187,"3717 WEST CUSTER DRIVE, BOISE, ID, 83705","Match","Non_Exact","3717 CUSTER DR, BOISE, ID, 83705",117863717,"L"
189688,"3717 WOOD PIGEON DRIVE","MESQUITE","TX",75181,32.7245680610001,-96.5327565169999,188,"3717 WOOD PIGEON DRIVE, MESQUITE, TX, 75181","Match","Non_Exact","3717 WOOD PIGEON, MESQUITE, TX, 75181",103178898,"R"
189689,"37176 MURPHY WEBB AVENUE","PRAIRIEVILLE","LA",70769,NA,NA,189,"37176 MURPHY WEBB AVENUE, PRAIRIEVILLE, LA, 70769","No_Match",NA,NA,NA,NA
189690,"37177 FREMONT BLVD SUITE 110","FREMONT","CA",94536,37.559411766,-122.009417583,190,"37177 FREMONT BLVD SUITE 110, FREMONT, CA, 94536","Match","Exact","37177 FREMONT BLVD, FREMONT, CA, 94536",125028077,"R"
189691,"37178 GRINDSTONE TRAIL","NEW HAVEN","MI",48048,42.725975266,-82.737918173,191,"37178 GRINDSTONE TRAIL, NEW HAVEN, MI, 48048","Match","Exact","37178 GRINDSTONE TRL, NEW HAVEN, MI, 48048",650659700,"L"
189692,"3718 1/2 DRAKE AVE","CINCINNATI","OH",45209,39.1451941030001,-84.4355811519999,192,"3718 1/2 DRAKE AVE, CINCINNATI, OH, 45209","Match","Exact","3718 DRAKE AVE, CINCINNATI, OH, 45209",103930988,"R"
189693,"3718 CALDWELL RIDGE PARKWAY","CHARLOTTE","NC",28213,35.2965571670001,-80.6893362389999,193,"3718 CALDWELL RIDGE PARKWAY, CHARLOTTE, NC, 28213","Match","Exact","3718 CALDWELL RIDGE PKWY, CHARLOTTE, NC, 28213",70582712,"R"
189694,"3718 DUNKIRK STREET","CINCINNATI","OH",45220,39.1516760860001,-84.505870237,194,"3718 DUNKIRK STREET, CINCINNATI, OH, 45220","Match","Exact","3718 DUNKIRK ST, CINCINNATI, OH, 45220",103924495,"R"
189695,"3718 HARRISON","INKSTER","MI",48141,42.282283023,-83.319319692,195,"3718 HARRISON, INKSTER, MI, 48141","Match","Non_Exact","3718 HARRISON ST, INKSTER, MI, 48141",95434587,"R"
189696,"3718 HUNTERS POINT STREET","SAN ANTONIO","TX",78230,29.5590273830001,-98.556439016,196,"3718 HUNTERS POINT STREET, SAN ANTONIO, TX, 78230","Match","Exact","3718 HUNTERS PT ST, SAN ANTONIO, TX, 78230",101492128,"L"
189697,"3718 MINEOLA DR","CHESTER","VA",23831,37.3723952190001,-77.440336477,197,"3718 MINEOLA DR, CHESTER, VA, 23831","Match","Exact","3718 MINEOLA DR, CHESTER, VA, 23831",201580694,"L"
189698,"3718 PLYLER MILL ROAD","MONROE","NC",28112,34.9046783900001,-80.578217684,198,"3718 PLYLER MILL ROAD, MONROE, NC, 28112","Match","Exact","3718 PLYLER MILL RD, MONROE, NC, 28112",642591495,"L"
189699,"3718 RHODE ISLAND AVENUE SOUTH","MINNEAPOLIS","MN",55426,44.9360847200001,-93.37823702,199,"3718 RHODE ISLAND AVENUE SOUTH, MINNEAPOLIS, MN, 55426","Match","Exact","3718 RHODE ISLAND AVE S, MINNEAPOLIS, MN, 55426",43624991,"R"
189700,"3718 RIDGEMONT STREET","BAKERSFIELD","CA",93313,35.3024211480001,-119.044294463,200,"3718 RIDGEMONT STREET, BAKERSFIELD, CA, 93313","Match","Exact","3718 RIDGEMONT ST, BAKERSFIELD, CA, 93313",616478541,"R"
189701,"3718 RIVERMIST DRIVE","RALEIGH","NC",27610,35.7409027160001,-78.588657967,201,"3718 RIVERMIST DRIVE, RALEIGH, NC, 27610","Match","Exact","3718 RIVERMIST DR, RALEIGH, NC, 27610",612824661,"R"
189702,"3718 ST CLAUDE AVE","NEW ORLEANS","LA",70117,29.9661549080001,-90.037879194,202,"3718 ST CLAUDE AVE, NEW ORLEANS, LA, 70117","Match","Exact","3718 SAINT CLAUDE AVE, NEW ORLEANS, LA, 70117",191717244,"R"
189703,"3718 SUMMIT STREET","OMAHA","NE",68112,41.3228722530001,-95.968456953,203,"3718 SUMMIT STREET, OMAHA, NE, 68112","Match","Exact","3718 SUMMIT ST, OMAHA, NE, 68112",636296079,"R"
189704,"3718 SW CORBETT AVE","PORTLAND","OR",97239,45.4963387240001,-122.675934854,204,"3718 SW CORBETT AVE, PORTLAND, OR, 97239","Match","Exact","3718 SW CORBETT AVE, PORTLAND, OR, 97239",157507973,"L"
189705,"3718 WEST HILDA PLACE","MILWAUKEE","WI",53215,43.0206389940001,-87.960442429,205,"3718 WEST HILDA PLACE, MILWAUKEE, WI, 53215","Match","Exact","3718 W HILDA PL, MILWAUKEE, WI, 53215",77734727,"R"
189706,"37185 W COUNTY LINE RD","HILL CITY","MN",55748,47.0292590510001,-93.636644517,206,"37185 W COUNTY LINE RD, HILL CITY, MN, 55748","Match","Exact","37185 W COUNTY LINE RD, HILL CITY, MN, 55748",635591411,"R"
189707,"3719  STONECREEK CIRCLE SW","CONYERS","GA",30094,33.6723458220001,-84.090267152,207,"3719  STONECREEK CIRCLE SW, CONYERS, GA, 30094","Match","Non_Exact","3719 STONECREEK CIR, CONYERS, GA, 30094",619378831,"R"
189708,"3719 74TH STREET","JACKSON HEIGHTS","NY",11372,NA,NA,208,"3719 74TH STREET, JACKSON HEIGHTS, NY, 11372","No_Match",NA,NA,NA,NA
189709,"3719 ANIOTON CT","CINCINNATI","OH",45227,39.169456665,-84.417439798,209,"3719 ANIOTON CT, CINCINNATI, OH, 45227","Match","Exact","3719 ANIOTON CT, CINCINNATI, OH, 45227",103931850,"R"
189710,"3719 AVERY PLACE","LOVELAND","CO",80538,40.4301321550001,-105.055943309,210,"3719 AVERY PLACE, LOVELAND, CO, 80538","Match","Exact","3719 AVERY PL, LOVELAND, CO, 80538",188550225,"R"
189711,"3719 BARTONS LANE","SUGAR LAND","TX",77479,29.575252645,-95.594864026,211,"3719 BARTONS LANE, SUGAR LAND, TX, 77479","Match","Exact","3719 BARTONS LN, SUGAR LAND, TX, 77479",78269055,"R"
189712,"3719 COLLINGWOOD","MIDLAND","MI",48642,43.6309976250001,-84.1841684509999,212,"3719 COLLINGWOOD, MIDLAND, MI, 48642","Match","Non_Exact","3719 COLLINGWOOD CT, MIDLAND, MI, 48642",81199361,"R"
189713,"3719 E 57TH STREET","CLEVELAND","OH",44105,41.4570959930001,-81.649803628,213,"3719 E 57TH STREET, CLEVELAND, OH, 44105","Match","Exact","3719 E 57TH ST, CLEVELAND, OH, 44105",61118076,"L"
189714,"3719 EASTMONT DR","SOUTH BEND","IN",46628,41.7266096560001,-86.270729696,214,"3719 EASTMONT DR, SOUTH BEND, IN, 46628","Match","Exact","3719 EASTMONT DR, SOUTH BEND, IN, 46628",8053414,"L"
189715,"3719 HAYNES ROAD","BARTLETT","TN",38133,35.227112188,-89.8018325319999,215,"3719 HAYNES ROAD, BARTLETT, TN, 38133","Match","Exact","3719 HAYNES RD, BARTLETT, TN, 38133",72963909,"R"
189716,"3719 HUMMER RD","ANNANDALE","VA",22003,38.8430596690001,-77.205886467,216,"3719 HUMMER RD, ANNANDALE, VA, 22003","Match","Exact","3719 HUMMER RD, ANNANDALE, VA, 22003",75980013,"L"
189717,"3719 KING AND QUEEN DR","RICHMOND","VA",23223,37.5738787920001,-77.381430821,217,"3719 KING AND QUEEN DR, RICHMOND, VA, 23223","Match","Exact","3719 KING AND QUEEN DR, RICHMOND, VA, 23223",106665916,"R"
189718,"3719 LOCUST AVE","LOUISVILLE","KY",40299,38.191005536,-85.573769641,218,"3719 LOCUST AVE, LOUISVILLE, KY, 40299","Match","Exact","3719 LOCUST AVE, LOUISVILLE, KY, 40299",96866762,"R"
189719,"3719 N 12TH ST","PHOENIX","AZ",85014,33.490394103,-112.056329179,219,"3719 N 12TH ST, PHOENIX, AZ, 85014","Match","Exact","3719 N 12TH ST, PHOENIX, AZ, 85014",128209054,"R"
189720,"3719 N PEARL ST","KINGMAN","AZ",86409,35.2308559200001,-114.019092471,220,"3719 N PEARL ST, KINGMAN, AZ, 86409","Match","Exact","3719 N PEARL ST, KINGMAN, AZ, 86409",190313268,"L"
189721,"3719 NORTH PERSHING DRIVE","ARLINGTON","VA",22203,38.875510166,-77.1016354819999,221,"3719 NORTH PERSHING DRIVE, ARLINGTON, VA, 22203","Match","Exact","3719 N PERSHING DR, ARLINGTON, VA, 22203",652314734,"R"
189722,"3719 OHIO AVENUE APT 23","TAMPA","FL",33611,27.880062454,-82.504771083,222,"3719 OHIO AVENUE APT 23, TAMPA, FL, 33611","Match","Exact","3719 OHIO AVE, TAMPA, FL, 33611",104528826,"R"
189723,"3719 PARKHURST WAY","NOTTINGHAM","MD",21236,39.4116676080001,-76.488883475,223,"3719 PARKHURST WAY, NOTTINGHAM, MD, 21236","Match","Exact","3719 PARKHURST WAY, NOTTINGHAM, MD, 21236",191479353,"L"
189724,"3719 SE 33RD PL APT 3","PORTLAND","CA",97202,NA,NA,224,"3719 SE 33RD PL APT 3, PORTLAND, CA, 97202","No_Match",NA,NA,NA,NA
189725,"3719 SEMINARY STREET","CHATTANOOGA","TN",37410,35.005459359,-85.3068676509999,225,"3719 SEMINARY STREET, CHATTANOOGA, TN, 37410","Match","Exact","3719 SEMINARY ST, CHATTANOOGA, TN, 37410",605453862,"R"
189726,"37195 CORVETTE DR","PRAIRIEVILLE","LA",70769,30.3199191960001,-90.983695677,226,"37195 CORVETTE DR, PRAIRIEVILLE, LA, 70769","Match","Exact","37195 CORVETTE DR, PRAIRIEVILLE, LA, 70769",646628949,"L"
189727,"372 1/2 CENTER GRANGE RD","MONACA","PA",15061,40.6537427800001,-80.2913637729999,227,"372 1/2 CENTER GRANGE RD, MONACA, PA, 15061","Match","Exact","372 CENTER GRANGE RD, MONACA, PA, 15061",52562605,"R"
189728,"372 5TH AVE APT 5M","NEW YORK","NY",10018,40.749156445,-73.984045265,228,"372 5TH AVE APT 5M, NEW YORK, NY, 10018","Match","Exact","372 5TH AVE, NEW YORK, NY, 10018",59654379,"L"
189729,"372 7TH AVE STE 100","SAN FRANCISCO","CA",94118,37.7816017590001,-122.465389416,229,"372 7TH AVE STE 100, SAN FRANCISCO, CA, 94118","Match","Exact","372 7TH AVE, SAN FRANCISCO, CA, 94118",192281806,"L"
189730,"372 ASHFORD CIRCLE UNIT 2","BARTLETT","IL",60103,41.9448956580001,-88.1704089579999,230,"372 ASHFORD CIRCLE UNIT 2, BARTLETT, IL, 60103","Match","Exact","372 ASHFORD CIR, BARTLETT, IL, 60103",112576873,"R"
189731,"372 BAYVIEW CIRCLE","SAN FRANCISCO","CA",94124,37.7335832480001,-122.396826709,231,"372 BAYVIEW CIRCLE, SAN FRANCISCO, CA, 94124","Match","Exact","372 BAYVIEW CIR, SAN FRANCISCO, CA, 94124",192289386,"L"
189732,"372 BELLE POINT DR","ST. PETE BEACH","FL",33706,27.714691633,-82.730352232,232,"372 BELLE POINT DR, ST. PETE BEACH, FL, 33706","Match","Exact","372 BELLE POINT DR, SAINT PETE BEACH, FL, 33706",124708733,"L"
189733,"372 BIRDIE CT","ALAMOGORDO","NM",88310,32.8544239780001,-105.958082084,233,"372 BIRDIE CT, ALAMOGORDO, NM, 88310","Match","Exact","372 BIRDIE CT, ALAMOGORDO, NM, 88310",132338105,"L"
189734,"372 BOSTON RD","SUTTON","MA",1590,42.145713405,-71.770769161,234,"372 BOSTON RD, SUTTON, MA, 1590","Match","Exact","372 BOSTON RD, SUTTON, MA, 01590",40107568,"L"
189735,"372 CENTRAL PARK WEST 12-N","NEW YORK","NY",10025,40.7923126520001,-73.964220322,235,"372 CENTRAL PARK WEST 12-N, NEW YORK, NY, 10025","Match","Exact","372 CENTRAL PARK W, NEW YORK, NY, 10025",59656962,"L"
189736,"372 COUNTRY CLUB RD","GREENFIELD","MA",1301,42.6255625590001,-72.591064664,236,"372 COUNTRY CLUB RD, GREENFIELD, MA, 1301","Match","Exact","372 COUNTRY CLUB RD, GREENFIELD, MA, 01301",39942623,"L"
189737,"372 E 20TH ST APT B","COSTA MESA","CA",92627,33.639757677,-117.904592659,237,"372 E 20TH ST APT B, COSTA MESA, CA, 92627","Match","Non_Exact","372 E 20TH ST, COSTA MESA, CA, 92627",623702578,"L"
189738,"372 EAST 800 SOUTH","FORT BRANCH","IN",47648,38.237783822,-87.559689974,238,"372 EAST 800 SOUTH, FORT BRANCH, IN, 47648","Match","Exact","372 E 800 S, FORT BRANCH, IN, 47648",615876981,"R"
189739,"372 ELDEN STREET","HERNDON","VA",20170,38.9675566490001,-77.37422637,239,"372 ELDEN STREET, HERNDON, VA, 20170","Match","Exact","372 ELDEN ST, HERNDON, VA, 20170",642595843,"R"
189740,"372 ERLANGER BLVD","NORTH BABYLON","NY",11703,40.741862865,-73.3432441959999,240,"372 ERLANGER BLVD, NORTH BABYLON, NY, 11703","Match","Exact","372 ERLANGER BLVD, NORTH BABYLON, NY, 11703",113976175,"L"
189741,"372 FIFTH AVENUE APT 3J","NEW YORK","NY",10018,40.749156445,-73.984045265,241,"372 FIFTH AVENUE APT 3J, NEW YORK, NY, 10018","Match","Exact","372 5TH AVE, NEW YORK, NY, 10018",59654379,"L"
189742,"372 FLORIN ROAD - 247","SACRAMENTO","CA",95831,38.5083696190001,-121.541853024,242,"372 FLORIN ROAD - 247, SACRAMENTO, CA, 95831","Match","Exact","372 FLORIN RD, SACRAMENTO, CA, 95831",133322174,"R"
189743,"372 FLORIN ROAD 154","SACRAMENTO","CA",95831,38.5083696190001,-121.541853024,243,"372 FLORIN ROAD 154, SACRAMENTO, CA, 95831","Match","Exact","372 FLORIN RD, SACRAMENTO, CA, 95831",133322174,"R"
189744,"372 FLORIN ROAD STE 109","SACRAMENTO","CA",95831,38.5083696190001,-121.541853024,244,"372 FLORIN ROAD STE 109, SACRAMENTO, CA, 95831","Match","Exact","372 FLORIN RD, SACRAMENTO, CA, 95831",133322174,"R"
189745,"372 FLORIN ROAD SUITE 244","SACRAMENTO","CA",95831,38.5083696190001,-121.541853024,245,"372 FLORIN ROAD SUITE 244, SACRAMENTO, CA, 95831","Match","Exact","372 FLORIN RD, SACRAMENTO, CA, 95831",133322174,"R"
189746,"372 HARVEST RUN SUITE B","MCDONOUGH","GA",30252,33.5509998100001,-84.100446435,246,"372 HARVEST RUN SUITE B, MCDONOUGH, GA, 30252","Match","Exact","372 HARVEST RUN, MCDONOUGH, GA, 30252",627272415,"R"
189747,"372 HAYLEDGE CT","CHESHIRE","CT",6410,41.4908831760001,-72.8901151859999,247,"372 HAYLEDGE CT, CHESHIRE, CT, 6410","Match","Exact","372 HAYLEDGE CT, CHESHIRE, CT, 06410",3712809,"L"
189748,"372 JOHN WEAVER ROAD","COLUMBUS","NC",28722,35.219629985,-82.0728763,248,"372 JOHN WEAVER ROAD, COLUMBUS, NC, 28722","Match","Exact","372 JOHN WEAVER RD, COLUMBUS, NC, 28722",635936193,"R"
189749,"372 LANGLEY ROAD","NEWTON CENTRE","MA",2459,42.3212991520001,-71.183880658,249,"372 LANGLEY ROAD, NEWTON CENTRE, MA, 2459","Match","Exact","372 LANGLEY RD, NEWTON CENTRE, MA, 02459",86866820,"L"
189750,"372 LAUN STREET","ALTADENA","CA",91001,34.181808484,-118.158823247,250,"372 LAUN STREET, ALTADENA, CA, 91001","Match","Exact","372 LAUN ST, ALTADENA, CA, 91001",141627363,"L"
189751,"372 LONGBRANCH RD","SIMI VALLEY","CA",93065,34.2462377030001,-118.792239862,251,"372 LONGBRANCH RD, SIMI VALLEY, CA, 93065","Match","Exact","372 LONGBRANCH RD, SIMI VALLEY, CA, 93065",109976043,"L"
189752,"372 PUTNAM LANE","LAKE MARY","FL",32746,28.7721946720001,-81.3415884949999,252,"372 PUTNAM LANE, LAKE MARY, FL, 32746","Match","Exact","372 PUTNAM LN, LAKE MARY, FL, 32746",93779360,"R"
189753,"372 ROSE HILL ROAD SUITE 100","WEST GROVE","PA",19390,39.8142953620001,-75.8100537239999,253,"372 ROSE HILL ROAD SUITE 100, WEST GROVE, PA, 19390","Match","Non_Exact","372 ROSEHILL RD, WEST GROVE, PA, 19390",179550158,"L"
189754,"372 S 460  W","SPANISH FORK","UT",84660,40.1048481080001,-111.662652395,254,"372 S 460  W, SPANISH FORK, UT, 84660","Match","Exact","372 S 460 W, SPANISH FORK, UT, 84660",627840900,"R"
189755,"372 S BRIARCLIFF DR","CANFIELD","OH",44406,41.031231819,-80.774156773,255,"372 S BRIARCLIFF DR, CANFIELD, OH, 44406","Match","Exact","372 S BRIARCLIFF DR, CANFIELD, OH, 44406",64608754,"L"
189756,"372 S EAAGLE RD SUITE 333","EAGLE","ID",83616,NA,NA,256,"372 S EAAGLE RD SUITE 333, EAGLE, ID, 83616","Tie",NA,NA,NA,NA
189757,"372 SARRATT SCHOOL RD / PO BOX 673","GAFFNEY","SC",29342,35.0670077670001,-81.737526841,257,"372 SARRATT SCHOOL RD / PO BOX 673, GAFFNEY, SC, 29342","Match","Non_Exact","372 SARRATT SCHOOL RD, GAFFNEY, SC, 29341",18996855,"L"
189758,"372 SEVEN HILLS ROAD","NORTHVILLE","NY",12134,43.200343746,-74.150197702,258,"372 SEVEN HILLS ROAD, NORTHVILLE, NY, 12134","Match","Exact","372 SEVEN HILLS RD, NORTHVILLE, NY, 12134",153634787,"L"
189759,"372 SIP AVE APT 1","JERSEY CITY","NJ",7306,40.7336411160001,-74.0777324049999,259,"372 SIP AVE APT 1, JERSEY CITY, NJ, 7306","Match","Exact","372 SIP AVE, JERSEY CITY, NJ, 07306",59603742,"R"
189760,"372 SOUTH EAGLE ROAD 222","EAGLE","ID",83616,43.692338185,-116.354028892,260,"372 SOUTH EAGLE ROAD 222, EAGLE, ID, 83616","Match","Exact","372 S EAGLE RD, EAGLE, ID, 83616",117895201,"R"
189761,"372 STATE STREET APT 6","BROOKLYN","NY",11217,40.687848337,-73.985135207,261,"372 STATE STREET APT 6, BROOKLYN, NY, 11217","Match","Exact","372 STATE ST, BROOKLYN, NY, 11217",59075360,"R"
189762,"372 SUMMERSWEET COURT","BLYTHEWOOD","SC",29016,34.2372102800001,-81.000333685,262,"372 SUMMERSWEET COURT, BLYTHEWOOD, SC, 29016","Match","Exact","372 SUMMERSWEET CT, BLYTHEWOOD, SC, 29016",642079096,"R"
189763,"372 TURQUOISE ST","MILPITAS","CA",95035,37.426871367,-121.896519575,263,"372 TURQUOISE ST, MILPITAS, CA, 95035","Match","Exact","372 TURQUOISE ST, MILPITAS, CA, 95035",122960689,"R"
189764,"372 W CHESTNUT","BURLINGTON","WI",53105,42.683476059,-88.283968092,264,"372 W CHESTNUT, BURLINGTON, WI, 53105","Match","Non_Exact","372 W CHESTNUT ST, BURLINGTON, WI, 53105",648246190,"R"
189765,"372 W MUSKEGON AVE","MUSKEGON","MI",49440,43.231611464,-86.252921923,265,"372 W MUSKEGON AVE, MUSKEGON, MI, 49440","Match","Exact","372 W MUSKEGON AVE, MUSKEGON, MI, 49440",77650766,"R"
189766,"372 WOODBURY ROAD","HICKSVILLE","NY",11801,40.7813356730001,-73.5048360929999,266,"372 WOODBURY ROAD, HICKSVILLE, NY, 11801","Match","Exact","372 WOODBURY RD, HICKSVILLE, NY, 11801",147640988,"L"
189767,"3720 15TH AVE NE","SEATTLE","WA",98195,NA,NA,267,"3720 15TH AVE NE, SEATTLE, WA, 98195","No_Match",NA,NA,NA,NA
189768,"3720 214TH PLACE","MATTESON","IL",60443,41.4995379630001,-87.706111885,268,"3720 214TH PLACE, MATTESON, IL, 60443","Match","Exact","3720 214TH PL, MATTESON, IL, 60443",111708391,"R"
189769,"3720 4TH AVE","SAN DIEGO","CA",92103,32.745591158,-117.161584664,269,"3720 4TH AVE, SAN DIEGO, CA, 92103","Match","Exact","3720 4TH AVE, SAN DIEGO, CA, 92103",195342604,"L"
189770,"3720 ALBANS ROAD","HOUSTON","TX",77005,29.723708065,-95.434403907,270,"3720 ALBANS ROAD, HOUSTON, TX, 77005","Match","Exact","3720 ALBANS RD, HOUSTON, TX, 77005",96062845,"R"
189771,"3720 ATLANTA HIGHWAY SUITE 3","ATHENS","GA",30606,33.9409618190001,-83.4693845899999,271,"3720 ATLANTA HIGHWAY SUITE 3, ATHENS, GA, 30606","Match","Exact","3720 ATLANTA HWY, ATHENS, GA, 30606",649898766,"R"
189772,"3720 BENDEMEER RD","CLEVELAND HEIGHTS","OH",44118,41.510790722,-81.546324431,272,"3720 BENDEMEER RD, CLEVELAND HEIGHTS, OH, 44118","Match","Exact","3720 BENDEMEER RD, CLEVELAND HEIGHTS, OH, 44118",61125072,"R"
189773,"3720 CATHEDRAL ROCK ROAD","MALAGA","WA",98828,47.341379852,-120.218387345,273,"3720 CATHEDRAL ROCK ROAD, MALAGA, WA, 98828","Match","Exact","3720 CATHEDRAL ROCK RD, MALAGA, WA, 98828",652768643,"L"
189774,"3720 COLLINS AVENUE","MIAMI BEACH","FL",33140,25.8105481280001,-80.123392095,274,"3720 COLLINS AVENUE, MIAMI BEACH, FL, 33140","Match","Exact","3720 COLLINS AVE, MIAMI BEACH, FL, 33140",116009565,"L"
189775,"3720 CRESTRIDGE DR","CHARLOTTE","NC",28217,35.1995243000001,-80.894432218,275,"3720 CRESTRIDGE DR, CHARLOTTE, NC, 28217","Match","Exact","3720 CRESTRIDGE DR, CHARLOTTE, NC, 28217",70484820,"R"
189776,"3720 DAVIE BLVD","FT LAUDERDALE","FL",33312,26.104570176,-80.1979164109999,276,"3720 DAVIE BLVD, FT LAUDERDALE, FL, 33312","Match","Exact","3720 DAVIE BLVD, FORT LAUDERDALE, FL, 33312",114714426,"L"
189777,"3720 E 43RD PLACE","TUCSON","AZ",85713,32.186097336,-110.91301505,277,"3720 E 43RD PLACE, TUCSON, AZ, 85713","Match","Exact","3720 E 43RD PL, TUCSON, AZ, 85713",121195988,"R"
189778,"3720 EASTMAN RD","RANDALLSTOWN","MD",21133,39.375921561,-76.79958705,278,"3720 EASTMAN RD, RANDALLSTOWN, MD, 21133","Match","Exact","3720 EASTMAN RD, RANDALLSTOWN, MD, 21133",191463276,"L"
189779,"3720 ESTACADO LN","PLANO","TX",75025,33.1062547080001,-96.766148394,279,"3720 ESTACADO LN, PLANO, TX, 75025","Match","Exact","3720 ESTACADO LN, PLANO, TX, 75025",123553265,"L"
189780,"3720 ESTERO BLVD","FT MYERS BEACH","IA",33931,NA,NA,280,"3720 ESTERO BLVD, FT MYERS BEACH, IA, 33931","No_Match",NA,NA,NA,NA
189781,"3720 LACLEDE AVENUE APARTMENT 3209","SAINT LOUIS","MO",63108,38.635258267,-90.237758379,281,"3720 LACLEDE AVENUE APARTMENT 3209, SAINT LOUIS, MO, 63108","Match","Exact","3720 LACLEDE AVE, SAINT LOUIS, MO, 63108",605114310,"L"
189782,"3720 LOWER PARK ROAD","ORLANDO","FL",32814,28.573805583,-81.337921857,282,"3720 LOWER PARK ROAD, ORLANDO, FL, 32814","Match","Exact","3720 LOWER PARK RD, ORLANDO, FL, 32814",94425295,"R"
189783,"3720 MORINDA DRIVE","DOUGLASVILLE","GA",30135,33.705764688,-84.700270173,283,"3720 MORINDA DRIVE, DOUGLASVILLE, GA, 30135","Match","Exact","3720 MORINDA DR, DOUGLASVILLE, GA, 30135",618478328,"L"
189784,"3720 N BENNINGTON CT APT C","MUNCIE","IN",47303,40.223008774,-85.38329097,284,"3720 N BENNINGTON CT APT C, MUNCIE, IN, 47303","Match","Exact","3720 BENNINGTON CT, MUNCIE, IN, 47303",30846774,"L"
189785,"3720 N STERLING AVENUE","PEORIA","IL",61615,40.7329412610001,-89.631801848,285,"3720 N STERLING AVENUE, PEORIA, IL, 61615","Match","Exact","3720 N STERLING AVE, PEORIA, IL, 61615",8714472,"R"
189786,"3720 N WASHINGTON BLVD","INDIANAPOLIS","IN",46204,39.823851378,-86.152123006,286,"3720 N WASHINGTON BLVD, INDIANAPOLIS, IN, 46204","Match","Non_Exact","3720 N WASHINGTON BLVD, INDIANAPOLIS, IN, 46205",640863560,"L"
189787,"3720 NATRONA CT","ELLENWOOD","GA",30294,33.603909093,-84.2688421999999,287,"3720 NATRONA CT, ELLENWOOD, GA, 30294","Match","Exact","3720 NATRONA CT, ELLENWOOD, GA, 30294",624616508,"R"
189788,"3720 NORTH TRYON ST STE 102","CHARLOTTE","NC",28206,35.254635595,-80.80181949,288,"3720 NORTH TRYON ST STE 102, CHARLOTTE, NC, 28206","Match","Exact","3720 N TRYON ST, CHARLOTTE, NC, 28206",70507770,"R"
189789,"3720 OAKVIEW DRIVE","GIRARD","OH",44420,41.1424742880001,-80.728577803,289,"3720 OAKVIEW DRIVE, GIRARD, OH, 44420","Match","Exact","3720 OAKVIEW DR, GIRARD, OH, 44420",117411057,"R"
189790,"3720 SAN FERNANDO RD 5","GLENDALE","CA",91204,NA,NA,290,"3720 SAN FERNANDO RD 5, GLENDALE, CA, 91204","No_Match",NA,NA,NA,NA
189791,"3720 SPRUCE ST NUM 518","PHILADELPHIA","PA",19104,39.951130527,-75.198179035,291,"3720 SPRUCE ST NUM 518, PHILADELPHIA, PA, 19104","Match","Exact","3720 SPRUCE ST, PHILADELPHIA, PA, 19104",131404311,"L"
189792,"3720 SPRUCE ST SUITE 118","PHILADELPHIA","PA",19104,39.951130527,-75.198179035,292,"3720 SPRUCE ST SUITE 118, PHILADELPHIA, PA, 19104","Match","Exact","3720 SPRUCE ST, PHILADELPHIA, PA, 19104",131404311,"L"
189793,"3720 SPRUCE ST UNIT 171","PHILADELPHIA","PA",19104,39.951130527,-75.198179035,293,"3720 SPRUCE ST UNIT 171, PHILADELPHIA, PA, 19104","Match","Exact","3720 SPRUCE ST, PHILADELPHIA, PA, 19104",131404311,"L"
189794,"3720 STEPHEN M WHITE DRIVE","SAN PEDRO","CA",90731,33.710479273,-118.285970147,294,"3720 STEPHEN M WHITE DRIVE, SAN PEDRO, CA, 90731","Match","Exact","3720 STEPHEN M WHITE DR, SAN PEDRO, CA, 90731",641490703,"L"
189795,"3720 SUMMIT OAKS DR","GREEN COVE SPRINGS","FL",32043,30.0045278110001,-81.7294221,295,"3720 SUMMIT OAKS DR, GREEN COVE SPRINGS, FL, 32043","Match","Exact","3720 SUMMIT OAKS DR, GREEN COVE SPRINGS, FL, 32043",653167100,"L"
189796,"3720 THREE SAINTS ROAD","ANTHONY","NM",88021,32.0524099730001,-106.649577095,296,"3720 THREE SAINTS ROAD, ANTHONY, NM, 88021","Match","Exact","3720 THREE SAINTS RD, ANTHONY, NM, 88021",189538489,"R"
189797,"3720 TURFWAY COURT","INDIANAPOLIS","IN",46228,39.8526291810001,-86.22376222,297,"3720 TURFWAY COURT, INDIANAPOLIS, IN, 46228","Match","Exact","3720 TURFWAY CT, INDIANAPOLIS, IN, 46228",108028237,"R"
189798,"3720 VT RT 14S","RANDOLPH CENTER","VT",5061,NA,NA,298,"3720 VT RT 14S, RANDOLPH CENTER, VT, 5061","No_Match",NA,NA,NA,NA
189799,"37201 N 28TH STREET      PO BOX 586","CAVE CREEK","AZ",85327,NA,NA,299,"37201 N 28TH STREET      PO BOX 586, CAVE CREEK, AZ, 85327","No_Match",NA,NA,NA,NA
189800,"37203 S WOODBRIDGE CIRCLE APT 102","WESTLAND","MI",48185,NA,NA,300,"37203 S WOODBRIDGE CIRCLE APT 102, WESTLAND, MI, 48185","Tie",NA,NA,NA,NA
189801,"37205 MANATEE AVE","MYAKKA CITY","FL",34251,NA,NA,301,"37205 MANATEE AVE, MYAKKA CITY, FL, 34251","No_Match",NA,NA,NA,NA
189802,"37207 GRASSY HILL LN","DADE CITY","FL",33525,28.3502653470001,-82.199918447,302,"37207 GRASSY HILL LN, DADE CITY, FL, 33525","Match","Exact","37207 GRASSY HILL LN, DADE CITY, FL, 33525",633698087,"R"
189803,"3721 40TH AVE NW","HACKENSACK","MN",56452,46.9438297200001,-94.4917430959999,303,"3721 40TH AVE NW, HACKENSACK, MN, 56452","Match","Exact","3721 40TH AVE NW, HACKENSACK, MN, 56452",162718574,"R"
189804,"3721 AHOYA LN","ORLANDO","FL",32837,28.3491161800001,-81.4326034539999,304,"3721 AHOYA LN, ORLANDO, FL, 32837","Match","Exact","3721 AHOYA LN, ORLANDO, FL, 32837",94324118,"L"
189805,"3721 BREEN DR","INDIANAPOLIS","IN",46235,39.824337832,-86.006599966,305,"3721 BREEN DR, INDIANAPOLIS, IN, 46235","Match","Exact","3721 BREEN DR, INDIANAPOLIS, IN, 46235",108012211,"R"
189806,"3721 DARTMOUTH AVE N","ST PETERSBURG","FL",33713,27.7764756770001,-82.683838306,306,"3721 DARTMOUTH AVE N, ST PETERSBURG, FL, 33713","Match","Exact","3721 DARTMOUTH AVE N, SAINT PETERSBURG, FL, 33713",124704768,"R"
189807,"3721 DIAL DR","STONE MOUNTAIN","GA",30021,33.78698645,-84.2371850549999,307,"3721 DIAL DR, STONE MOUNTAIN, GA, 30021","Match","Non_Exact","3721 DIAL DR, STONE MOUNTAIN, GA, 30083",636358257,"R"
189808,"3721 E GUY AVE","MEAD","WA",99021,47.7646824660001,-117.357272563,308,"3721 E GUY AVE, MEAD, WA, 99021","Match","Exact","3721 E GUY AVE, MEAD, WA, 99021",189869768,"L"
189809,"3721 E MARTIN AVE","CUDAHY","WI",53110,42.952737504,-87.8569113,309,"3721 E MARTIN AVE, CUDAHY, WI, 53110","Match","Exact","3721 E MARTIN AVE, CUDAHY, WI, 53110",77756365,"R"
189810,"3721 E SUNSHINE","SPRINGFIELD","MO",65809,37.1801036700001,-93.218310512,310,"3721 E SUNSHINE, SPRINGFIELD, MO, 65809","Match","Non_Exact","3721 E SUNSHINE ST, SPRINGFIELD, MO, 65809",647737861,"R"
189811,"3721 ECR 5400","LUBBOCK","TX",79403,NA,NA,311,"3721 ECR 5400, LUBBOCK, TX, 79403","No_Match",NA,NA,NA,NA
189812,"3721 FAIRVIEW COVE LANE APT 203","TAMPA","FL",33619,27.9779642820001,-82.371842771,312,"3721 FAIRVIEW COVE LANE APT 203, TAMPA, FL, 33619","Match","Exact","3721 FAIRVIEW COVE LN, TAMPA, FL, 33619",646566718,"L"
189813,"3721 FRANKLIN AVE APARTMENT A","FULLERTON","CA",92833,33.8651689020001,-117.978241866,313,"3721 FRANKLIN AVE APARTMENT A, FULLERTON, CA, 92833","Match","Exact","3721 FRANKLIN AVE, FULLERTON, CA, 92833",609052224,"R"
189814,"3721 HARROGATE DRIVE","VALRICO","FL",33596,27.884815029,-82.222614753,314,"3721 HARROGATE DRIVE, VALRICO, FL, 33596","Match","Exact","3721 HARROGATE DR, VALRICO, FL, 33596",104599991,"R"
189815,"3721 LISETER GARDENS","NEWTOWN SQUARE","PA",19073,39.999264457,-75.412463347,315,"3721 LISETER GARDENS, NEWTOWN SQUARE, PA, 19073","Match","Exact","3721 LISETER GARDENS, NEWTOWN SQUARE, PA, 19073",652008807,"L"
189816,"3721 MAIN PLAZA DRIVE","HOUSTON","TX",77025,29.662266586,-95.4377003129999,316,"3721 MAIN PLAZA DRIVE, HOUSTON, TX, 77025","Match","Exact","3721 MAIN PLAZA DR, HOUSTON, TX, 77025",652146730,"R"
189817,"3721 MIDVALE AVENUE","PHILADELPHIA","PA",19129,40.0097075830001,-75.193220487,317,"3721 MIDVALE AVENUE, PHILADELPHIA, PA, 19129","Match","Exact","3721 MIDVALE AVE, PHILADELPHIA, PA, 19129",131440732,"R"
189818,"3721 NEW MACLAND RD STE 200-237","POWDER SPRINGS","GA",30127,33.9007110410001,-84.661561508,318,"3721 NEW MACLAND RD STE 200-237, POWDER SPRINGS, GA, 30127","Match","Exact","3721 MACLAND RD, POWDER SPGS, GA, 30127",17268395,"R"
189819,"3721 NEW MACLAND RD SUITE 200-342","POWDER SPRINGS","GA",30127,33.9007110410001,-84.661561508,319,"3721 NEW MACLAND RD SUITE 200-342, POWDER SPRINGS, GA, 30127","Match","Exact","3721 MACLAND RD, POWDER SPGS, GA, 30127",17268395,"R"
189820,"3721 NEW MACLAND ROAD SUITE 200-312","POWDER SPRINGS","GA",30127,33.9007110410001,-84.661561508,320,"3721 NEW MACLAND ROAD SUITE 200-312, POWDER SPRINGS, GA, 30127","Match","Exact","3721 MACLAND RD, POWDER SPGS, GA, 30127",17268395,"R"
189821,"3721 NEW MACLAND SUITE 179","POWDER SPRINGS","GA",30127,33.9007110410001,-84.661561508,321,"3721 NEW MACLAND SUITE 179, POWDER SPRINGS, GA, 30127","Match","Non_Exact","3721 MACLAND RD, POWDER SPGS, GA, 30127",17268395,"R"
189822,"3721 QUENBY DRIVE","MONTGOMERY","AL",36116,32.3097716950001,-86.2567670559999,322,"3721 QUENBY DRIVE, MONTGOMERY, AL, 36116","Match","Exact","3721 QUENBY DR, MONTGOMERY, AL, 36116",1476726,"L"
189823,"3721 RIFLE RANGE ROAD","WETUMPKA","AL",36093,32.437914231,-86.115566913,323,"3721 RIFLE RANGE ROAD, WETUMPKA, AL, 36093","Match","Exact","3721 RIFLE RANGE RD, WETUMPKA, AL, 36093",1395993,"R"
189824,"3721 S LEJEUNE ROAD","COCONUT GROVE","FL",33146,NA,NA,324,"3721 S LEJEUNE ROAD, COCONUT GROVE, FL, 33146","No_Match",NA,NA,NA,NA
189825,"3721 SOUTHLAKE ORLANDO PARKWAY","ORLANDO","FL",32808,NA,NA,325,"3721 SOUTHLAKE ORLANDO PARKWAY, ORLANDO, FL, 32808","No_Match",NA,NA,NA,NA
189826,"3721 STONEHOUSE LANE","DOVER","PA",17315,39.9849369840001,-76.8407335649999,326,"3721 STONEHOUSE LANE, DOVER, PA, 17315","Match","Exact","3721 STONEHOUSE LN, DOVER, PA, 17315",639615602,"L"
189827,"3721 SYLVANWOOD DR","SYLVANIA","OH",43560,41.6852306120001,-83.7014972379999,327,"3721 SYLVANWOOD DR, SYLVANIA, OH, 43560","Match","Exact","3721 SYLVANWOOD DR, SYLVANIA, OH, 43560",33927565,"L"
189828,"3721 TUXHORN RD","SPRINGFIELD","IL",62712,39.7801396310001,-89.578948127,328,"3721 TUXHORN RD, SPRINGFIELD, IL, 62712","Match","Exact","3721 TUXHORN RD, SPRINGFIELD, IL, 62712",97329464,"L"
189829,"3721 W WOODMONT DRIVE","MERIDIAN","ID",83646,NA,NA,329,"3721 W WOODMONT DRIVE, MERIDIAN, ID, 83646","Tie",NA,NA,NA,NA
189830,"3721 WARRIORS PATH","DECATUR","GA",30034,33.6807767130001,-84.2615305579999,330,"3721 WARRIORS PATH, DECATUR, GA, 30034","Match","Exact","3721 WARRIORS PATH, DECATUR, GA, 30034",23395489,"R"
189831,"37211 CHARTER OAKS BLVD","CLINTON TOWNSHIP","MI",48036,42.571958312,-82.9204080539999,331,"37211 CHARTER OAKS BLVD, CLINTON TOWNSHIP, MI, 48036","Match","Exact","37211 CHARTER OAKS BLVD, CLINTON TOWNSHIP, MI, 48036",110734215,"L"
189832,"37212 NE WIEHL ROAD","LA CENTER","WA",98629,45.890880119,-122.518607776,332,"37212 NE WIEHL ROAD, LA CENTER, WA, 98629","Match","Exact","37212 NE WIEHL RD, LA CENTER, WA, 98629",649021000,"L"
189833,"37217 WEEPING BRANCH ST","PALMDALE","CA",93550,34.558972452,-118.108733529,333,"37217 WEEPING BRANCH ST, PALMDALE, CA, 93550","Match","Exact","37217 WEEPING BRANCH ST, PALMDALE, CA, 93550",623995718,"L"
189834,"3722 ALABAMA STREET  106","SAN DIEGO","CA",92104,32.7458769,-117.142202108,334,"3722 ALABAMA STREET  106, SAN DIEGO, CA, 92104","Match","Exact","3722 ALABAMA ST, SAN DIEGO, CA, 92104",195345344,"L"
189835,"3722 ALSACE ST","HOUSTON","TX",77021,29.699145356,-95.363258004,335,"3722 ALSACE ST, HOUSTON, TX, 77021","Match","Exact","3722 ALSACE ST, HOUSTON, TX, 77021",96072635,"R"
189836,"3722 BEN HOGAN DRIVE","LONGVIEW","TX",75605,32.5484069090001,-94.777471174,336,"3722 BEN HOGAN DRIVE, LONGVIEW, TX, 75605","Match","Exact","3722 BEN HOGAN DR, LONGVIEW, TX, 75605",141107766,"R"
189837,"3722 CALLE CURASCO SUITE A","RIVERSIDE","CA",92503,33.8819579680001,-117.510094091,337,"3722 CALLE CURASCO SUITE A, RIVERSIDE, CA, 92503","Match","Non_Exact","3722 CLL CURASCO, RIVERSIDE, CA, 92503",194876264,"R"
189838,"3722 CHILTERN CT","LITHONIA","GA",30038,33.6724586020001,-84.191128303,338,"3722 CHILTERN CT, LITHONIA, GA, 30038","Match","Exact","3722 CHILTERN CT, LITHONIA, GA, 30038",23373822,"L"
189839,"3722 DAVID COX ROAD","CHARLOTTE","NC",28269,35.3375705070001,-80.7934575039999,339,"3722 DAVID COX ROAD, CHARLOTTE, NC, 28269","Match","Exact","3722 DAVID COX RD, CHARLOTTE, NC, 28269",70471315,"R"
189840,"3722 EAST KIRSTENS DRIVE","MADISON","WI",53704,43.134320216,-89.3858997739999,340,"3722 EAST KIRSTENS DRIVE, MADISON, WI, 53704","Match","Non_Exact","3722 E KARSTENS DR, MADISON, WI, 53704",49470859,"L"
189841,"3722 ELIZABETH DR","CARROLLTON","TX",75007,33.0136397100001,-96.9050900079999,341,"3722 ELIZABETH DR, CARROLLTON, TX, 75007","Match","Exact","3722 ELIZABETH DR, CARROLLTON, TX, 75007",103381537,"R"
189842,"3722 FIRETHORN DRIVE","AURORA","OH",44202,41.341483533,-81.396692598,342,"3722 FIRETHORN DRIVE, AURORA, OH, 44202","Match","Exact","3722 FIRETHORN DR, AURORA, OH, 44202",648148328,"R"
189843,"3722 HAYFORD AVE LARAMIE WY 82072","LARAMIE","WY",82072,41.325636473,-105.550511737,343,"3722 HAYFORD AVE LARAMIE WY 82072, LARAMIE, WY, 82072","Match","Non_Exact","3722 HAYFORD, LARAMIE, WY, 82072",628956161,"R"
189844,"3722 HUGHES AVE 6","LOS ANGELES","CA",90034,34.025049838,-118.400109336,344,"3722 HUGHES AVE 6, LOS ANGELES, CA, 90034","Match","Exact","3722 HUGHES AVE, LOS ANGELES, CA, 90034",141573730,"L"
189845,"3722 MEADOW RUE LN","PEACHTREE CORNERS","GA",30092,33.958665845,-84.252714043,345,"3722 MEADOW RUE LN, PEACHTREE CORNERS, GA, 30092","Match","Non_Exact","3722 MEADOW RUE DR, PEACHTREE CORNERS, GA, 30092",88893392,"L"
189846,"3722 REGENT LANE","WANTAGH","NY",11793,40.710490448,-73.498392267,346,"3722 REGENT LANE, WANTAGH, NY, 11793","Match","Exact","3722 REGENT LN, WANTAGH, NY, 11793",147645170,"R"
189847,"3722 S TRYON ST SUITE H","CHARLOTTE","NC",28217,35.1938410330001,-80.8787958189999,347,"3722 S TRYON ST SUITE H, CHARLOTTE, NC, 28217","Match","Non_Exact","3722 S TRYON ST, CHARLOTTE, NC, 28217",70484973,"R"
189848,"3722 ST RT 41","WASHINGTON COURT HOU","OH",43160,NA,NA,348,"3722 ST RT 41, WASHINGTON COURT HOU, OH, 43160","No_Match",NA,NA,NA,NA
189849,"3722 TRADEWINDS TER","CLARKSVILLE","TN",37040,36.635145616,-87.2838415579999,349,"3722 TRADEWINDS TER, CLARKSVILLE, TN, 37040","Match","Exact","3722 TRADEWINDS TER, CLARKSVILLE, TN, 37040",642255835,"R"
189850,"3722 W LAS POSITAS BLVD","PLEASANTON","CA",94588,37.6949225010001,-121.865987144,350,"3722 W LAS POSITAS BLVD, PLEASANTON, CA, 94588","Match","Exact","3722 W LAS POSITAS BLVD, PLEASANTON, CA, 94588",606833959,"L"
189851,"3722 WALTON WAY EXT 183","AUGUSTA","GA",30907,33.497889199,-82.080861394,351,"3722 WALTON WAY EXT 183, AUGUSTA, GA, 30907","Match","Non_Exact","3722 WALTON WAY EXD, AUGUSTA, GA, 30907",617769792,"R"
189852,"372231","SATELLITE BEACH","FL",32937,NA,NA,352,"372231, SATELLITE BEACH, FL, 32937","No_Match",NA,NA,NA,NA
189853,"3723 134TH STREET","URBANDALE","IA",50323,41.6265485160001,-93.803664596,353,"3723 134TH STREET, URBANDALE, IA, 50323","Match","Exact","3723 134TH ST, URBANDALE, IA, 50323",65854866,"R"
189854,"3723 BIRCH STREET SUITE 10","NEWPORT BEACH","CA",92660,33.662780452,-117.871733956,354,"3723 BIRCH STREET SUITE 10, NEWPORT BEACH, CA, 92660","Match","Exact","3723 BIRCH ST, NEWPORT BEACH, CA, 92660",144049231,"L"
189855,"3723 BURLINGAME AVE SW","WYOMING","MI",49509,42.8958968480001,-85.704640625,355,"3723 BURLINGAME AVE SW, WYOMING, MI, 49509","Match","Exact","3723 BURLINGAME AVE SW, WYOMING, MI, 49509",12463211,"R"
189856,"3723 CAMELOT CT","LONGVIEW","TX",75605,32.5498586460001,-94.789764301,356,"3723 CAMELOT CT, LONGVIEW, TX, 75605","Match","Exact","3723 CAMELOT CT, LONGVIEW, TX, 75605",141121387,"R"
189857,"3723 CAMP WISDOM RD/ MERVYNS PLAZA","DALLAS","TX",75237,NA,NA,357,"3723 CAMP WISDOM RD/ MERVYNS PLAZA, DALLAS, TX, 75237","No_Match",NA,NA,NA,NA
189858,"3723 CAPULET TERRACE","SILVER SPRING","MD",20906,39.0939776210001,-77.073723279,358,"3723 CAPULET TERRACE, SILVER SPRING, MD, 20906","Match","Exact","3723 CAPULET TER, SILVER SPRING, MD, 20906",62060229,"R"
189859,"3723 CARONDELET ST","NEW ORLEANS","LA",70115,29.928245969,-90.095296063,359,"3723 CARONDELET ST, NEW ORLEANS, LA, 70115","Match","Exact","3723 CARONDELET ST, NEW ORLEANS, LA, 70115",191712550,"R"
189860,"3723 DELVERNE ROAD","BALTIMORE","MD",21218,39.3332493820001,-76.598351857,360,"3723 DELVERNE ROAD, BALTIMORE, MD, 21218","Match","Exact","3723 DELVERNE RD, BALTIMORE, MD, 21218",206409379,"R"
189861,"3723 E TEXAS ST","BOSSIER CITY","LA",71111,32.5290721330001,-93.6866397319999,361,"3723 E TEXAS ST, BOSSIER CITY, LA, 71111","Match","Exact","3723 E TEXAS ST, BOSSIER CITY, LA, 71111",636265867,"L"
189862,"3723 EAGLEWOOD ST","VALRICO","FL",33596,27.8881342240001,-82.2441561319999,362,"3723 EAGLEWOOD ST, VALRICO, FL, 33596","Match","Exact","3723 EAGLEWOOD ST, VALRICO, FL, 33596",636366416,"R"
189863,"3723 FORESTBROOK ROAD UNIT C","MYRTLE BEACH","SC",29588,33.6934270250001,-79.0037255349999,363,"3723 FORESTBROOK ROAD UNIT C, MYRTLE BEACH, SC, 29588","Match","Exact","3723 FORESTBROOK RD, MYRTLE BEACH, SC, 29588",631180994,"R"
189864,"3723 FOXWOOD BEND","POPLAR BLUFF","MO",63901,36.799740828,-90.545518613,364,"3723 FOXWOOD BEND, POPLAR BLUFF, MO, 63901","Match","Exact","3723 FOXWOOD BEND, POPLAR BLUFF, MO, 63901",47433725,"R"
189865,"3723 GWYNN OAK AVENUE","GWYNN OAK","MD",21207,39.3335275530001,-76.694592509,365,"3723 GWYNN OAK AVENUE, GWYNN OAK, MD, 21207","Match","Exact","3723 GWYNN OAK AVE, GWYNN OAK, MD, 21207",206405078,"R"
189866,"3723 HIGHCREST DRIVE","BRIGHTON","MI",48116,42.5466029250001,-83.851517433,366,"3723 HIGHCREST DRIVE, BRIGHTON, MI, 48116","Match","Exact","3723 HIGHCREST DR, BRIGHTON, MI, 48116",23546104,"R"
189867,"3723 OLD COURT RD STE 205","BALTIMORE","MD",21208,39.379276229,-76.722747111,367,"3723 OLD COURT RD STE 205, BALTIMORE, MD, 21208","Match","Non_Exact","3723 OLD COURT RD, BALTIMORE, MD, 21208",191574732,"L"
189868,"3723 PINETOP ROAD","GREENSBORO","NC",27410,36.1107744820001,-79.860799331,368,"3723 PINETOP ROAD, GREENSBORO, NC, 27410","Match","Exact","3723 PINETOP RD, GREENSBORO, NC, 27410",640602962,"L"
189869,"3723 ROCK SPRINGS ST","SPRINGDALE","AR",72762,36.2181114630001,-94.165341011,369,"3723 ROCK SPRINGS ST, SPRINGDALE, AR, 72762","Match","Exact","3723 ROCK SPRINGS ST, SPRINGDALE, AR, 72762",647874352,"L"
189870,"3723 ROUTE 112","CORAM","NY",11727,NA,NA,370,"3723 ROUTE 112, CORAM, NY, 11727","No_Match",NA,NA,NA,NA
189871,"3723 S MENDENHALL RD","MEMPHIS","TN",38115,35.04758832,-89.886122668,371,"3723 S MENDENHALL RD, MEMPHIS, TN, 38115","Match","Exact","3723 S MENDENHALL RD, MEMPHIS, TN, 38115",618105235,"R"
189872,"3723 SAN JUAN AVE","PORT TOWNSEND","WA",98368,48.1266257400001,-122.777799457,372,"3723 SAN JUAN AVE, PORT TOWNSEND, WA, 98368","Match","Exact","3723 SAN JUAN AVE, PORT TOWNSEND, WA, 98368",151990980,"L"
189873,"3723 SHORE DRIVE","WILLIAMSBURG","MI",49690,NA,NA,373,"3723 SHORE DRIVE, WILLIAMSBURG, MI, 49690","No_Match",NA,NA,NA,NA
189874,"3723 SOFT WIND DRIVE","COLUMBUS","OH",43232,39.927941301,-82.893312856,374,"3723 SOFT WIND DRIVE, COLUMBUS, OH, 43232","Match","Exact","3723 SOFT WIND DR, COLUMBUS, OH, 43232",218676943,"L"
189875,"3723 SONGBIRD LANE","KALAMAZOO","MI",49008,42.248180421,-85.636590397,375,"3723 SONGBIRD LANE, KALAMAZOO, MI, 49008","Match","Exact","3723 SONGBIRD LN, KALAMAZOO, MI, 49008",12224426,"L"
189876,"3723 SUNFLOWER STREET","LEXINGTON","KY",40509,38.0167997090001,-84.3952892839999,376,"3723 SUNFLOWER STREET, LEXINGTON, KY, 40509","Match","Exact","3723 SUNFLOWER ST, LEXINGTON, KY, 40509",641686227,"R"
189877,"3723 SW ELMGROVE ST","SEATTLE","WA",98126,47.5305391260001,-122.379784361,377,"3723 SW ELMGROVE ST, SEATTLE, WA, 98126","Match","Exact","3723 SW ELMGROVE ST, SEATTLE, WA, 98126",186662117,"L"
189878,"3723 WEST 79TH PLACE","CHICAGO","IL",60652,41.7486889100001,-87.715213704,378,"3723 WEST 79TH PLACE, CHICAGO, IL, 60652","Match","Exact","3723 W 79TH PL, CHICAGO, IL, 60652",111817299,"L"
189879,"3723 WEST PIONEER DRIVE  1405","IRVING TEXAS","TX",75061,32.82903258,-96.9986260699999,379,"3723 WEST PIONEER DRIVE  1405, IRVING TEXAS, TX, 75061","Match","Non_Exact","3723 W PIONEER DR, IRVING, TX, 75061",102978425,"R"
189880,"3723 WIND VALLEY DR","MEMPHIS","TN",38125,35.0474399510001,-89.790480466,380,"3723 WIND VALLEY DR, MEMPHIS, TN, 38125","Match","Exact","3723 WIND VALLEY DR, MEMPHIS, TN, 38125",72980663,"R"
189881,"3723-D WEST MARKET STREET","GREENSBORO","NC",27403,36.0730516310001,-79.8470696429999,381,"3723-D WEST MARKET STREET, GREENSBORO, NC, 27403","Match","Exact","3723 W MARKET ST, GREENSBORO, NC, 27403",615242889,"L"
189882,"37232 LIGHTHOUSE ROAD NUMBER 444","SELBYVILLE","DE",19975,38.4653368530001,-75.0859547159999,382,"37232 LIGHTHOUSE ROAD NUMBER 444, SELBYVILLE, DE, 19975","Match","Exact","37232 LIGHTHOUSE RD, SELBYVILLE, DE, 19975",106076185,"L"
189883,"37233 ALBATROSS REACH PMB 384","THE SEA RANCH","CA",95497,38.711286375,-123.452967395,383,"37233 ALBATROSS REACH PMB 384, THE SEA RANCH, CA, 95497","Match","Exact","37233 ALBATROSS REACH, THE SEA RANCH, CA, 95497",67455670,"R"
189884,"3723A DEL PRADO BOULEVARD","CAPE CORAL","FL",33904,26.5828487480001,-81.942070131,384,"3723A DEL PRADO BOULEVARD, CAPE CORAL, FL, 33904","Match","Non_Exact","3723 DEL PRADO BLVD S, CAPE CORAL, FL, 33904",118101330,"L"
189885,"3724  ESTACADO LN","PLANO","TX",75025,33.1062600830001,-96.766215239,385,"3724  ESTACADO LN, PLANO, TX, 75025","Match","Exact","3724 ESTACADO LN, PLANO, TX, 75025",123553265,"L"
189886,"3724 APPIAN WAY","LEXINGTON","KY",40517,37.97428567,-84.493331185,386,"3724 APPIAN WAY, LEXINGTON, KY, 40517","Match","Exact","3724 APPIAN WAY, LEXINGTON, KY, 40517",31925021,"L"
189887,"3724 COVE TIMBER AVE","GRANBURY","TX",76049,32.416906446,-97.703510104,387,"3724 COVE TIMBER AVE, GRANBURY, TX, 76049","Match","Exact","3724 COVE TIMBER AVE, GRANBURY, TX, 76049",158805489,"L"
189888,"3724 CRANFORD COURT","ATLANTA","GA",30331,33.714111825,-84.505511004,388,"3724 CRANFORD COURT, ATLANTA, GA, 30331","Match","Non_Exact","3724 CRANFORD DR, ATLANTA, GA, 30331",618350731,"R"
189889,"3724 ESTACADO LANE","PLANO","TX",75025,33.1062600830001,-96.766215239,389,"3724 ESTACADO LANE, PLANO, TX, 75025","Match","Exact","3724 ESTACADO LN, PLANO, TX, 75025",123553265,"L"
189890,"3724 EXECUTIVE CENTER DRIVE/250","AUSTIN","TX",78731,30.3624698310001,-97.749567293,390,"3724 EXECUTIVE CENTER DRIVE/250, AUSTIN, TX, 78731","Match","Non_Exact","3724 EXECUTIVE CENTER DR, AUSTIN, TX, 78731",63928133,"R"
189891,"3724 FARMHILL LN","CHESTERFIELD","VA",23832,37.457082116,-77.5292771969999,391,"3724 FARMHILL LN, CHESTERFIELD, VA, 23832","Match","Exact","3724 FARMHILL LN, CHESTERFIELD, VA, 23832",201555570,"R"
189892,"3724 GLOUCESTER DR","WILSON","NC",27893,35.738434338,-77.9676665819999,392,"3724 GLOUCESTER DR, WILSON, NC, 27893","Match","Non_Exact","3724 GLOUCESTER DR W, WILSON, NC, 27893",647204299,"R"
189893,"3724 GOODMAN ROAD W PO BOX 926","HORN LAKE","MS",38637,34.9626510040001,-90.0572988069999,393,"3724 GOODMAN ROAD W PO BOX 926, HORN LAKE, MS, 38637","Match","Exact","3724 GOODMAN RD W, HORN LAKE, MS, 38637",91854717,"L"
189894,"3724 GRAND PRIX DRIVE","SEBRING","FL",33872,NA,NA,394,"3724 GRAND PRIX DRIVE, SEBRING, FL, 33872","No_Match",NA,NA,NA,NA
189895,"3724 HUBBELL AVE APT 105","DES MOINES","IA",50317,41.6296849980001,-93.543522444,395,"3724 HUBBELL AVE APT 105, DES MOINES, IA, 50317","Match","Exact","3724 HUBBELL AVE, DES MOINES, IA, 50317",65790016,"L"
189896,"3724 INGLEWOOD DR","SAN ANGELO","TX",76904,31.428875546,-100.488419281,396,"3724 INGLEWOOD DR, SAN ANGELO, TX, 76904","Match","Exact","3724 INGLEWOOD DR, SAN ANGELO, TX, 76904",190680402,"L"
189897,"3724 JUSTICE CIRCLE","IMMOKALEE","FL",34142,26.4374172770001,-81.458661446,397,"3724 JUSTICE CIRCLE, IMMOKALEE, FL, 34142","Match","Exact","3724 JUSTICE CIR, IMMOKALEE, FL, 34142",619770570,"R"
189898,"3724 NORTH COUNTY ROAD 13","FORT COLLINS","CO",80524,40.640090163,-105.057079187,398,"3724 NORTH COUNTY ROAD 13, FORT COLLINS, CO, 80524","Match","Exact","3724 N CO RD 13, FORT COLLINS, CO, 80524",188566518,"R"
189899,"3724 RAY HARDY DRIVE","CLOVIS","NM",88101,34.441304325,-103.180209723,399,"3724 RAY HARDY DRIVE, CLOVIS, NM, 88101","Match","Exact","3724 RAY HARDY DR, CLOVIS, NM, 88101",163773410,"R"
189900,"3724 RIVERVIEW DRIVE","MADERA","CA",93637,36.9649402470001,-120.105425826,400,"3724 RIVERVIEW DRIVE, MADERA, CA, 93637","Match","Exact","3724 RIVERVIEW DR, MADERA, CA, 93637",633731558,"L"
189901,"3724 SALEM SPRINGS COURT","LITHONIA","GA",30038,33.6725836580001,-84.169335006,401,"3724 SALEM SPRINGS COURT, LITHONIA, GA, 30038","Match","Exact","3724 SALEM SPRINGS CT, LITHONIA, GA, 30038",23395783,"L"
189902,"3724 W THISTLE LN","DUNLAP","IL",61525,40.815165296,-89.65097432,402,"3724 W THISTLE LN, DUNLAP, IL, 61525","Match","Exact","3724 W THISTLE LN, DUNLAP, IL, 61525",617272424,"L"
189903,"3724 WHITE PLAINS DRIVE","LAS VEGAS","NV",89129,36.228561111,-115.256470905,403,"3724 WHITE PLAINS DRIVE, LAS VEGAS, NV, 89129","Match","Exact","3724 WHITE PLAINS DR, LAS VEGAS, NV, 89129",201906692,"R"
189904,"3724 WINSTON BLVD","WILMINGTON","NC",28403,34.2250630990001,-77.892647228,404,"3724 WINSTON BLVD, WILMINGTON, NC, 28403","Match","Exact","3724 WINSTON BLVD, WILMINGTON, NC, 28403",152733724,"R"
189905,"3724 WINTER GARDEN RD BLDG 2","WINTER GARDEN","FL",34787,NA,NA,405,"3724 WINTER GARDEN RD BLDG 2, WINTER GARDEN, FL, 34787","No_Match",NA,NA,NA,NA
189906,"37244 SOUTHVIEW AVE","DADE CITY","FL",33525,28.3564459140001,-82.199416954,406,"37244 SOUTHVIEW AVE, DADE CITY, FL, 33525","Match","Exact","37244 SOUTHVIEW AVE, DADE CITY, FL, 33525",86345247,"R"
189907,"37247 CHEVAL AIRE ROAD","BAY MINETTE","AL",36507,30.7674684840001,-87.783183534,407,"37247 CHEVAL AIRE ROAD, BAY MINETTE, AL, 36507","Match","Exact","37247 CHEVAL AIRE RD, BAY MINETTE, AL, 36507",618723040,"L"
189908,"37247 LORRINA LANE","NEW BOSTON","MI",48164,42.1685030990001,-83.402245056,408,"37247 LORRINA LANE, NEW BOSTON, MI, 48164","Match","Non_Exact","37247 LORRINA, NEW BOSTON, MI, 48164",95701717,"R"
189909,"3725 118TH PL SE","EVERETT","WA",98208,47.8903075710001,-122.181931716,409,"3725 118TH PL SE, EVERETT, WA, 98208","Match","Exact","3725 118TH PL SE, EVERETT, WA, 98208",187799978,"L"
189910,"3725 28TH AVENUE","NORTHPORT","AL",35473,33.2440001040001,-87.584575192,410,"3725 28TH AVENUE, NORTHPORT, AL, 35473","Match","Exact","3725 28TH AVE, NORTHPORT, AL, 35473",82204463,"R"
189911,"3725 CLARK CT","WICHITA","KS",67218,37.6559540420001,-97.2925645889999,411,"3725 CLARK CT, WICHITA, KS, 67218","Match","Non_Exact","3725 E CLARK CT, WICHITA, KS, 67218",115648770,"R"
189912,"3725 DOVER BLVD","ATLANTA","GA",30331,33.7538306550001,-84.5090640019999,412,"3725 DOVER BLVD, ATLANTA, GA, 30331","Match","Non_Exact","3725 DOVER BLVD SW, ATLANTA, GA, 30331",17336633,"R"
189913,"3725 ESTATES DRIVE","FLORISSANT","MO",63033,38.7985939440001,-90.2885626679999,413,"3725 ESTATES DRIVE, FLORISSANT, MO, 63033","Match","Exact","3725 ESTATES DR, FLORISSANT, MO, 63033",647338424,"L"
189914,"3725 FAIRWAY BLVD","LOS ANGELES","CA",90043,34.001088151,-118.339436081,414,"3725 FAIRWAY BLVD, LOS ANGELES, CA, 90043","Match","Exact","3725 FAIRWAY BLVD, LOS ANGELES, CA, 90043",634247685,"R"
189915,"3725 FLAT SHOALS RD","COLLEGE PARK","GA",30349,33.5840312350001,-84.51058557,415,"3725 FLAT SHOALS RD, COLLEGE PARK, GA, 30349","Match","Exact","3725 FLAT SHOALS RD, COLLEGE PARK, GA, 30349",601039282,"R"
189916,"3725 HEATHERBROOKE DR","FAYETTEVILLE","NC",28306,34.9994405300001,-79.030167754,416,"3725 HEATHERBROOKE DR, FAYETTEVILLE, NC, 28306","Match","Non_Exact","3725 HEATHER BROOKE DR, FAYETTEVILLE, NC, 28306",64267710,"L"
189917,"3725 HERON ISLAND DRIVE","NEW PORT RICHEY","FL",34655,28.2103993260001,-82.677884922,417,"3725 HERON ISLAND DRIVE, NEW PORT RICHEY, FL, 34655","Match","Exact","3725 HERON ISLAND DR, NEW PORT RICHEY, FL, 34655",638630005,"L"
189918,"3725 JETTY POINT","CARLSBAD","CA",92010,33.166896975,-117.296301273,418,"3725 JETTY POINT, CARLSBAD, CA, 92010","Match","Exact","3725 JETTY PT, CARLSBAD, CA, 92010",612853327,"L"
189919,"3725 LAKE WORTH RD","PALM SPRINGS","FL",33461,26.617900521,-80.100221469,419,"3725 LAKE WORTH RD, PALM SPRINGS, FL, 33461","Match","Exact","3725 LAKE WORTH RD, PALM SPRINGS, FL, 33461",115546689,"R"
189920,"3725 LAKESHORE ROAD","SHEBOYGAN","WI",53083,43.7842926980001,-87.72739831,420,"3725 LAKESHORE ROAD, SHEBOYGAN, WI, 53083","Match","Exact","3725 LAKESHORE RD, SHEBOYGAN, WI, 53083",649752157,"R"
189921,"3725 LUPINE","LAKE FOREST","CA",92630,33.6772813160001,-117.675216372,421,"3725 LUPINE, LAKE FOREST, CA, 92630","Match","Exact","3725 LUPINE, LAKE FOREST, CA, 92630",646563945,"R"
189922,"3725 MARLBROUGH WAY","COLLEGE PARK","MD",20740,39.0086650810001,-76.9546992909999,422,"3725 MARLBROUGH WAY, COLLEGE PARK, MD, 20740","Match","Exact","3725 MARLBROUGH WAY, COLLEGE PARK, MD, 20740",76324636,"R"
189923,"3725 MARYSVILLE BLVD","SACRAMENTO","CA",95838,38.633645981,-121.430431029,423,"3725 MARYSVILLE BLVD, SACRAMENTO, CA, 95838","Match","Exact","3725 MARYSVILLE BLVD, SACRAMENTO, CA, 95838",133329829,"L"
189924,"3725 MILL HEIGHT DRIVE APT 512","ARLINGTON","TX",76014,32.6834171730001,-97.084711109,424,"3725 MILL HEIGHT DRIVE APT 512, ARLINGTON, TX, 76014","Match","Exact","3725 MILL HEIGHT DR, ARLINGTON, TX, 76014",101919521,"L"
189925,"3725 MISSISSIPPI DR NW","COON RAPIDS","MN",55433,45.177574844,-93.3609313219999,425,"3725 MISSISSIPPI DR NW, COON RAPIDS, MN, 55433","Match","Exact","3725 MISSISSIPPI DR NW, COON RAPIDS, MN, 55433",636251723,"R"
189926,"3725 MONUMENT HILLS AVE","ROSAMOND","CA",93560,34.857479379,-118.198022539,426,"3725 MONUMENT HILLS AVE, ROSAMOND, CA, 93560","Match","Exact","3725 MONUMENT HILLS AVE, ROSAMOND, CA, 93560",650730614,"R"
189927,"3725 N FLOWING WELLS RD","TUCSON","AZ",85705,32.2744908440001,-110.995022918,427,"3725 N FLOWING WELLS RD, TUCSON, AZ, 85705","Match","Exact","3725 N FLOWING WELLS RD, TUCSON, AZ, 85705",121166372,"L"
189928,"3725 N FLOWING WELLS ROAD","TUCSON","AZ",85705,32.2744908440001,-110.995022918,428,"3725 N FLOWING WELLS ROAD, TUCSON, AZ, 85705","Match","Exact","3725 N FLOWING WELLS RD, TUCSON, AZ, 85705",121166372,"L"
189929,"3725 N SHERMAN BLVD","MILWAUKEE","WI",53216,43.0846546240001,-87.967202522,429,"3725 N SHERMAN BLVD, MILWAUKEE, WI, 53216","Match","Exact","3725 N SHERMAN BLVD, MILWAUKEE, WI, 53216",77731690,"L"
189930,"3725 NASH STREET SE","WASHINGTON","DC",20020,38.872018397,-76.951612827,430,"3725 NASH STREET SE, WASHINGTON, DC, 20020","Match","Exact","3725 NASH ST SE, WASHINGTON, DC, 20020",76233715,"R"
189931,"3725 NE 48TH STREET","KANSAS CITY","MO",64119,39.1814699070001,-94.53554608,431,"3725 NE 48TH STREET, KANSAS CITY, MO, 64119","Match","Exact","3725 NE 48TH ST, KANSAS CITY, MO, 64119",89758371,"R"
189932,"3725 NORTH 20TH STREET","ST LOUIS","MO",63107,38.6604581240001,-90.2027989329999,432,"3725 NORTH 20TH STREET, ST LOUIS, MO, 63107","Match","Exact","3725 N 20TH ST, SAINT LOUIS, MO, 63107",107603747,"L"
189933,"3725 PILGRIM LANE N","PLYMOUTH","MN",55441,45.0248714800001,-93.4074366089999,433,"3725 PILGRIM LANE N, PLYMOUTH, MN, 55441","Match","Exact","3725 PILGRIM LN N, PLYMOUTH, MN, 55441",611646413,"L"
189934,"3725 PILLSBURY AVENUE S","MINNEAPOLIS","MN",55409,44.9353876600001,-93.2813958139999,434,"3725 PILLSBURY AVENUE S, MINNEAPOLIS, MN, 55409","Match","Exact","3725 PILLSBURY AVE S, MINNEAPOLIS, MN, 55409",43633633,"L"
189935,"3725 PRINCETON LAKES PKWY 6309","ATLANTA","GA",30331,33.658707969,-84.5088215009999,435,"3725 PRINCETON LAKES PKWY 6309, ATLANTA, GA, 30331","Match","Exact","3725 PRINCETON LAKES PKWY, ATLANTA, GA, 30331",618349822,"L"
189936,"3725 PRINCETON LAKES PKWY STE 4103","ATLANTA","GA",30331,33.658707969,-84.5088215009999,436,"3725 PRINCETON LAKES PKWY STE 4103, ATLANTA, GA, 30331","Match","Exact","3725 PRINCETON LAKES PKWY, ATLANTA, GA, 30331",618349822,"L"
189937,"3725 REMINGTON DR","CARROLLTON","TX",75007,33.0135477270001,-96.902932707,437,"3725 REMINGTON DR, CARROLLTON, TX, 75007","Match","Exact","3725 REMINGTON DR, CARROLLTON, TX, 75007",103366631,"L"
189938,"3725 SE 132ND AVE","PORTLAND","OR",97236,45.495115555,-122.527467226,438,"3725 SE 132ND AVE, PORTLAND, OR, 97236","Match","Exact","3725 SE 132ND AVE, PORTLAND, OR, 97236",157521680,"R"
189939,"3725 SOUTH CLOVERDALE STREET","SEATTLE","WA",98118,47.5261047860001,-122.285631639,439,"3725 SOUTH CLOVERDALE STREET, SEATTLE, WA, 98118","Match","Exact","3725 S CLOVERDALE ST, SEATTLE, WA, 98118",186596699,"R"
189940,"3725 SOUTH LAKE PARK","CHICAGO","IL",60653,41.8279506430001,-87.605778492,440,"3725 SOUTH LAKE PARK, CHICAGO, IL, 60653","Match","Non_Exact","3725 S LAKE PARK AVE, CHICAGO, IL, 60653",605498369,"L"
189941,"3725 SOUTHMORE BLVD  APT 11","HOUSTON","TX",77004,29.7119021340001,-95.356583654,441,"3725 SOUTHMORE BLVD  APT 11, HOUSTON, TX, 77004","Match","Exact","3725 SOUTHMORE BLVD, HOUSTON, TX, 77004",96074025,"L"
189942,"3725 SUNNYVIEW LN","FLOWER MOUND","TX",75022,NA,NA,442,"3725 SUNNYVIEW LN, FLOWER MOUND, TX, 75022","No_Match",NA,NA,NA,NA
189943,"3725 SW KIMSTIN CIR","BLUE SPRINGS","MO",64015,39.007263575,-94.3070320149999,443,"3725 SW KIMSTIN CIR, BLUE SPRINGS, MO, 64015","Match","Exact","3725 SW KIMSTIN CIR, BLUE SPRINGS, MO, 64015",91517370,"L"
189944,"3725 SYMMES ROAD","HAMILTON","OH",45015,39.343331199,-84.497534832,444,"3725 SYMMES ROAD, HAMILTON, OH, 45015","Match","Exact","3725 SYMMES RD, HAMILTON, OH, 45015",113805877,"R"
189945,"3725 THOMSEN ROAD","HOOD RIVER","OR",97031,45.617037312,-121.51207496,445,"3725 THOMSEN ROAD, HOOD RIVER, OR, 97031","Match","Exact","3725 THOMSEN RD, HOOD RIVER, OR, 97031",158135454,"R"
189946,"3725 VITRUVIAN WAY APT 410","ADDISON","TX",75001,32.93368852,-96.855223016,446,"3725 VITRUVIAN WAY APT 410, ADDISON, TX, 75001","Match","Exact","3725 VITRUVIAN WAY, ADDISON, TX, 75001",103250416,"L"
189947,"3725 W FLAGLER STREET SUITE 138","CORAL GABLES","FL",33127,NA,NA,447,"3725 W FLAGLER STREET SUITE 138, CORAL GABLES, FL, 33127","No_Match",NA,NA,NA,NA
189948,"3725 WILLIAM DEHAES DR APT 1501","IRVING","TX",75038,32.859096477,-96.99641833,448,"3725 WILLIAM DEHAES DR APT 1501, IRVING, TX, 75038","Match","Exact","3725 WILLIAM DEHAES DR, IRVING, TX, 75038",102980480,"L"
189949,"37250 FOX RUN DRIVE","SOLON","OH",44139,41.3958712450001,-81.412693664,449,"37250 FOX RUN DRIVE, SOLON, OH, 44139","Match","Exact","37250 FOX RUN, SOLON, OH, 44139",61136769,"R"
189950,"37252 CHEVAL AIRE RD","BAY MINETTE","AL",36507,30.768026892,-87.7845811019999,450,"37252 CHEVAL AIRE RD, BAY MINETTE, AL, 36507","Match","Exact","37252 CHEVAL AIRE RD, BAY MINETTE, AL, 36507",618723040,"R"
189951,"3726 40TH AVENUE","BRENTWOOD","MD",20722,38.936121079,-76.9499007169999,451,"3726 40TH AVENUE, BRENTWOOD, MD, 20722","Match","Exact","3726 40TH AVE, BRENTWOOD, MD, 20722",76306502,"L"
189952,"3726 ADMIRAL DRIVE UNIT 1B","HIGH POINT","NC",27265,36.027576486,-79.965902935,452,"3726 ADMIRAL DRIVE UNIT 1B, HIGH POINT, NC, 27265","Match","Exact","3726 ADMIRAL DR, HIGH POINT, NC, 27265",629643237,"R"
189953,"3726 AV DE PARIS DRIVE","FLORISSANT","MO",63034,38.829842602,-90.291064288,453,"3726 AV DE PARIS DRIVE, FLORISSANT, MO, 63034","Match","Exact","3726 AV DE PARIS DR, FLORISSANT, MO, 63034",100183676,"R"
189954,"3726 CLUB PLACE","DULUTH","GA",30096,33.9538260510001,-84.148282031,454,"3726 CLUB PLACE, DULUTH, GA, 30096","Match","Exact","3726 CLUB PL, DULUTH, GA, 30096",88899347,"R"
189955,"3726 COCO PLUM CIRCLE","COCONUT CREEK","FL",33063,NA,NA,455,"3726 COCO PLUM CIRCLE, COCONUT CREEK, FL, 33063","No_Match",NA,NA,NA,NA
189956,"3726 DEER TRAIL COURT","DANVILLE","CA",94506,37.805254715,-121.889435173,456,"3726 DEER TRAIL COURT, DANVILLE, CA, 94506","Match","Exact","3726 DEER TRAIL CT, DANVILLE, CA, 94506",192080377,"R"
189957,"3726 DURHAM RD","GREER","SC",29651,35.012100864,-82.266990412,457,"3726 DURHAM RD, GREER, SC, 29651","Match","Exact","3726 DURHAM RD, GREER, SC, 29651",38358980,"R"
189958,"3726 EMERSON AVE N","MINNEAPOLIS","MN",55412,45.022710053,-93.294324334,458,"3726 EMERSON AVE N, MINNEAPOLIS, MN, 55412","Match","Exact","3726 EMERSON AVE N, MINNEAPOLIS, MN, 55412",43622289,"R"
189959,"3726 FREMONT AVENUE NORTH","MINNEAPOLIS","MN",55412,45.0227219720001,-93.295580097,459,"3726 FREMONT AVENUE NORTH, MINNEAPOLIS, MN, 55412","Match","Exact","3726 FREMONT AVE N, MINNEAPOLIS, MN, 55412",43622283,"R"
189960,"3726 KNOWLES RD","WENATCHEE","WA",98801,47.4849108170001,-120.348691558,460,"3726 KNOWLES RD, WENATCHEE, WA, 98801","Match","Exact","3726 KNOWLES RD, WENATCHEE, WA, 98801",641481573,"R"
189961,"3726 NEEDHAM RD","LEXINGTON","OH",44904,40.655873888,-82.62303782,461,"3726 NEEDHAM RD, LEXINGTON, OH, 44904","Match","Exact","3726 NEEDHAM RD, LEXINGTON, OH, 44904",207218232,"R"
189962,"3726 NORTH LIBERTY STREET","CANTON","MS",39046,32.6383660340001,-90.025979492,462,"3726 NORTH LIBERTY STREET, CANTON, MS, 39046","Match","Exact","3726 N LIBERTY ST, CANTON, MS, 39046",152473179,"R"
189963,"3726 RUBY DRIVE","MESQUITE","TX",75150,32.814722095,-96.655444296,463,"3726 RUBY DRIVE, MESQUITE, TX, 75150","Match","Exact","3726 RUBY DR, MESQUITE, TX, 75150",103201092,"L"
189964,"3726 S AVENIDA DE LAS PALMAS","TUCSON","AZ",85730,32.178043286,-110.810430891,464,"3726 S AVENIDA DE LAS PALMAS, TUCSON, AZ, 85730","Match","Exact","3726 S AVE DE LAS PALMAS, TUCSON, AZ, 85730",121185172,"R"
189965,"3726 S PARTON ST","SANTA ANA","CA",92707,33.6990190930001,-117.874486586,465,"3726 S PARTON ST, SANTA ANA, CA, 92707","Match","Exact","3726 S PARTON ST, SANTA ANA, CA, 92707",144105998,"R"
189966,"3726 TRANT AVENUE","NORFOLK","VA",23502,36.850979266,-76.2335030419999,466,"3726 TRANT AVENUE, NORFOLK, VA, 23502","Match","Exact","3726 TRANT AVE, NORFOLK, VA, 23502",122129501,"L"
189967,"3726 W ROANOKE AVE SUITE 8","PHOENIX","AZ",85009,33.478888484,-112.139408869,467,"3726 W ROANOKE AVE SUITE 8, PHOENIX, AZ, 85009","Match","Non_Exact","3726 W ROANOKE AVE, PHOENIX, AZ, 85009",128264898,"L"
189968,"3726 W ROXBURY ST","SPRINGFIELD","MO",65807,37.1505776290001,-93.354686331,468,"3726 W ROXBURY ST, SPRINGFIELD, MO, 65807","Match","Exact","3726 W ROXBURY ST, SPRINGFIELD, MO, 65807",76695582,"L"
189969,"3726-1B ADMIRAL DR","HIGH POINT","NC",27265,36.0266312960001,-79.9654087439999,469,"3726-1B ADMIRAL DR, HIGH POINT, NC, 27265","Match","Exact","3726 ADMIRAL DR, HIGH POINT, NC, 27265",629643237,"R"
189970,"3727  DILIDO RD STE 134","DALLAS","TX",75228,32.799730321,-96.688216403,470,"3727  DILIDO RD STE 134, DALLAS, TX, 75228","Match","Exact","3727 DILIDO RD, DALLAS, TX, 75228",102924700,"R"
189971,"3727 1/2 WEST 107TH STREET","INGLEWOOD","CA",90303,33.938785099,-118.338489563,471,"3727 1/2 WEST 107TH STREET, INGLEWOOD, CA, 90303","Match","Exact","3727 W 107TH ST, INGLEWOOD, CA, 90303",638621233,"R"
189972,"3727 192ND ST SW","LYNNWOOD","WA",98036,47.8243979430001,-122.283303367,472,"3727 192ND ST SW, LYNNWOOD, WA, 98036","Match","Exact","3727 192ND ST SW, LYNNWOOD, WA, 98036",187754411,"R"
189973,"3727 34TH STREET","HAMILTON","MI",49419,42.6893476920001,-85.879005627,473,"3727 34TH STREET, HAMILTON, MI, 49419","Match","Exact","3727 34TH ST, HAMILTON, MI, 49419",635605255,"R"
189974,"3727 AVE M","GALVESTON","TX",77550,29.293061161,-94.8074962969999,474,"3727 AVE M, GALVESTON, TX, 77550","Match","Exact","3727 AVE M, GALVESTON, TX, 77550",96679565,"L"
189975,"3727 AYRSHIRE COURT","HARRISBURG","NC",28075,35.31613294,-80.6377295029999,475,"3727 AYRSHIRE COURT, HARRISBURG, NC, 28075","Match","Exact","3727 AYRSHIRE CT, HARRISBURG, NC, 28075",24922337,"L"
189976,"3727 BANGOR STREET SE","WASHINTON","DC",20020,38.861805944,-76.953583469,476,"3727 BANGOR STREET SE, WASHINTON, DC, 20020","Match","Non_Exact","3727 BANGOR ST SE, WASHINGTON, DC, 20020",76232155,"R"
189977,"3727 BOSWORTH RD","CLEVELAND","OH",44111,41.4517420230001,-81.7637735879999,477,"3727 BOSWORTH RD, CLEVELAND, OH, 44111","Match","Exact","3727 BOSWORTH RD, CLEVELAND, OH, 44111",61104625,"L"
189978,"3727 CANDIA DRIVE","PUNTA GORDA","FL",33950,26.895906144,-82.0437380929999,478,"3727 CANDIA DRIVE, PUNTA GORDA, FL, 33950","Match","Exact","3727 CANDIA DR, PUNTA GORDA, FL, 33950",647539432,"L"
189979,"3727 CASPIAN DRIVE","COLUMBUS","GA",31906,32.439351059,-84.930522111,479,"3727 CASPIAN DRIVE, COLUMBUS, GA, 31906","Match","Exact","3727 CASPIAN DR, COLUMBUS, GA, 31906",98942903,"L"
189980,"3727 E FOX RUN PLACE","SIOUX FALLS","SD",57103,43.509594221,-96.6802739349999,480,"3727 E FOX RUN PLACE, SIOUX FALLS, SD, 57103","Match","Exact","3727 E FOX RUN PL, SIOUX FALLS, SD, 57103",624803836,"R"
189981,"3727 ROWLOCK VINE DR","HOUSTON","TX",77084,29.8226413790001,-95.681950263,481,"3727 ROWLOCK VINE DR, HOUSTON, TX, 77084","Match","Exact","3727 ROWLOCK VINE DR, HOUSTON, TX, 77084",634989875,"R"
189982,"3727 S BROADWAY","ST LOUIS","MO",63118,38.5870986850001,-90.225639691,482,"3727 S BROADWAY, ST LOUIS, MO, 63118","Match","Exact","3727 S BROADWAY, SAINT LOUIS, MO, 63118",107602734,"R"
189983,"3727 S MILITARY TRAIL","FLORIDA","FL",33463,26.6225991250001,-80.113453369,483,"3727 S MILITARY TRAIL, FLORIDA, FL, 33463","Match","Non_Exact","3727 S MILITARY TRL, LAKE WORTH, FL, 33463",115284375,"R"
189984,"3727 S PORT DRIVE 79","SACRAMENTO","CA",95826,38.546029253,-121.362318719,484,"3727 S PORT DRIVE 79, SACRAMENTO, CA, 95826","Match","Non_Exact","3727 S PORT DR, SACRAMENTO, CA, 95826",614156712,"L"
189985,"3727 TIMBER CREEK LANE","NAPERVILLE","IL",60565,41.7052148220001,-88.155157296,485,"3727 TIMBER CREEK LANE, NAPERVILLE, IL, 60565","Match","Exact","3727 TIMBER CREEK LN, NAPERVILLE, IL, 60565",625046272,"R"
189986,"3727 W 114TH ST","CHICAGO","IL",60655,41.685674551,-87.713966967,486,"3727 W 114TH ST, CHICAGO, IL, 60655","Match","Exact","3727 W 114TH ST, CHICAGO, IL, 60655",111819300,"L"
189987,"3727 W 6TH ST SUITE 615","LOS ANGELES","CA",90020,34.063557942,-118.303547114,487,"3727 W 6TH ST SUITE 615, LOS ANGELES, CA, 90020","Match","Non_Exact","3727 W 6TH ST, LOS ANGELES, CA, 90020",141603889,"R"
189988,"3727 W 6TH ST","LOS ANGELES","CA",90020,34.063557942,-118.303547114,488,"3727 W 6TH ST, LOS ANGELES, CA, 90020","Match","Exact","3727 W 6TH ST, LOS ANGELES, CA, 90020",141603889,"R"
189989,"3727 W JUNIPER COURT","MILWAUKEE","WI",53209,43.149976167,-87.959035832,489,"3727 W JUNIPER COURT, MILWAUKEE, WI, 53209","Match","Exact","3727 W JUNIPER CT, MILWAUKEE, WI, 53209",77735157,"L"
189990,"3727 W MAGNOLIA BLVD APT 431","BURBANK","CA",91505,34.1677710910001,-118.347283913,490,"3727 W MAGNOLIA BLVD APT 431, BURBANK, CA, 91505","Match","Non_Exact","3727 W MAGNOLIA BLVD, BURBANK, CA, 91505",141592845,"R"
189991,"3727 WEST 6TH STREET    STE 405","LOS ANGELES","CA",90020,34.0635581010001,-118.303522303,491,"3727 WEST 6TH STREET    STE 405, LOS ANGELES, CA, 90020","Match","Exact","3727 W 6TH ST, LOS ANGELES, CA, 90020",141603889,"R"
189992,"3727 WEST MAGNOLIA BLVD 135","BURBANK","CA",91505,34.167772665,-118.347279213,492,"3727 WEST MAGNOLIA BLVD 135, BURBANK, CA, 91505","Match","Exact","3727 W MAGNOLIA BLVD, BURBANK, CA, 91505",141592845,"R"
189993,"3727 WEST MAGNOLIA BLVD SUITE 195","BURBANK","CA",91505,34.167772665,-118.347279213,493,"3727 WEST MAGNOLIA BLVD SUITE 195, BURBANK, CA, 91505","Match","Exact","3727 W MAGNOLIA BLVD, BURBANK, CA, 91505",141592845,"R"
189994,"3727","ALPINE","CA",91901,NA,NA,494,"3727, ALPINE, CA, 91901","No_Match",NA,NA,NA,NA
189995,"37273 WESTRIDGE AVE","PALM DESERT","CA",92211,33.7782294300001,-116.297839641,495,"37273 WESTRIDGE AVE, PALM DESERT, CA, 92211","Match","Exact","37273 WESTRIDGE AVE, PALM DESERT, CA, 92211",195044527,"L"
189996,"37278 JEB STUART RD","PURCELLVILLE","VA",20132,39.0426925350001,-77.72722476,496,"37278 JEB STUART RD, PURCELLVILLE, VA, 20132","Match","Exact","37278 JEB STUART RD, PURCELLVILLE, VA, 20132",62349835,"R"
189997,"3728 AVENUE J","FORT WORTH","TX",76105,32.727068817,-97.270416478,497,"3728 AVENUE J, FORT WORTH, TX, 76105","Match","Exact","3728 AVE J, FORT WORTH, TX, 76105",101896942,"R"
189998,"3728 CORDES AVE NW","COMSTOCK PARK","MI",49321,43.0313567860001,-85.6993687949999,498,"3728 CORDES AVE NW, COMSTOCK PARK, MI, 49321","Match","Exact","3728 CORDES AVE NW, COMSTOCK PARK, MI, 49321",12483940,"R"
189999,"3728 ELM AVENUE","BALTIMORE","MD",21211,39.3336989260001,-76.631425343,499,"3728 ELM AVENUE, BALTIMORE, MD, 21211","Match","Exact","3728 ELM AVE, BALTIMORE, MD, 21211",206407683,"L"
190000,"3728 FOUNTAIN ST","CAMARILLO","CA",93012,34.210035169,-119.020466074,500,"3728 FOUNTAIN ST, CAMARILLO, CA, 93012","Match","Exact","3728 FOUNTAIN ST, CAMARILLO, CA, 93012",110054900,"R"
