"ID","Address","City","State","Zip","lat","long","id","input_address","match_indicator","match_type","matched_address","tiger_line_id","tiger_side"
152001,"2820 S ALMA SCHOOL RD STE 18-463","CHANDLER","AZ",85286,NA,NA,1,"2820 S ALMA SCHOOL RD STE 18-463, CHANDLER, AZ, 85286","No_Match",NA,NA,NA,NA
152002,"2820 S BANTA ROAD","TRACY","CA",95304,NA,NA,2,"2820 S BANTA ROAD, TRACY, CA, 95304","No_Match",NA,NA,NA,NA
152003,"2820 S DECATUR BLVD APT 21","LAS VEGAS","NV",89102,36.13873033,-115.208088714,3,"2820 S DECATUR BLVD APT 21, LAS VEGAS, NV, 89102","Match","Non_Exact","2820 S DECATUR BLVD, LAS VEGAS, NV, 89102",201862987,"L"
152004,"2820 SE MINNESOTA AVE","TOPEKA","KS",66605,39.016601006,-95.655616971,4,"2820 SE MINNESOTA AVE, TOPEKA, KS, 66605","Match","Exact","2820 SE MINNESOTA AVE, TOPEKA, KS, 66605",17890830,"L"
152005,"2820 SELWYN AVE SUITE 847","CHARLOTTE","NC",28209,35.174976621,-80.839197123,5,"2820 SELWYN AVE SUITE 847, CHARLOTTE, NC, 28209","Match","Exact","2820 SELWYN AVE, CHARLOTTE, NC, 28209",70488136,"R"
152006,"2820 SLOAN STREET","FLINT","MI",48504,43.0251449040001,-83.730063167,6,"2820 SLOAN STREET, FLINT, MI, 48504","Match","Exact","2820 SLOAN ST, FLINT, MI, 48504",69565045,"R"
152007,"2820 SOUTH BARTELL I 24","HOUSTON","TX",77054,29.6804254370001,-95.419486311,7,"2820 SOUTH BARTELL I 24, HOUSTON, TX, 77054","Match","Non_Exact","2820 S BARTELL DR, HOUSTON, TX, 77054",642479717,"L"
152008,"2820 SOUTH VERMONT AVE SUITE 24","LOS ANGELES","CA",90007,34.028797947,-118.291528654,8,"2820 SOUTH VERMONT AVE SUITE 24, LOS ANGELES, CA, 90007","Match","Exact","2820 S VERMONT AVE, LOS ANGELES, CA, 90007",141607087,"L"
152009,"2820 STONEWAY LANE APT C","FT PIERCE","FL",34982,27.4166859740001,-80.349041956,9,"2820 STONEWAY LANE APT C, FT PIERCE, FL, 34982","Match","Exact","2820 STONEWAY LN, FORT PIERCE, FL, 34982",610732851,"L"
152010,"2820 SUMMER GROVE DRIVE","SHREVEPORT","LA",71118,32.3999622860001,-93.803202369,10,"2820 SUMMER GROVE DRIVE, SHREVEPORT, LA, 71118","Match","Exact","2820 SUMMER GROVE DR, SHREVEPORT, LA, 71118",640437423,"R"
152011,"2820 SUNSET AVE","WAUKEGAN","IL",60087,42.3920315890001,-87.8710158329999,11,"2820 SUNSET AVE, WAUKEGAN, IL, 60087","Match","Exact","2820 SUNSET AVE, WAUKEGAN, IL, 60087",119627022,"R"
152012,"2820 SW SUN COURT","PORT ST LUCIE","FL",34953,27.25873175,-80.364645211,12,"2820 SW SUN COURT, PORT ST LUCIE, FL, 34953","Match","Exact","2820 SW SUN CT, PORT ST LUCIE, FL, 34953",120169984,"R"
152013,"2820 UPPERLINE ST","NEW ORLEANS","LA",70115,29.9380696760001,-90.10712846,13,"2820 UPPERLINE ST, NEW ORLEANS, LA, 70115","Match","Exact","2820 UPPERLINE ST, NEW ORLEANS, LA, 70115",191711585,"L"
152014,"2820 VOELKEL AVE","PITTSBURGH","PA",15216,40.39901845,-80.035618422,14,"2820 VOELKEL AVE, PITTSBURGH, PA, 15216","Match","Exact","2820 VOELKEL AVE, PITTSBURGH, PA, 15216",51631163,"R"
152015,"2820 W CESSNA AVENUE","HAYDEN","ID",83835,47.7690207960001,-116.823669789,15,"2820 W CESSNA AVENUE, HAYDEN, ID, 83835","Match","Exact","2820 W CESSNA AVE, HAYDEN, ID, 83835",192942912,"L"
152016,"2820 W JARLATH ST","CHICAGO","IL",60645,42.0129674090001,-87.700424766,16,"2820 W JARLATH ST, CHICAGO, IL, 60645","Match","Exact","2820 W JARLATH ST, CHICAGO, IL, 60645",605265357,"R"
152017,"2820 W LAUREL LN APT 215","PHOENIX","AZ",85029,33.594578676,-112.119020269,17,"2820 W LAUREL LN APT 215, PHOENIX, AZ, 85029","Match","Non_Exact","2820 W LAUREL LN, PHOENIX, AZ, 85029",128321807,"R"
152018,"2820 W MONTROSE AVE APT 2","CHICAGO","IL",60618,41.961250164,-87.699378484,18,"2820 W MONTROSE AVE APT 2, CHICAGO, IL, 60618","Match","Non_Exact","2820 W MONTROSE AVE, CHICAGO, IL, 60618",605156920,"R"
152019,"2820 W ROSE GARDEN LANE","PHOENIX","AZ",85027,33.6761969950001,-112.119843658,19,"2820 W ROSE GARDEN LANE, PHOENIX, AZ, 85027","Match","Exact","2820 W ROSE GARDEN LN, PHOENIX, AZ, 85027",128399209,"R"
152020,"2820 WEST ACACIA AVE","FRESNO","CA",93705,36.8042448,-119.843315567,20,"2820 WEST ACACIA AVE, FRESNO, CA, 93705","Match","Exact","2820 W ACACIA AVE, FRESNO, CA, 93705",197597830,"R"
152021,"2820 WEST MAPLE ROAD SUITE 128","TROY","MI",48084,42.5475087040001,-83.183522486,21,"2820 WEST MAPLE ROAD SUITE 128, TROY, MI, 48084","Match","Exact","2820 W MAPLE RD, TROY, MI, 48084",630328099,"R"
152022,"2820 WEST ROSE GARDEN LANE","PHOENIX","AZ",85027,33.676196518,-112.119843169,22,"2820 WEST ROSE GARDEN LANE, PHOENIX, AZ, 85027","Match","Exact","2820 W ROSE GARDEN LN, PHOENIX, AZ, 85027",128399209,"R"
152023,"2820 WILDWOOD CT","WALKERSVILLE","MD",21793,39.4715220360001,-77.35886477,23,"2820 WILDWOOD CT, WALKERSVILLE, MD, 21793","Match","Exact","2820 WILDWOOD CT, WALKERSVILLE, MD, 21793",60675175,"L"
152024,"28201 OLD VILLAGE ROAD","MECHANICSVILLE","MD",20659,38.4424822980001,-76.74460127,24,"28201 OLD VILLAGE ROAD, MECHANICSVILLE, MD, 20659","Match","Exact","28201 OLD VILLAGE RD, MECHANICSVILLE, MD, 20659",36625539,"L"
152025,"28202 CABOT RD STE 300","LAGUNA NIGUEL","CA",92677,33.5547455980001,-117.678729549,25,"28202 CABOT RD STE 300, LAGUNA NIGUEL, CA, 92677","Match","Exact","28202 CABOT RD, LAGUNA NIGUEL, CA, 92677",616891974,"L"
152026,"28202 ISLAND MANOR LN","FULSHEAR","TX",77441,29.7124970150001,-95.8628973249999,26,"28202 ISLAND MANOR LN, FULSHEAR, TX, 77441","Match","Exact","28202 ISLAND MANOR LN, FULSHEAR, TX, 77441",642962211,"R"
152027,"28202 LOVE RANCH ROAD","BAKER CITY","OR",97814,NA,NA,27,"28202 LOVE RANCH ROAD, BAKER CITY, OR, 97814","No_Match",NA,NA,NA,NA
152028,"28204 SW 168 COURT","HOMESTEAD","FL",33030,25.504920344,-80.464715825,28,"28204 SW 168 COURT, HOMESTEAD, FL, 33030","Match","Exact","28204 SW 168TH CT, HOMESTEAD, FL, 33030",116052579,"R"
152029,"28206 PONTEVEDRA DRIVE","RANCHO PALOS VERDES","CA",90275,33.763861707,-118.312133998,29,"28206 PONTEVEDRA DRIVE, RANCHO PALOS VERDES, CA, 90275","Match","Exact","28206 PONTEVEDRA DR, RANCHO PALOS VERDES, CA, 90275",141688689,"L"
152030,"2820A 24TH STREET ENSLEY APT A","BIRMINGHAM","AL",35208,33.5051789250001,-86.869479967,30,"2820A 24TH STREET ENSLEY APT A, BIRMINGHAM, AL, 35208","Match","Non_Exact","2820 24TH ST W, BIRMINGHAM, AL, 35208",81675909,"L"
152031,"2821 9-1/2 ST N","FARGO","ND",58102,46.912440696,-96.79217977,31,"2821 9-1/2 ST N, FARGO, ND, 58102","Match","Non_Exact","2821 9 1/2 ST N, FARGO, ND, 58102",151445808,"R"
152032,"2821 9TH ST","CUYAHOGA FALLS","OH",44221,41.149415618,-81.493294368,32,"2821 9TH ST, CUYAHOGA FALLS, OH, 44221","Match","Exact","2821 9TH ST, CUYAHOGA FALLS, OH, 44221",61347690,"R"
152033,"2821 BANCROFT STREET","CHARLOTTE","NC",28206,35.2560920760001,-80.8218395119999,33,"2821 BANCROFT STREET, CHARLOTTE, NC, 28206","Match","Exact","2821 BANCROFT ST, CHARLOTTE, NC, 28206",70478969,"L"
152034,"2821 BERKSHIRE PKWY","CLIVE","IA",50325,41.6227144380001,-93.84618261,34,"2821 BERKSHIRE PKWY, CLIVE, IA, 50325","Match","Exact","2821 BERKSHIRE PKWY, CLIVE, IA, 50325",634489537,"R"
152035,"2821 BIGGIN HILL CT UNIT 111","LOUISVILLE","KY",40220,38.209352433,-85.598549884,35,"2821 BIGGIN HILL CT UNIT 111, LOUISVILLE, KY, 40220","Match","Exact","2821 BIGGIN HILL CT, LOUISVILLE, KY, 40220",96884048,"L"
152036,"2821 BROOKWOOD TERRACE","MINNEAPOLIS","MN",55410,44.906162685,-93.3156737749999,36,"2821 BROOKWOOD TERRACE, MINNEAPOLIS, MN, 55410","Match","Exact","2821 BROOKWOOD TER, MINNEAPOLIS, MN, 55410",43628369,"L"
152037,"2821 CALDWELL STREET","OMAHA","NE",68131,41.271048094,-95.954220009,37,"2821 CALDWELL STREET, OMAHA, NE, 68131","Match","Exact","2821 CALDWELL ST, OMAHA, NE, 68131",116980540,"L"
152038,"2821 CATO RIDGE DR","NASHVILLE","TN",37218,36.2224801610001,-86.87171739,38,"2821 CATO RIDGE DR, NASHVILLE, TN, 37218","Match","Exact","2821 CATO RIDGE DR, NASHVILLE, TN, 37218",631787161,"L"
152039,"2821 CREEKVIEW PLACE","NORMAN","OK",73071,35.199684716,-97.401333677,39,"2821 CREEKVIEW PLACE, NORMAN, OK, 73071","Match","Exact","2821 CREEKVIEW PL, NORMAN, OK, 73071",99912587,"R"
152040,"2821 E 3200 N","TWIN FALLS","ID",83301,42.4618302970001,-114.495376761,40,"2821 E 3200 N, TWIN FALLS, ID, 83301","Match","Exact","2821 E 3200 N, TWIN FALLS, ID, 83301",118776107,"L"
152041,"2821 GABRIEL AVENUE","ZION","IL",60099,42.4439602750001,-87.8391445949999,41,"2821 GABRIEL AVENUE, ZION, IL, 60099","Match","Exact","2821 GABRIEL AVE, ZION, IL, 60099",119628587,"L"
152042,"2821 HILLCREST AVENUE","FLINT","MI",48507,42.9968508060001,-83.662048672,42,"2821 HILLCREST AVENUE, FLINT, MI, 48507","Match","Exact","2821 HILLCREST AVE, FLINT, MI, 48507",69575673,"L"
152043,"2821 JASON DRIVE","ROCKY MOUNT","NC",27803,35.943743995,-77.838113767,43,"2821 JASON DRIVE, ROCKY MOUNT, NC, 27803","Match","Exact","2821 JASON DR, ROCKY MOUNT, NC, 27803",90398750,"L"
152044,"2821 KENSINGTON ST","ATHENS","TN",37303,35.4794612900001,-84.581240441,44,"2821 KENSINGTON ST, ATHENS, TN, 37303","Match","Non_Exact","2821 KENNSINGTON ST, ATHENS, TN, 37303",616617156,"L"
152045,"2821 LAS VEGAS TRL APT 86","FORT WORTH","TX",76116,32.73441804,-97.466502754,45,"2821 LAS VEGAS TRL APT 86, FORT WORTH, TX, 76116","Match","Exact","2821 LAS VEGAS TRL, FORT WORTH, TX, 76116",102135999,"L"
152046,"2821 LAUREL OAK DRIVE","MCKINNEY","TX",75071,33.236826186,-96.684918051,46,"2821 LAUREL OAK DRIVE, MCKINNEY, TX, 75071","Match","Exact","2821 LAUREL OAK DR, MCKINNEY, TX, 75071",616525608,"L"
152047,"2821 MILL LAKE WAY","MORROW","GA",30260,33.5767595830001,-84.2992598659999,47,"2821 MILL LAKE WAY, MORROW, GA, 30260","Match","Exact","2821 MILL LAKE WAY, MORROW, GA, 30260",23326216,"R"
152048,"2821 MONROE STREET","OMAHA","NE",68107,41.1936249390001,-95.955661928,48,"2821 MONROE STREET, OMAHA, NE, 68107","Match","Exact","2821 MONROE ST, OMAHA, NE, 68107",116986665,"L"
152049,"2821 N 4TH STREET","MILWAUKEE","WI",53212,43.0698328770001,-87.915516161,49,"2821 N 4TH STREET, MILWAUKEE, WI, 53212","Match","Exact","2821 N 4TH ST, MILWAUKEE, WI, 53212",77739645,"L"
152050,"2821 N LONE DOVE TRL","TUCSON","AZ",85749,32.2576210390001,-110.742217269,50,"2821 N LONE DOVE TRL, TUCSON, AZ, 85749","Match","Exact","2821 N LONE DOVE TRL, TUCSON, AZ, 85749",623725035,"L"
152051,"2821 N MAPLEWOOD","CHICAGO","IL",60618,41.9329585830001,-87.691584851,51,"2821 N MAPLEWOOD, CHICAGO, IL, 60618","Match","Non_Exact","2821 N MAPLEWOOD AVE, CHICAGO, IL, 60618",605231280,"R"
152052,"2821 NW 41ST ST","OKLAHOMA","OK",73112,35.5138040680001,-97.5640987259999,52,"2821 NW 41ST ST, OKLAHOMA, OK, 73112","Match","Non_Exact","2821 NW 41ST ST, OKLAHOMA CITY, OK, 73112",100396165,"R"
152053,"2821 NW 61ST ST","SEATTLE","WA",98107,47.6729678360001,-122.393418046,53,"2821 NW 61ST ST, SEATTLE, WA, 98107","Match","Exact","2821 NW 61ST ST, SEATTLE, WA, 98107",186658261,"L"
152054,"2821 PARKVIEW DR","LONGVIEW","WA",98632,46.1559243980001,-122.940044104,54,"2821 PARKVIEW DR, LONGVIEW, WA, 98632","Match","Exact","2821 PARKVIEW DR, LONGVIEW, WA, 98632",184488890,"L"
152055,"2821 POWELL DRIVE","WOODBRIDGE","VA",22191,38.604011745,-77.298300093,55,"2821 POWELL DRIVE, WOODBRIDGE, VA, 22191","Match","Exact","2821 POWELL DR, WOODBRIDGE, VA, 22191",76511250,"L"
152056,"2821 RIDGE COVE COURT","ORLANDO","FL",32818,28.581719853,-81.479772789,56,"2821 RIDGE COVE COURT, ORLANDO, FL, 32818","Match","Exact","2821 RIDGE COVE CT, ORLANDO, FL, 32818",94370951,"L"
152057,"2821 RIVER PLAZA DR APT 28","SACRAMENTO","CA",95833,38.608192095,-121.527869131,57,"2821 RIVER PLAZA DR APT 28, SACRAMENTO, CA, 95833","Match","Exact","2821 RIVER PLAZA DR, SACRAMENTO, CA, 95833",133395116,"L"
152058,"2821 ROSELAWN AVENUE","BALTIMORE","MD",21214,39.3582394090001,-76.561367236,58,"2821 ROSELAWN AVENUE, BALTIMORE, MD, 21214","Match","Exact","2821 ROSELAWN AVE, BALTIMORE, MD, 21214",206410766,"R"
152059,"2821 S 325 W","CRAWFORDSVILLE","IN",47933,NA,NA,59,"2821 S 325 W, CRAWFORDSVILLE, IN, 47933","No_Match",NA,NA,NA,NA
152060,"2821 S PARKER RD SUITE 167","AURORA","CO",80013,NA,NA,60,"2821 S PARKER RD SUITE 167, AURORA, CO, 80013","No_Match",NA,NA,NA,NA
152061,"2821 S PARKER ROAD SUITE 407","AURORA","CO",80014,39.6653931290001,-104.860115789,61,"2821 S PARKER ROAD SUITE 407, AURORA, CO, 80014","Match","Non_Exact","2821 S PARKER RD, AURORA, CO, 80014",640596210,"R"
152062,"2821 S PARKER ROAD SUITE 525","AURORA","CO",80014,39.6653931290001,-104.860115789,62,"2821 S PARKER ROAD SUITE 525, AURORA, CO, 80014","Match","Non_Exact","2821 S PARKER RD, AURORA, CO, 80014",640596210,"R"
152063,"2821 SOUTH PARKER RD SUITE 2-567","AURORA","CO",80014,39.665407515,-104.860129289,63,"2821 SOUTH PARKER RD SUITE 2-567, AURORA, CO, 80014","Match","Exact","2821 S PARKER RD, AURORA, CO, 80014",640596210,"R"
152064,"2821 STRIETZ DR","JOLIET","IL",60435,41.5287686410001,-88.152445431,64,"2821 STRIETZ DR, JOLIET, IL, 60435","Match","Non_Exact","2821 STREITZ DR, JOLIET, IL, 60435",111604862,"L"
152065,"2821 VICTORIA DR","NORMAN","OK",73072,35.252487595,-97.4976019859999,65,"2821 VICTORIA DR, NORMAN, OK, 73072","Match","Exact","2821 VICTORIA DR, NORMAN, OK, 73072",99906721,"R"
152066,"2821 W  CANTON RD","EDINBURG","TX",78539,26.2800454740001,-98.196975707,66,"2821 W  CANTON RD, EDINBURG, TX, 78539","Match","Exact","2821 W CANTON RD, EDINBURG, TX, 78539",607640440,"R"
152067,"2821 W 7TH STREET SUITE 270","FORT WORTH","TX",76107,32.751127662,-97.356958123,67,"2821 W 7TH STREET SUITE 270, FORT WORTH, TX, 76107","Match","Non_Exact","2821 W 7TH ST, FORT WORTH, TX, 76107",101883915,"L"
152068,"2821 WADE ROAD","DURHAM","NC",27705,35.9794899610001,-78.951178806,68,"2821 WADE ROAD, DURHAM, NC, 27705","Match","Exact","2821 WADE RD, DURHAM, NC, 27705",71752206,"R"
152069,"2821 WEST 12TH STREET APT 20D","BROOKLYN","NY",11224,40.579111674,-73.979606744,69,"2821 WEST 12TH STREET APT 20D, BROOKLYN, NY, 11224","Match","Exact","2821 W 12TH ST, BROOKLYN, NY, 11224",624519896,"L"
152070,"2821 WEST FLETCHER STREET","CHICAGO","IL",60618,41.9384723220001,-87.698654999,70,"2821 WEST FLETCHER STREET, CHICAGO, IL, 60618","Match","Exact","2821 W FLETCHER ST, CHICAGO, IL, 60618",605230033,"L"
152071,"2821 WORDEN ST","SAN DIEGO","CA",92110,32.75004633,-117.224314153,71,"2821 WORDEN ST, SAN DIEGO, CA, 92110","Match","Exact","2821 WORDEN ST, SAN DIEGO, CA, 92110",195340581,"R"
152072,"28210 225TH PLACE SE","MAPLE VALLEY","WA",98038,47.3485080340001,-122.04120006,72,"28210 225TH PLACE SE, MAPLE VALLEY, WA, 98038","Match","Exact","28210 225TH PL SE, MAPLE VALLEY, WA, 98038",627283162,"R"
152073,"28211 FOUNTAIN ST","ROSEVILLE","MI",48066,42.5037967960001,-82.95001923,73,"28211 FOUNTAIN ST, ROSEVILLE, MI, 48066","Match","Exact","28211 FOUNTAIN ST, ROSEVILLE, MI, 48066",110676252,"L"
152074,"28212 KELLY JOHNSON PKWY ST 195","VALENCIA","CA",91355,34.4463303220001,-118.579302079,74,"28212 KELLY JOHNSON PKWY ST 195, VALENCIA, CA, 91355","Match","Exact","28212 KELLY JOHNSON PKWY, VALENCIA, CA, 91355",627283930,"R"
152075,"28213 EDINBORGH","ROMULUS","MI",48174,42.1842997420001,-83.3133213519999,75,"28213 EDINBORGH, ROMULUS, MI, 48174","Match","Non_Exact","28213 EDINBURGH DR, ROMULUS, MI, 48174",642173445,"L"
152076,"28213 MEADOW FRST","MAGNOLIA","TX",77355,30.166734209,-95.7413150849999,76,"28213 MEADOW FRST, MAGNOLIA, TX, 77355","Match","Exact","28213 MEADOW FOREST, MAGNOLIA, TX, 77355",627710170,"L"
152077,"28218 51ST PL S","AUBURN","WA",98001,47.3489429210001,-122.269935594,77,"28218 51ST PL S, AUBURN, WA, 98001","Match","Exact","28218 51ST PL S, AUBURN, WA, 98001",627330139,"L"
152078,"2822 17TH AVENUE NORTH","TEXAS CITY","TX",77590,29.400974681,-94.93643796,78,"2822 17TH AVENUE NORTH, TEXAS CITY, TX, 77590","Match","Exact","2822 17TH AVE N, TEXAS CITY, TX, 77590",96687128,"R"
152079,"2822 24 ST","LUBBOCK","TX",79410,33.572557282,-101.876827708,79,"2822 24 ST, LUBBOCK, TX, 79410","Match","Exact","2822 24TH ST, LUBBOCK, TX, 79410",185253319,"R"
152080,"2822 33RD AVE SW","CEDAR RAPIDS","IA",52404,41.945646944,-91.7095970779999,80,"2822 33RD AVE SW, CEDAR RAPIDS, IA, 52404","Match","Exact","2822 33RD AVE SW, CEDAR RAPIDS, IA, 52404",613174550,"R"
152081,"2822 3RD AVENUE","KEARNEY","NE",68845,40.7041303710001,-99.085660247,81,"2822 3RD AVENUE, KEARNEY, NE, 68845","Match","Exact","2822 3RD AVE, KEARNEY, NE, 68845",137839202,"L"
152082,"2822 44TH ST CT NE","TACOMA","WA",98422,47.2967421220001,-122.410468164,82,"2822 44TH ST CT NE, TACOMA, WA, 98422","Match","Exact","2822 44TH STREET CT NE, TACOMA, WA, 98422",627457106,"R"
152083,"2822 54TH AVE SOUTH STE 180","SAINT PETERSBURG","FL",33712,27.7192540820001,-82.671605727,83,"2822 54TH AVE SOUTH STE 180, SAINT PETERSBURG, FL, 33712","Match","Exact","2822 54TH AVE S, SAINT PETERSBURG, FL, 33712",124710296,"L"
152084,"2822 54TH AVENUE SOUTH SUITE 212","SAINT PETERSBURG","FL",33712,27.7192540820001,-82.671605727,84,"2822 54TH AVENUE SOUTH SUITE 212, SAINT PETERSBURG, FL, 33712","Match","Exact","2822 54TH AVE S, SAINT PETERSBURG, FL, 33712",124710296,"L"
152085,"2822 54TH AVENUE SOUTH UNIT 241","ST PETERSBURG","FL",33712,27.7192540820001,-82.671605727,85,"2822 54TH AVENUE SOUTH UNIT 241, ST PETERSBURG, FL, 33712","Match","Exact","2822 54TH AVE S, SAINT PETERSBURG, FL, 33712",124710296,"L"
152086,"2822 99TH ST","HIGHLAND","IN",46322,41.53383395,-87.45971193,86,"2822 99TH ST, HIGHLAND, IN, 46322","Match","Exact","2822 99TH ST, HIGHLAND, IN, 46322",98422333,"R"
152087,"2822 ADMIRAL RIDGE RD","ACCOKEEK","MD",20607,38.695904855,-76.959952501,87,"2822 ADMIRAL RIDGE RD, ACCOKEEK, MD, 20607","Match","Non_Exact","2822 ADMIRAL RIDGE DR, ACCOKEEK, MD, 20607",638291905,"L"
152088,"2822 CASHWELL DR POBOX194","GOLDSBORO","NC",27534,35.3765633020001,-77.9477284979999,88,"2822 CASHWELL DR POBOX194, GOLDSBORO, NC, 27534","Match","Exact","2822 CASHWELL DR, GOLDSBORO, NC, 27534",14405604,"R"
152089,"2822 CASHWELL DR SUITE 257","GOLDSBORO","NC",27534,35.3765633020001,-77.9477284979999,89,"2822 CASHWELL DR SUITE 257, GOLDSBORO, NC, 27534","Match","Exact","2822 CASHWELL DR, GOLDSBORO, NC, 27534",14405604,"R"
152090,"2822 CENTRAL STREET SUITE 300","EVANSTON","IL",60201,42.0644538270001,-87.713662642,90,"2822 CENTRAL STREET SUITE 300, EVANSTON, IL, 60201","Match","Exact","2822 CENTRAL ST, EVANSTON, IL, 60201",111739847,"L"
152091,"2822 CLAYBROOKE DRIVE","WINDSOR MILL","MD",21244,39.332282155,-76.762248434,91,"2822 CLAYBROOKE DRIVE, WINDSOR MILL, MD, 21244","Match","Exact","2822 CLAYBROOKE DR, WINDSOR MILL, MD, 21244",191556006,"R"
152092,"2822 CONCORD ROAD","DELAND","FL",32720,29.0771416330001,-81.3230023959999,92,"2822 CONCORD ROAD, DELAND, FL, 32720","Match","Exact","2822 CONCORD RD, DELAND, FL, 32720",94561607,"R"
152093,"2822 CONSTANCE STREET","NEW ORLEANS","LA",70115,29.9250683980001,-90.082350595,93,"2822 CONSTANCE STREET, NEW ORLEANS, LA, 70115","Match","Exact","2822 CONSTANCE ST, NEW ORLEANS, LA, 70115",652866361,"L"
152094,"2822 COUNTRY FARMS CT","SNELLVILLE","GA",30039,33.832496018,-84.014806962,94,"2822 COUNTRY FARMS CT, SNELLVILLE, GA, 30039","Match","Exact","2822 COUNTRY FARMS CT, SNELLVILLE, GA, 30039",88919815,"L"
152095,"2822 CRAIG","BROKEN BOW","OK",74728,33.997202767,-94.690877912,95,"2822 CRAIG, BROKEN BOW, OK, 74728","Match","Non_Exact","2822 CRAIG RD, BROKEN BOW, OK, 74728",68711397,"R"
152096,"2822 DUPONT AVE N","MINNEAPOLIS","MN",55411,45.008814386,-93.2930404049999,96,"2822 DUPONT AVE N, MINNEAPOLIS, MN, 55411","Match","Exact","2822 DUPONT AVE N, MINNEAPOLIS, MN, 55411",43622466,"R"
152097,"2822 EAST OLYMPIC BLVD 3520","LOS ANGELES",NA,90023,34.0231183060001,-118.217157564,97,"2822 EAST OLYMPIC BLVD 3520, LOS ANGELES, , 90023","Match","Exact","2822 E OLYMPIC BLVD, LOS ANGELES, CA, 90023",141624420,"R"
152098,"2822 HWY 71 SUITE A","MARIANNA","FL",32448,NA,NA,98,"2822 HWY 71 SUITE A, MARIANNA, FL, 32448","No_Match",NA,NA,NA,NA
152099,"2822 KILLDEER LN","HUMBLE","TX",77396,29.960885703,-95.275913421,99,"2822 KILLDEER LN, HUMBLE, TX, 77396","Match","Exact","2822 KILLDEER LN, HUMBLE, TX, 77396",96047356,"L"
152100,"2822 MARCELLUS DRIVE","COLUMBUS","OH",43219,40.0315243420001,-82.905772257,100,"2822 MARCELLUS DRIVE, COLUMBUS, OH, 43219","Match","Exact","2822 MARCELLUS DR, COLUMBUS, OH, 43219",641102264,"L"
152101,"2822 MUSEUM DR","ZOLFO SPRINGS","FL",33890,27.500933504,-81.799455727,101,"2822 MUSEUM DR, ZOLFO SPRINGS, FL, 33890","Match","Exact","2822 MUSEUM DR, ZOLFO SPRINGS, FL, 33890",16194071,"R"
152102,"2822 N GARRISON AVE","TULSA","OK",74106,36.195419863,-95.986806803,102,"2822 N GARRISON AVE, TULSA, OK, 74106","Match","Exact","2822 N GARRISON AVE, TULSA, OK, 74106",166436876,"L"
152103,"2822 NW 72ND ST","SEATTLE","WA",98117,47.6809675150001,-122.393470539,103,"2822 NW 72ND ST, SEATTLE, WA, 98117","Match","Exact","2822 NW 72ND ST, SEATTLE, WA, 98117",186658587,"R"
152104,"2822 PECK ROAD","EL MONTE","CA",91733,34.061417991,-118.030529425,104,"2822 PECK ROAD, EL MONTE, CA, 91733","Match","Non_Exact","2822 N PECK RD, EL MONTE, CA, 91733",652036605,"R"
152105,"2822 ROUNDROCK","MCKINNEY","TX",75070,33.179318595,-96.656559537,105,"2822 ROUNDROCK, MCKINNEY, TX, 75070","Match","Non_Exact","2822 ROUNDROCK, MCKINNEY, TX, 75072",123526654,"R"
152106,"2822 SOUTH 106TH STREET","OMAHA","NE",68124,41.2333580010001,-96.078279537,106,"2822 SOUTH 106TH STREET, OMAHA, NE, 68124","Match","Exact","2822 S 106TH ST, OMAHA, NE, 68124",116972806,"R"
152107,"2822 US HIGHWAY 80 WEST","SAVANNAH","GA",31408,NA,NA,107,"2822 US HIGHWAY 80 WEST, SAVANNAH, GA, 31408","No_Match",NA,NA,NA,NA
152108,"2822 WINNER RD","SHARPSVILLE","PA",16150,41.2795903040001,-80.418116009,108,"2822 WINNER RD, SHARPSVILLE, PA, 16150","Match","Exact","2822 WINNER RD, SHARPSVILLE, PA, 16150",70657980,"R"
152109,"28221 9TH AVENUE NORTH","DAPHNE","AL",36526,30.6363821360001,-87.903420292,109,"28221 9TH AVENUE NORTH, DAPHNE, AL, 36526","Match","Exact","28221 9TH AVE N, DAPHNE, AL, 36526",131684509,"L"
152110,"28223 RED SHADY OAKS DRIVE","KATY","TX",77494,29.711327941,-95.831851193,110,"28223 RED SHADY OAKS DRIVE, KATY, TX, 77494","Match","Exact","28223 RED SHADY OAKS DR, KATY, TX, 77494",641055730,"R"
152111,"28226 -241ST AVENUE SE","MAPLE VALLEY","WA",98038,NA,NA,111,"28226 -241ST AVENUE SE, MAPLE VALLEY, WA, 98038","No_Match",NA,NA,NA,NA
152112,"2823 5TH AVE NW","ROCHESTER","MN",55901,NA,NA,112,"2823 5TH AVE NW, ROCHESTER, MN, 55901","No_Match",NA,NA,NA,NA
152113,"2823 BURTON ROAD","ATLANTA","GA",30311,33.7559090010001,-84.4797561619999,113,"2823 BURTON ROAD, ATLANTA, GA, 30311","Match","Non_Exact","2823 BURTON RD NW, ATLANTA, GA, 30311",17337075,"R"
152114,"2823 CANARY COURT","COLUMBIA","TN",38401,35.7142732390001,-86.9794283859999,114,"2823 CANARY COURT, COLUMBIA, TN, 38401","Match","Exact","2823 CANARY CT, COLUMBIA, TN, 38401",26901017,"L"
152115,"2823 CANDLEBERRY WAY","FAIRFIELD","CA",94533,38.2808361360001,-122.008457737,115,"2823 CANDLEBERRY WAY, FAIRFIELD, CA, 94533","Match","Exact","2823 CANDLEBERRY WAY, FAIRFIELD, CA, 94533",192551807,"R"
152116,"2823 CENTRAL AVE","CHEYENNE","WY",82001,41.144029506,-104.821239801,116,"2823 CENTRAL AVE, CHEYENNE, WY, 82001","Match","Exact","2823 CENTRAL AVE, CHEYENNE, WY, 82001",160149229,"R"
152117,"2823 COLORADO ST","LONG BEACH","CA",90814,33.769900512,-118.158634617,117,"2823 COLORADO ST, LONG BEACH, CA, 90814","Match","Non_Exact","2823 E COLORADO ST, LONG BEACH, CA, 90814",141701472,"L"
152118,"2823 E BIRCHDALE","HOUSTON","TX",77459,NA,NA,118,"2823 E BIRCHDALE, HOUSTON, TX, 77459","No_Match",NA,NA,NA,NA
152119,"2823 E FOUNTAIN ST","MESA","AZ",85213,33.435150773,-111.769602151,119,"2823 E FOUNTAIN ST, MESA, AZ, 85213","Match","Exact","2823 E FOUNTAIN ST, MESA, AZ, 85213",128838894,"L"
152120,"2823 E SOUTHCROSS BLVD","SAN ANTONIO","TX",78223,29.3766455520001,-98.4490288329999,120,"2823 E SOUTHCROSS BLVD, SAN ANTONIO, TX, 78223","Match","Exact","2823 E SOUTHCROSS BLVD, SAN ANTONIO, TX, 78223",101534812,"L"
152121,"2823 E UMATILLA DR","NAMPA","ID",83686,43.539955149,-116.536631477,121,"2823 E UMATILLA DR, NAMPA, ID, 83686","Match","Exact","2823 E UMATILLA DR, NAMPA, ID, 83686",651753129,"L"
152122,"2823 HIGHLAND AVE S APT C","BIRMINGHAM","AL",35205,33.505475174,-86.782901625,122,"2823 HIGHLAND AVE S APT C, BIRMINGHAM, AL, 35205","Match","Exact","2823 HIGHLAND AVE S, BIRMINGHAM, AL, 35205",81579794,"R"
152123,"2823 JUNIPER STREET","SAN DIEGO","CA",92104,32.7296492130001,-117.133374928,123,"2823 JUNIPER STREET, SAN DIEGO, CA, 92104","Match","Exact","2823 JUNIPER ST, SAN DIEGO, CA, 92104",195346076,"R"
152124,"2823 KIPLING CT","MURFREESBORO","TN",37128,35.8004718550001,-86.445234129,124,"2823 KIPLING CT, MURFREESBORO, TN, 37128","Match","Exact","2823 KIPLING CT, MURFREESBORO, TN, 37128",651846488,"R"
152125,"2823 LAKESIDE DRIVE","GREENWOOD","AR",72949,35.2350475920001,-94.302911212,125,"2823 LAKESIDE DRIVE, GREENWOOD, AR, 72949","Match","Non_Exact","2823 LAKESIDE DR, GREENWOOD, AR, 72936",56161976,"R"
152126,"2823 MORGAN AVE N","MINNEAPOIS","MN",55411,45.008877657,-93.3044353499999,126,"2823 MORGAN AVE N, MINNEAPOIS, MN, 55411","Match","Non_Exact","2823 MORGAN AVE N, MINNEAPOLIS, MN, 55411",43622199,"L"
152127,"2823 N OAKLEY AVE UNIT L","CHICAGO","IL",60618,41.932714364,-87.685466817,127,"2823 N OAKLEY AVE UNIT L, CHICAGO, IL, 60618","Match","Non_Exact","2823 N OAKLEY AVE, CHICAGO, IL, 60618",605231374,"R"
152128,"2823 NE 55TH AVENUE","PORTLAND","OR",97213,45.5432566790001,-122.60662607,128,"2823 NE 55TH AVENUE, PORTLAND, OR, 97213","Match","Exact","2823 NE 55TH AVE, PORTLAND, OR, 97213",157511402,"L"
152129,"2823 NORTHWOOD DRIVE","AMES","IA",50010,42.0496589960001,-93.617353103,129,"2823 NORTHWOOD DRIVE, AMES, IA, 50010","Match","Exact","2823 NORTHWOOD DR, AMES, IA, 50010",65946446,"L"
152130,"2823 ORCHARD ROAD SW","CONYERS","GA",30094,33.61041233,-84.078051531,130,"2823 ORCHARD ROAD SW, CONYERS, GA, 30094","Match","Exact","2823 ORCHARD RD SW, CONYERS, GA, 30094",23748370,"L"
152131,"2823 PERRYSVLIIE AVE FLR 2  REAR","PITTSBURGH","PA",15214,40.4742455430001,-80.010423701,131,"2823 PERRYSVLIIE AVE FLR 2  REAR, PITTSBURGH, PA, 15214","Match","Non_Exact","2823 PERRYSVILLE AVE, PITTSBURGH, PA, 15214",51715500,"L"
152132,"2823 PINEBROOK ROAD","HYATTSVILLE","MD",20785,NA,NA,132,"2823 PINEBROOK ROAD, HYATTSVILLE, MD, 20785","No_Match",NA,NA,NA,NA
152133,"2823 SAINT PAUL STREET UNIT 3","BALTIMORE","MD",21218,39.3223494540001,-76.615676133,133,"2823 SAINT PAUL STREET UNIT 3, BALTIMORE, MD, 21218","Match","Exact","2823 SAINT PAUL ST, BALTIMORE, MD, 21218",206408863,"R"
152134,"2823 SE TAYLOR STREET","PORTLAND","OR",97214,45.515010397,-122.636836682,134,"2823 SE TAYLOR STREET, PORTLAND, OR, 97214","Match","Exact","2823 SE TAYLOR ST, PORTLAND, OR, 97214",157509670,"L"
152135,"2823 TARRYTOWNE DR","TOLEDO","OH",43613,41.7278517710001,-83.612845296,135,"2823 TARRYTOWNE DR, TOLEDO, OH, 43613","Match","Exact","2823 TARRYTOWNE DR, TOLEDO, OH, 43613",33930823,"L"
152136,"2823 TAYLORCREST","MISSOURI CITY","TX",77459,29.4877379710001,-95.538186991,136,"2823 TAYLORCREST, MISSOURI CITY, TX, 77459","Match","Exact","2823 TAYLORCREST, MISSOURI CITY, TX, 77459",633672382,"L"
152137,"2823 W 30TH ST","BROOKLYN","NY",11224,40.5770156790001,-73.9967454549999,137,"2823 W 30TH ST, BROOKLYN, NY, 11224","Match","Exact","2823 W 30TH ST, BROOKLYN, NY, 11224",59088803,"L"
152138,"2823-N-MEDLIA-ST","SPOKANE","WA",99207,NA,NA,138,"2823-N-MEDLIA-ST, SPOKANE, WA, 99207","No_Match",NA,NA,NA,NA
152139,"28230 GEORGE WHITE ROAAD","HOLDEN","LA",70744,30.4691194640001,-90.615570178,139,"28230 GEORGE WHITE ROAAD, HOLDEN, LA, 70744","Match","Non_Exact","28230 GEORGE WHITE RD, HOLDEN, LA, 70744",648124983,"L"
152140,"28231 PEPPERMILL RD","FARMINGTON HILLS","MI",48331,42.501568998,-83.384898909,140,"28231 PEPPERMILL RD, FARMINGTON HILLS, MI, 48331","Match","Exact","28231 PEPPERMILL RD, FARMINGTON HILLS, MI, 48331",69775494,"L"
152141,"28231 SPRINGVALE LANE","CASTAIC","CA",91384,34.4554900950001,-118.62773229,141,"28231 SPRINGVALE LANE, CASTAIC, CA, 91384","Match","Exact","28231 SPRINGVALE LN, CASTAIC, CA, 91384",142679403,"L"
152142,"28233 FOREST GREEN DR","MAGNOLIA","TX",77355,30.1697023520001,-95.740710888,142,"28233 FOREST GREEN DR, MAGNOLIA, TX, 77355","Match","Exact","28233 FOREST GREEN DR, MAGNOLIA, TX, 77355",79336965,"L"
152143,"28235 EAST KALONG CIRCLE","SOUTHFIELD","MI",48034,42.494828371,-83.315108701,143,"28235 EAST KALONG CIRCLE, SOUTHFIELD, MI, 48034","Match","Exact","28235 E KALONG CIR, SOUTHFIELD, MI, 48034",69776656,"L"
152144,"28235 LA CALETA","MISSION VIEJO","CA",92692,33.6283852390001,-117.637615677,144,"28235 LA CALETA, MISSION VIEJO, CA, 92692","Match","Exact","28235 LA CALETA, MISSION VIEJO, CA, 92692",144067324,"L"
152145,"28239 NE 146TH ST","DUVALL","WA",98019,47.7325765040001,-121.961988049,145,"28239 NE 146TH ST, DUVALL, WA, 98019","Match","Exact","28239 NE 146TH ST, DUVALL, WA, 98019",640612097,"R"
152146,"2824 13TH AVENUE SOUTH","MINNEAPOLIS","MN",55407,44.951490204,-93.256278394,146,"2824 13TH AVENUE SOUTH, MINNEAPOLIS, MN, 55407","Match","Exact","2824 13TH AVE S, MINNEAPOLIS, MN, 55407",43785008,"R"
152147,"2824 4TH STREET","BRUNSWICK","GA",31520,31.1813732190001,-81.478590891,147,"2824 4TH STREET, BRUNSWICK, GA, 31520","Match","Exact","2824 4TH ST, BRUNSWICK, GA, 31520",9133740,"R"
152148,"2824 ARCADIA DRIVE","MIRAMAR","FL",33023,25.984146664,-80.232277997,148,"2824 ARCADIA DRIVE, MIRAMAR, FL, 33023","Match","Exact","2824 ARCADIA DR, MIRAMAR, FL, 33023",114734003,"R"
152149,"2824 BROOKFORD LANE SW","ATLANTA","GA",30331,33.681974143,-84.59970182,149,"2824 BROOKFORD LANE SW, ATLANTA, GA, 30331","Match","Non_Exact","2824 BROOKFORD LN, ATLANTA, GA, 30331",628067076,"R"
152150,"2824 CEDRUS COURT","PLEASANTON","CA",94588,37.693105018,-121.858149811,150,"2824 CEDRUS COURT, PLEASANTON, CA, 94588","Match","Exact","2824 CEDRUS CT, PLEASANTON, CA, 94588",125072492,"L"
152151,"2824 COLEMAN RD","MEMPHIS","TN",38128,35.2045496530001,-89.913493113,151,"2824 COLEMAN RD, MEMPHIS, TN, 38128","Match","Exact","2824 COLEMAN RD, MEMPHIS, TN, 38128",607402803,"R"
152152,"2824 DRURY CT","DORAVILLE","GA",30340,33.8890947350001,-84.2729793729999,152,"2824 DRURY CT, DORAVILLE, GA, 30340","Match","Exact","2824 DRURY CT, DORAVILLE, GA, 30340",23361009,"R"
152153,"2824 E 223RD ST","SAUK VILLAGE","IL",60411,41.484618837,-87.5524405099999,153,"2824 E 223RD ST, SAUK VILLAGE, IL, 60411","Match","Exact","2824 223RD ST, SAUK VILLAGE, IL, 60411",111787180,"R"
152154,"2824 FLORIDA BAY DRIVE","ORLANDO","FL",32824,NA,NA,154,"2824 FLORIDA BAY DRIVE, ORLANDO, FL, 32824","No_Match",NA,NA,NA,NA
152155,"2824 HARD ROCK CIRCLE","BRYAN","TX",77807,30.638290437,-96.3838507249999,155,"2824 HARD ROCK CIRCLE, BRYAN, TX, 77807","Match","Exact","2824 HARD ROCK CIR, BRYAN, TX, 77807",21832437,"L"
152156,"2824 HOFFPAUIR RD","RAYNE","LA",70578,30.143232573,-92.226182063,156,"2824 HOFFPAUIR RD, RAYNE, LA, 70578","Match","Exact","2824 HOFFPAUIR RD, RAYNE, LA, 70578",642528999,"L"
152157,"2824 ILAHE DRIVE","DALLAS","TX",75233,32.703980787,-96.8665363379999,157,"2824 ILAHE DRIVE, DALLAS, TX, 75233","Match","Exact","2824 ILAHE DR, DALLAS, TX, 75233",102947152,"L"
152158,"2824 LEGION ROAD","FAYETTEVILLE","NC",28306,35.0071496420001,-78.9131080559999,158,"2824 LEGION ROAD, FAYETTEVILLE, NC, 28306","Match","Exact","2824 LEGION RD, FAYETTEVILLE, NC, 28306",601330317,"L"
152159,"2824 LONGSHORE AVENUE","PHILADELPHIA","PA",19149,40.038406395,-75.058481447,159,"2824 LONGSHORE AVENUE, PHILADELPHIA, PA, 19149","Match","Exact","2824 LONGSHORE AVE, PHILADELPHIA, PA, 19149",131431961,"R"
152160,"2824 MARY ST","FALLS CHURCH","VA",22042,38.8769008830001,-77.211477792,160,"2824 MARY ST, FALLS CHURCH, VA, 22042","Match","Exact","2824 MARY ST, FALLS CHURCH, VA, 22042",215919864,"R"
152161,"2824 MCCORMICK DR","LANCASTER","TX",75134,32.6232556310001,-96.797492591,161,"2824 MCCORMICK DR, LANCASTER, TX, 75134","Match","Exact","2824 MCCORMICK DR, LANCASTER, TX, 75134",618914303,"L"
152162,"2824 MCGARITY RD","SOCIAL CIRCLE","GA",30025,33.696413691,-83.71959672,162,"2824 MCGARITY RD, SOCIAL CIRCLE, GA, 30025","Match","Exact","2824 MCGARITY RD, SOCIAL CIRCLE, GA, 30025",77625276,"R"
152163,"2824 N 3RD STREET","CLINTON","IA",52732,41.878792097,-90.181570192,163,"2824 N 3RD STREET, CLINTON, IA, 52732","Match","Exact","2824 N 3RD ST, CLINTON, IA, 52732",16802955,"L"
152164,"2824 NICHOLS CANYON RD","LOS ANGELES","CA",90046,34.121523423,-118.359379987,164,"2824 NICHOLS CANYON RD, LOS ANGELES, CA, 90046","Match","Exact","2824 NICHOLS CANYON RD, LOS ANGELES, CA, 90046",141593873,"R"
152165,"2824 OLD HANLEY ROAD","SAINT LOUIS","MO",63114,38.7032018080001,-90.328189889,165,"2824 OLD HANLEY ROAD, SAINT LOUIS, MO, 63114","Match","Exact","2824 OLD HANLEY RD, SAINT LOUIS, MO, 63114",100133608,"R"
152166,"2824 PARKWAY CLOSE","LITHONIA","GA",30058,33.713797019,-84.1198221779999,166,"2824 PARKWAY CLOSE, LITHONIA, GA, 30058","Match","Exact","2824 PARKWAY CLOSE, LITHONIA, GA, 30058",619388601,"L"
152167,"2824 PORTO ST SW","ALBUQUERQUE","NM",87121,35.035189562,-106.744763308,167,"2824 PORTO ST SW, ALBUQUERQUE, NM, 87121","Match","Exact","2824 PORTO ST SW, ALBUQUERQUE, NM, 87121",615076320,"R"
152168,"2824 RUSSELL BOULEVARD","ST. LOUIS","MO",63104,38.6117726480001,-90.2272146019999,168,"2824 RUSSELL BOULEVARD, ST. LOUIS, MO, 63104","Match","Exact","2824 RUSSELL BLVD, SAINT LOUIS, MO, 63104",107598438,"L"
152169,"2824 SE MONROE ST","STUART","FL",34997,27.153574518,-80.2147783079999,169,"2824 SE MONROE ST, STUART, FL, 34997","Match","Exact","2824 SE MONROE ST, STUART, FL, 34997",120403283,"R"
152170,"2824 SNOW MOUNTAIN DRIVE","SANDY","UT",84093,NA,NA,170,"2824 SNOW MOUNTAIN DRIVE, SANDY, UT, 84093","No_Match",NA,NA,NA,NA
152171,"2824 STEINWAY STREET UNIT 114","ASTORIA","NY",11103,NA,NA,171,"2824 STEINWAY STREET UNIT 114, ASTORIA, NY, 11103","No_Match",NA,NA,NA,NA
152172,"2824 TORINO TRAIL","KELLER","TX",76248,32.9138083460001,-97.189931469,172,"2824 TORINO TRAIL, KELLER, TX, 76248","Match","Exact","2824 TORINO TRL, KELLER, TX, 76248",642820598,"R"
152173,"2824 WAUBESA AVE","MADISON","WI",53711,43.0013805400001,-89.339668393,173,"2824 WAUBESA AVE, MADISON, WI, 53711","Match","Exact","2824 WAUBESA AVE, MADISON, WI, 53711",49494194,"R"
152174,"2824 WHEELER STREET","HOUSTON","TX",77004,29.7246888350001,-95.367226419,174,"2824 WHEELER STREET, HOUSTON, TX, 77004","Match","Exact","2824 WHEELER ST, HOUSTON, TX, 77004",96071957,"R"
152175,"28241 CROWN VALLEY PARKWAY STE F330","LAGUNA NIGUEL","CA",92677,33.5469493730001,-117.690048953,175,"28241 CROWN VALLEY PARKWAY STE F330, LAGUNA NIGUEL, CA, 92677","Match","Exact","28241 CROWN VALLEY PKWY, LAGUNA NIGUEL, CA, 92677",631776804,"R"
152176,"28241 CROWN VALLEY PKWY F455","LAGUNA NIGEL","CA",92677,33.5469493730001,-117.690048953,176,"28241 CROWN VALLEY PKWY F455, LAGUNA NIGEL, CA, 92677","Match","Non_Exact","28241 CROWN VALLEY PKWY, LAGUNA NIGUEL, CA, 92677",631776804,"R"
152177,"28241 CROWN VALLEY PKWY SUITE F-507","LAGUNA NIGUEL","CA",92677,33.5469493730001,-117.690048953,177,"28241 CROWN VALLEY PKWY SUITE F-507, LAGUNA NIGUEL, CA, 92677","Match","Exact","28241 CROWN VALLEY PKWY, LAGUNA NIGUEL, CA, 92677",631776804,"R"
152178,"28241 CROWN VALLEY PWKY - STE F412","LAGUNA NIGUEL","CA",92677,33.5469493730001,-117.690048953,178,"28241 CROWN VALLEY PWKY - STE F412, LAGUNA NIGUEL, CA, 92677","Match","Non_Exact","28241 CROWN VALLEY PKWY, LAGUNA NIGUEL, CA, 92677",631776804,"R"
152179,"28242 EVERETT KNOLLS DRIVE","KATY","TX",77494,29.7556043050001,-95.856608808,179,"28242 EVERETT KNOLLS DRIVE, KATY, TX, 77494","Match","Exact","28242 EVERETT KNOLLS DR, KATY, TX, 77494",625668410,"R"
152180,"28242 LOOKOUT POINT LANE","MENIFEE","CA",92585,33.71124675,-117.14794761,180,"28242 LOOKOUT POINT LANE, MENIFEE, CA, 92585","Match","Exact","28242 LOOKOUT POINT LN, MENIFEE, CA, 92585",609000683,"L"
152181,"28243 ASH RD","ALLEN","SD",57714,NA,NA,181,"28243 ASH RD, ALLEN, SD, 57714","No_Match",NA,NA,NA,NA
152182,"2825 234TH PL NE","SAMMAMISH","WA",98074,47.635610032,-122.02761547,182,"2825 234TH PL NE, SAMMAMISH, WA, 98074","Match","Exact","2825 234TH PL NE, SAMMAMISH, WA, 98074",186921051,"R"
152183,"2825 ALMS PL","CINCINNATI","OH",45206,39.1300574690001,-84.48412775,183,"2825 ALMS PL, CINCINNATI, OH, 45206","Match","Exact","2825 ALMS PL, CINCINNATI, OH, 45206",103926321,"L"
152184,"2825 BEACH BLVD","GULFPORT","FL",33707,27.7418802980001,-82.707836135,184,"2825 BEACH BLVD, GULFPORT, FL, 33707","Match","Non_Exact","2825 BEACH BLVD S, GULFPORT, FL, 33707",124709015,"R"
152185,"2825 BROADBENT PKWY NE SUITE A","ALBUQUERQUE","NM",87107,35.112634217,-106.628941312,185,"2825 BROADBENT PKWY NE SUITE A, ALBUQUERQUE, NM, 87107","Match","Exact","2825 BROADBENT PKWY NE, ALBUQUERQUE, NM, 87107",645264184,"R"
152186,"2825 BUENA VISTA WAY","BERKELEY","CA",94708,37.8818234720001,-122.256316929,186,"2825 BUENA VISTA WAY, BERKELEY, CA, 94708","Match","Exact","2825 BUENA VISTA WAY, BERKELEY, CA, 94708",650955222,"L"
152187,"2825 CASTLE HILL LANE","GREEN BAY","WI",54302,44.4984382440001,-87.941586764,187,"2825 CASTLE HILL LANE, GREEN BAY, WI, 54302","Match","Exact","2825 CASTLE HILL LN, GREEN BAY, WI, 54302",148104485,"R"
152188,"2825 CIRCLE DRIVE","ALTON","IL",62002,38.911953517,-90.144803458,188,"2825 CIRCLE DRIVE, ALTON, IL, 62002","Match","Exact","2825 CIRCLE DR, ALTON, IL, 62002",107812337,"R"
152189,"2825 COLBY AVE UNIT 1","EVERETT","WA",98201,47.9797397990001,-122.208603388,189,"2825 COLBY AVE UNIT 1, EVERETT, WA, 98201","Match","Exact","2825 COLBY AVE, EVERETT, WA, 98201",187745194,"L"
152190,"2825 COLBY AVE","EVERETT","WA",98201,47.9797397990001,-122.208603388,190,"2825 COLBY AVE, EVERETT, WA, 98201","Match","Exact","2825 COLBY AVE, EVERETT, WA, 98201",187745194,"L"
152191,"2825 COLDWATER DR","COLORADO SPRINGS","CO",80919,38.9377204730001,-104.880633546,191,"2825 COLDWATER DR, COLORADO SPRINGS, CO, 80919","Match","Exact","2825 COLDWATER DR, COLORADO SPRINGS, CO, 80919",105528761,"L"
152192,"2825 COLUMBUS AVE","CLERMONT","FL",34715,28.56971709,-81.701779029,192,"2825 COLUMBUS AVE, CLERMONT, FL, 34715","Match","Exact","2825 COLUMBUS AVE, CLERMONT, FL, 34715",617505176,"R"
152193,"2825 CRANE ROAD","WAXHAW","NC",28173,34.9740587260001,-80.7972544419999,193,"2825 CRANE ROAD, WAXHAW, NC, 28173","Match","Exact","2825 CRANE RD, WAXHAW, NC, 28173",14172005,"R"
152194,"2825 DEVINE STREET SUITE 401","COLUMBIA","SC",29205,33.9980818610001,-81.0026886369999,194,"2825 DEVINE STREET SUITE 401, COLUMBIA, SC, 29205","Match","Exact","2825 DEVINE ST, COLUMBIA, SC, 29205",71822156,"L"
152195,"2825 DEWEY DECKER DRIVE","GREEN BAY","WI",54313,44.5512227830001,-88.0915387639999,195,"2825 DEWEY DECKER DRIVE, GREEN BAY, WI, 54313","Match","Exact","2825 DEWEY DECKER DR, GREEN BAY, WI, 54313",148120190,"R"
152196,"2825 EAST ROSEDALE STREET","FORT WORTH","TX",76105,32.730733721,-97.284779524,196,"2825 EAST ROSEDALE STREET, FORT WORTH, TX, 76105","Match","Exact","2825 E ROSEDALE ST, FORT WORTH, TX, 76105",101891732,"L"
152197,"2825 FOUNTAIN VIEW BLVD","CEDAR HILL","TX",75104,32.5779782220001,-97.007869318,197,"2825 FOUNTAIN VIEW BLVD, CEDAR HILL, TX, 75104","Match","Exact","2825 FOUNTAIN VIEW BLVD, CEDAR HILL, TX, 75104",103280185,"R"
152198,"2825 FOXHAVEN DRIVE SE","SALEM","OR",97306,44.880922485,-123.003222477,198,"2825 FOXHAVEN DRIVE SE, SALEM, OR, 97306","Match","Exact","2825 FOXHAVEN DR SE, SALEM, OR, 97306",156275415,"L"
152199,"2825 GLEASON PARKWAY","CAPE CORAL","FL",33914,26.59194645,-82.0324952729999,199,"2825 GLEASON PARKWAY, CAPE CORAL, FL, 33914","Match","Exact","2825 GLEASON PKWY, CAPE CORAL, FL, 33914",650025996,"R"
152200,"2825 HUMBOLDT STREET","PEORIA","IL",61605,40.6723481010001,-89.6371753289999,200,"2825 HUMBOLDT STREET, PEORIA, IL, 61605","Match","Non_Exact","2825 W HUMBOLDT ST, PEORIA, IL, 61605",8716431,"R"
152201,"2825 JOHNSON STREET NE","MINNEAPOLIS","MN",55418,45.0191473990001,-93.2371057989999,201,"2825 JOHNSON STREET NE, MINNEAPOLIS, MN, 55418","Match","Exact","2825 JOHNSON ST NE, MINNEAPOLIS, MN, 55418",43636216,"R"
152202,"2825 KAHAWAI ST","HONOLULU","HI",96822,21.3102350990001,-157.812020302,202,"2825 KAHAWAI ST, HONOLULU, HI, 96822","Match","Exact","2825 KAHAWAI ST, HONOLULU, HI, 96822",203237965,"R"
152203,"2825 KERRVILLE DR","MESQUITE","TX",75181,32.726989512,-96.5919796859999,203,"2825 KERRVILLE DR, MESQUITE, TX, 75181","Match","Exact","2825 KERRVILLE DR, MESQUITE, TX, 75181",631011647,"R"
152204,"2825 LEXINGTON AVE SUITE B","BUTTE","MT",59701,45.981911014,-112.529022512,204,"2825 LEXINGTON AVE SUITE B, BUTTE, MT, 59701","Match","Exact","2825 LEXINGTON AVE, BUTTE, MT, 59701",153580498,"R"
152205,"2825 MAPLE ST","SUTTER","CA",95982,39.1691756660001,-121.74993433,205,"2825 MAPLE ST, SUTTER, CA, 95982","Match","Exact","2825 MAPLE ST, SUTTER, CA, 95982",68566871,"R"
152206,"2825 N 26TH ST","BOISE","ID",83702,43.6456534060001,-116.220926069,206,"2825 N 26TH ST, BOISE, ID, 83702","Match","Exact","2825 N 26TH ST, BOISE, ID, 83702",117859208,"L"
152207,"2825 N HIGHWAY 360 APT 1414","GRAND PRAIRIE","TX",75050,NA,NA,207,"2825 N HIGHWAY 360 APT 1414, GRAND PRAIRIE, TX, 75050","No_Match",NA,NA,NA,NA
152208,"2825 N STATE HIGHWAY 360 APT 929","GRAND PRAIRIE","TX",75050,32.800073308,-97.05544593,208,"2825 N STATE HIGHWAY 360 APT 929, GRAND PRAIRIE, TX, 75050","Match","Non_Exact","2825 N STATE HWY 360, GRAND PRAIRIE, TX, 75050",101937169,"R"
152209,"2825 NORTH 200 EAST","NORTH LOGAN","UT",84341,41.7811137790001,-111.8283378,209,"2825 NORTH 200 EAST, NORTH LOGAN, UT, 84341","Match","Exact","2825 N 200 E, NORTH LOGAN, UT, 84341",155106876,"L"
152210,"2825 PACIFIC AVE","LONG BEACH","CA",90806,33.8085329790001,-118.1937047,210,"2825 PACIFIC AVE, LONG BEACH, CA, 90806","Match","Exact","2825 PACIFIC AVE, LONG BEACH, CA, 90806",141686641,"L"
152211,"2825 ROLLING FORK WAY","GLENWOOD","MD",21738,39.3037331190001,-77.016598431,211,"2825 ROLLING FORK WAY, GLENWOOD, MD, 21738","Match","Exact","2825 ROLLING FORK WAY, GLENWOOD, MD, 21738",158952765,"L"
152212,"2825 RYDER DR","YUKON","OK",73099,35.4369731,-97.7012967479999,212,"2825 RYDER DR, YUKON, OK, 73099","Match","Exact","2825 RYDER DR, YUKON, OK, 73099",646290997,"R"
152213,"2825 S HARRISON ST","DENVER","CO",80210,39.6650598580001,-104.941785933,213,"2825 S HARRISON ST, DENVER, CO, 80210","Match","Exact","2825 S HARRISON ST, DENVER, CO, 80210",652263758,"R"
152214,"2825 SOMERSET DRIVE","LOS ANGELES","CA",90015,34.030649548,-118.33737262,214,"2825 SOMERSET DRIVE, LOS ANGELES, CA, 90015","Match","Non_Exact","2825 SOMERSET DR, LOS ANGELES, CA, 90016",141601898,"R"
152215,"2825 SOUTH LEDBETTER DRIVE","DALLAS","TX",75211,NA,NA,215,"2825 SOUTH LEDBETTER DRIVE, DALLAS, TX, 75211","No_Match",NA,NA,NA,NA
152216,"2825 SOUTH MAIN STREET APT 134","KENNESAW","GA",30144,34.0228849370001,-84.6152377289999,216,"2825 SOUTH MAIN STREET APT 134, KENNESAW, GA, 30144","Match","Exact","2825 S MAIN ST, KENNESAW, GA, 30144",645371207,"L"
152217,"2825 SOUTH MAIN STREET NW 321","KENNESAW","GA",30144,34.0228849370001,-84.6152377289999,217,"2825 SOUTH MAIN STREET NW 321, KENNESAW, GA, 30144","Match","Non_Exact","2825 S MAIN ST, KENNESAW, GA, 30144",645371207,"L"
152218,"2825 SW 120TH AVENUE","BEAVERTON","OR",97005,45.499211055,-122.800233422,218,"2825 SW 120TH AVENUE, BEAVERTON, OR, 97005","Match","Exact","2825 SW 120TH AVE, BEAVERTON, OR, 97005",158233271,"R"
152219,"2825 SW MUIR DRIVE","LEES SUMMIT","MO",64081,38.915694934,-94.4374299949999,219,"2825 SW MUIR DRIVE, LEES SUMMIT, MO, 64081","Match","Exact","2825 SW MUIR DR, LEES SUMMIT, MO, 64081",617929367,"R"
152220,"2825 SW ROTHER RD","TOPEKA","KS",66614,39.0156737550001,-95.7967626609999,220,"2825 SW ROTHER RD, TOPEKA, KS, 66614","Match","Exact","2825 SW ROTHER RD, TOPEKA, KS, 66614",17901928,"R"
152221,"2825 TREESTEAD CIRCLE","GREENSBORO","NC",27705,36.140105632,-79.8505874429999,221,"2825 TREESTEAD CIRCLE, GREENSBORO, NC, 27705","Match","Non_Exact","2825 TREESTEAD CIR, GREENSBORO, NC, 27410",131073327,"L"
152222,"2825 W 6TH ST","CHESTER","PA",19013,39.83397977,-75.3941219339999,222,"2825 W 6TH ST, CHESTER, PA, 19013","Match","Exact","2825 W 6TH ST, CHESTER, PA, 19013",134889308,"L"
152223,"2825 W GIBBS RD","VIRGINIA BEACH","VA",23457,36.568676608,-76.0828444699999,223,"2825 W GIBBS RD, VIRGINIA BEACH, VA, 23457","Match","Exact","2825 W GIBBS RD, VA BCH, VA, 23457",122298935,"L"
152224,"2825 WEST DIVERSEY AVE","CHICAGO","IL",60647,41.9320856030001,-87.698681725,224,"2825 WEST DIVERSEY AVE, CHICAGO, IL, 60647","Match","Exact","2825 W DIVERSEY AVE, CHICAGO, IL, 60647",605207289,"L"
152225,"2825 WESTCHESTER AVENUE","ELLICOTT CITY","MD",21043,39.2706700630001,-76.789497452,225,"2825 WESTCHESTER AVENUE, ELLICOTT CITY, MD, 21043","Match","Exact","2825 WESTCHESTER AVE, ELLICOTT CITY, MD, 21043",191564839,"L"
152226,"2825 WILCREST DRIVE SUITE 615","HOUSTON","TX",77042,29.734100406,-95.571723468,226,"2825 WILCREST DRIVE SUITE 615, HOUSTON, TX, 77042","Match","Exact","2825 WILCREST DR, HOUSTON, TX, 77042",96619232,"R"
152227,"2825 WILCREST SUITE 267","HOUSTON","TX",77042,29.734100406,-95.571723468,227,"2825 WILCREST SUITE 267, HOUSTON, TX, 77042","Match","Non_Exact","2825 WILCREST DR, HOUSTON, TX, 77042",96619232,"R"
152228,"2825 WINDING RIVER DRIVE","CHARLOTTE","NC",28214,35.3246306840001,-80.959046014,228,"2825 WINDING RIVER DRIVE, CHARLOTTE, NC, 28214","Match","Exact","2825 WINDING RIVER DR, CHARLOTTE, NC, 28214",70563075,"R"
152229,"2825 WINDY HILL RD 4206","MARIETTA","GA",30067,33.903371522,-84.471494102,229,"2825 WINDY HILL RD 4206, MARIETTA, GA, 30067","Match","Non_Exact","2825 WINDY HILL RD SE, MARIETTA, GA, 30067",17252811,"L"
152230,"2825 WOLFF ST","DENVER","CO",80212,39.757620537,-105.048429534,230,"2825 WOLFF ST, DENVER, CO, 80212","Match","Exact","2825 WOLFF ST, DENVER, CO, 80212",177299805,"L"
152231,"28251 CLINTON KEITH ROAD","MURRIETA","CA",92563,NA,NA,231,"28251 CLINTON KEITH ROAD, MURRIETA, CA, 92563","No_Match",NA,NA,NA,NA
152232,"28252 FAIRCREST WAY","ESCONDIDO","CA",92026,33.2225544610001,-117.101769471,232,"28252 FAIRCREST WAY, ESCONDIDO, CA, 92026","Match","Exact","28252 FAIRCREST WAY, ESCONDIDO, CA, 92026",195725316,"R"
152233,"28254 SAN MARINO DRIVE","SOUTHFIELD","MI",48034,42.4949481040001,-83.316479531,233,"28254 SAN MARINO DRIVE, SOUTHFIELD, MI, 48034","Match","Exact","28254 SAN MARINO DR, SOUTHFIELD, MI, 48034",69728084,"R"
152234,"28256 N JADE STREET","SAN TAN VALLEY","AZ",85143,33.135905807,-111.530929714,234,"28256 N JADE STREET, SAN TAN VALLEY, AZ, 85143","Match","Exact","28256 N JADE ST, SAN TAN VALLEY, AZ, 85143",631759584,"L"
152235,"28257 SW 126 CT APT 5","HOMESTEAD","FL",33033,25.5049066710001,-80.395545367,235,"28257 SW 126 CT APT 5, HOMESTEAD, FL, 33033","Match","Non_Exact","28257 SW 126TH CT, HOMESTEAD, FL, 33033",641702740,"L"
152236,"2826 135TH AVE","GLENWOOD CITY","WI",54013,45.05406629,-92.2368938669999,236,"2826 135TH AVE, GLENWOOD CITY, WI, 54013","Match","Exact","2826 135TH AVE, GLENWOOD CITY, WI, 54013",110907605,"L"
152237,"2826 AGUA VISTA DRIVE","SAN JOSE","CA",95132,37.399393898,-121.868780167,237,"2826 AGUA VISTA DRIVE, SAN JOSE, CA, 95132","Match","Exact","2826 AGUA VISTA DR, SAN JOSE, CA, 95132",636424912,"R"
152238,"2826 ARRONIA CT","PLEASANTON","CA",94588,37.6928110690001,-121.861813859,238,"2826 ARRONIA CT, PLEASANTON, CA, 94588","Match","Exact","2826 ARRONIA CT, PLEASANTON, CA, 94588",125072428,"L"
152239,"2826 BAKER ST","BALTIMORE","MD",21216,39.3060249690001,-76.664729994,239,"2826 BAKER ST, BALTIMORE, MD, 21216","Match","Exact","2826 BAKER ST, BALTIMORE, MD, 21216",206414167,"R"
152240,"2826 BLUE ROCK ROAD","CINCINNATI","OH",45239,39.2013373120001,-84.5821472389999,240,"2826 BLUE ROCK ROAD, CINCINNATI, OH, 45239","Match","Exact","2826 BLUE ROCK RD, CINCINNATI, OH, 45239",103916559,"R"
152241,"2826 BROADWAY   SUITE 100","RIVIERA BEACH","FL",33434,NA,NA,241,"2826 BROADWAY   SUITE 100, RIVIERA BEACH, FL, 33434","Tie",NA,NA,NA,NA
152242,"2826 CALE YARBOROUGH HWY","TIMMONSVILLE","SC",29161,34.040217355,-79.944539849,242,"2826 CALE YARBOROUGH HWY, TIMMONSVILLE, SC, 29161","Match","Exact","2826 CALE YARBOROUGH HWY, TIMMONSVILLE, SC, 29161",28900596,"R"
152243,"2826 CENTRE STREET","PENNSAUKEN","NJ",8109,39.958377351,-75.0501816619999,243,"2826 CENTRE STREET, PENNSAUKEN, NJ, 8109","Match","Non_Exact","2826 N CENTRE ST, PENNSAUKEN, NJ, 08109",134344324,"L"
152244,"2826 CHATHAM LANE","OWENSBORO","KY",42303,37.7663540400001,-87.043307574,244,"2826 CHATHAM LANE, OWENSBORO, KY, 42303","Match","Exact","2826 CHATHAM LN, OWENSBORO, KY, 42303",37567197,"L"
152245,"2826 E 2ND ST","TUCSON","AZ",85716,32.2339091810001,-110.930670872,245,"2826 E 2ND ST, TUCSON, AZ, 85716","Match","Exact","2826 E 2ND ST, TUCSON, AZ, 85716",121174152,"R"
152246,"2826 E EASTLAND ST","TUCSON","AZ",85716,32.211496878,-110.930249165,246,"2826 E EASTLAND ST, TUCSON, AZ, 85716","Match","Exact","2826 E EASTLAND ST, TUCSON, AZ, 85716",121174769,"R"
152247,"2826 EAST CAMPBELL ROAD","GILBERT","AZ",85234,33.3583852030001,-111.72924192,247,"2826 EAST CAMPBELL ROAD, GILBERT, AZ, 85234","Match","Exact","2826 E CAMPBELL RD, GILBERT, AZ, 85234",128255708,"L"
152248,"2826 FELTON WAY","EL DORADO HILLS","CA",95762,38.620902443,-121.045344753,248,"2826 FELTON WAY, EL DORADO HILLS, CA, 95762","Match","Exact","2826 FELTON WAY, EL DORADO HILLS, CA, 95762",640801130,"L"
152249,"2826 HOPPER ROAD","CAPE GIRARDEAU","MO",63701,37.3209174,-89.564319051,249,"2826 HOPPER ROAD, CAPE GIRARDEAU, MO, 63701","Match","Exact","2826 HOPPER RD, CAPE GIRARDEAU, MO, 63701",35182121,"R"
152250,"2826 KAONAWAI PLACE 3A","HONOLULU","HI",96822,21.310344759,-157.809996526,250,"2826 KAONAWAI PLACE 3A, HONOLULU, HI, 96822","Match","Exact","2826 KAONAWAI PL, HONOLULU, HI, 96822",203222007,"R"
152251,"2826 LAKE SHORE DRIVE","LONG BEACH","IN",46360,41.750410388,-86.845456713,251,"2826 LAKE SHORE DRIVE, LONG BEACH, IN, 46360","Match","Exact","2826 LAKE SHORE DR, LONG BEACH, IN, 46360",15412460,"L"
152252,"2826 LOCKERIDGE PLACE DRIVE","SPRING","TX",77386,30.1101442620001,-95.3851874219999,252,"2826 LOCKERIDGE PLACE DRIVE, SPRING, TX, 77386","Match","Exact","2826 LOCKERIDGE PLACE DR, SPRING, TX, 77386",631981265,"R"
152253,"2826 LOWELL DR","IRVING","TX",75062,32.8449077240001,-96.985207773,253,"2826 LOWELL DR, IRVING, TX, 75062","Match","Exact","2826 LOWELL DR, IRVING, TX, 75062",102886277,"L"
152254,"2826 NE 7TH STREET","OCALA","FL",34470,29.193360672,-82.098422708,254,"2826 NE 7TH STREET, OCALA, FL, 34470","Match","Exact","2826 NE 7TH ST, OCALA, FL, 34470",116841251,"R"
152255,"2826 PEPPERMILL RUN","SAN ANTONIO","TX",78231,29.5710222370001,-98.5351435169999,255,"2826 PEPPERMILL RUN, SAN ANTONIO, TX, 78231","Match","Non_Exact","2826 PEPPERMILL RUN ST, SAN ANTONIO, TX, 78231",101492477,"R"
152256,"2826 REX ALLEN","ABILENE","TX",79606,32.386335129,-99.754180065,256,"2826 REX ALLEN, ABILENE, TX, 79606","Match","Non_Exact","2826 REX ALLEN DR, ABILENE, TX, 79606",129961332,"R"
152257,"2826 RIDGELAND DR","JACKSON","MS",39212,32.2647590550001,-90.258438734,257,"2826 RIDGELAND DR, JACKSON, MS, 39212","Match","Exact","2826 RIDGELAND DR, JACKSON, MS, 39212",65366748,"L"
152258,"2826 SANDY RIDGE DRIVE","TWO RIVERS","WI",54241,44.1597364770001,-87.553543485,258,"2826 SANDY RIDGE DRIVE, TWO RIVERS, WI, 54241","Match","Exact","2826 SANDY RIDGE DR, TWO RIVERS, WI, 54241",147968140,"R"
152259,"2826 SCOTLAC DR SW","OLYMPIA","WA",98512,46.9171238600001,-122.943155618,259,"2826 SCOTLAC DR SW, OLYMPIA, WA, 98512","Match","Exact","2826 SCOTLAC DR SW, OLYMPIA, WA, 98512",180978174,"L"
152260,"2826 STILLMAN AVE","INDIANAPOLIS","IN",46268,39.9186872820001,-86.210509326,260,"2826 STILLMAN AVE, INDIANAPOLIS, IN, 46268","Match","Exact","2826 STILLMAN AVE, INDIANAPOLIS, IN, 46268",107980829,"R"
152261,"2826 W DENGAR AVE","MIDLAND","TX",79705,32.0185192980001,-102.118334261,261,"2826 W DENGAR AVE, MIDLAND, TX, 79705","Match","Exact","2826 W DENGAR AVE, MIDLAND, TX, 79705",139579256,"R"
152262,"2826 W WAGNER RD","BUCHANAN","MI",49107,41.863515433,-86.521642296,262,"2826 W WAGNER RD, BUCHANAN, MI, 49107","Match","Exact","2826 W WAGNER RD, BUCHANAN, MI, 49107",119969876,"L"
152263,"2826 W WASHINGTON BLVD","CHICAGO","IL",60612,41.882892096,-87.697472686,263,"2826 W WASHINGTON BLVD, CHICAGO, IL, 60612","Match","Exact","2826 W WASHINGTON BLVD, CHICAGO, IL, 60612",111763606,"R"
152264,"2826 WEST LUNT AVENUE","CHICAGO","IL",60645,42.008454193,-87.700490222,264,"2826 WEST LUNT AVENUE, CHICAGO, IL, 60645","Match","Exact","2826 W LUNT AVE, CHICAGO, IL, 60645",111744487,"R"
152265,"2826 WHIPPOORWILL CIRCLE","DULUTH","GA",30097,33.9846700800001,-84.119677924,265,"2826 WHIPPOORWILL CIRCLE, DULUTH, GA, 30097","Match","Exact","2826 WHIPPOORWILL CIR, DULUTH, GA, 30097",88885905,"L"
152266,"2826 WHITNEY AVENUE","MEMPHIS","TN",38127,35.2126446340001,-89.969569273,266,"2826 WHITNEY AVENUE, MEMPHIS, TN, 38127","Match","Exact","2826 WHITNEY AVE, MEMPHIS, TN, 38127",72911437,"L"
152267,"28261 SOUTH KEDZIE","MONEE","IL",60449,41.3756738210001,-87.689484563,267,"28261 SOUTH KEDZIE, MONEE, IL, 60449","Match","Non_Exact","28261 S KEDZIE AVE, MONEE, IL, 60449",633573899,"R"
152268,"28262 CAMINO DEL RIO","SAN JUAN CAPISTRANO","CA",92675,NA,NA,268,"28262 CAMINO DEL RIO, SAN JUAN CAPISTRANO, CA, 92675","No_Match",NA,NA,NA,NA
152269,"28262 DEEP CANYON DR","ESCONDIDO","CA",92026,33.221671207,-117.095352201,269,"28262 DEEP CANYON DR, ESCONDIDO, CA, 92026","Match","Exact","28262 DEEP CANYON DR, ESCONDIDO, CA, 92026",195308358,"R"
152270,"2827 31ST AVE S","SEATTLE","WA",98144,47.5781286070001,-122.293003582,270,"2827 31ST AVE S, SEATTLE, WA, 98144","Match","Exact","2827 31ST AVE S, SEATTLE, WA, 98144",239762933,"R"
152271,"2827 ARLINGTON AVENUE","FAYETTEVILLE","NC",28303,35.0431968450001,-78.923156439,271,"2827 ARLINGTON AVENUE, FAYETTEVILLE, NC, 28303","Match","Exact","2827 ARLINGTON AVE, FAYETTEVILLE, NC, 28303",64214582,"L"
152272,"2827 CAZADERO DR","CARLSBAD","CA",92009,33.105746713,-117.243014176,272,"2827 CAZADERO DR, CARLSBAD, CA, 92009","Match","Exact","2827 CAZADERO DR, CARLSBAD, CA, 92009",195295213,"R"
152273,"2827 CORPREW AVENUE","NORFOLK","VA",23504,36.8505795360001,-76.2540926839999,273,"2827 CORPREW AVENUE, NORFOLK, VA, 23504","Match","Exact","2827 CORPREW AVE, NORFOLK, VA, 23504",122136311,"R"
152274,"2827 EAST 3365 SOUTH","SALT LAKE CITY","UT",84109,40.698207058,-111.811479907,274,"2827 EAST 3365 SOUTH, SALT LAKE CITY, UT, 84109","Match","Non_Exact","2827 E 3365 SOUTH ST, SALT LAKE CITY, UT, 84109",176094181,"L"
152275,"2827 EAST HILLSIDE AVE","ORANGE","CA",92867,33.8168428860001,-117.823676584,275,"2827 EAST HILLSIDE AVE, ORANGE, CA, 92867","Match","Exact","2827 E HILLSIDE AVE, ORANGE, CA, 92867",144032063,"L"
152276,"2827 EASY ST","NEWPORT","NC",28570,34.792714414,-76.8726140969999,276,"2827 EASY ST, NEWPORT, NC, 28570","Match","Exact","2827 EASY ST, NEWPORT, NC, 28570",33856565,"L"
152277,"2827 EDGEWOOD DR","SUGAR LAND","TX",77479,29.5821295970001,-95.607031998,277,"2827 EDGEWOOD DR, SUGAR LAND, TX, 77479","Match","Exact","2827 EDGEWOOD DR, SUGAR LAND, TX, 77479",78268795,"L"
152278,"2827 ENFIELD ST","SAN RAMON","CA",94582,37.753934681,-121.893263602,278,"2827 ENFIELD ST, SAN RAMON, CA, 94582","Match","Exact","2827 ENFIELD ST, SAN RAMON, CA, 94582",627165608,"R"
152279,"2827 HAW RIVER TRIAIL","APEX","NC",27502,NA,NA,279,"2827 HAW RIVER TRIAIL, APEX, NC, 27502","No_Match",NA,NA,NA,NA
152280,"2827 HILLSDALE RD","BALTIMORE","MD",21207,39.319531365,-76.700335944,280,"2827 HILLSDALE RD, BALTIMORE, MD, 21207","Match","Exact","2827 HILLSDALE RD, BALTIMORE, MD, 21207",206412553,"R"
152281,"2827 JERSEY RIDGE ROAD","DAVENPORT","IA",52803,41.5493686790001,-90.541729141,281,"2827 JERSEY RIDGE ROAD, DAVENPORT, IA, 52803","Match","Exact","2827 JERSEY RIDGE RD, DAVENPORT, IA, 52803",122717611,"R"
152282,"2827 MAYFLOWER LANDING CT","WEBSTER","TX",77598,29.52814799,-95.156370474,282,"2827 MAYFLOWER LANDING CT, WEBSTER, TX, 77598","Match","Exact","2827 MAYFLOWER LANDING CT, WEBSTER, TX, 77598",96115137,"L"
152283,"2827 N 45TH ST","MILWAUKEE","WI",53210,43.0702935850001,-87.969931633,283,"2827 N 45TH ST, MILWAUKEE, WI, 53210","Match","Exact","2827 N 45TH ST, MILWAUKEE, WI, 53210",77732300,"L"
152284,"2827 N 51ST AVENUE APT 1020","PHOENIX","AZ",85035,33.4795653910001,-112.16896641,284,"2827 N 51ST AVENUE APT 1020, PHOENIX, AZ, 85035","Match","Non_Exact","2827 N 51ST AVE, PHOENIX, AZ, 85035",128200795,"R"
152285,"2827 N 70TH ST","MILWAUKEE","WI",53210,43.0703738560001,-87.999541054,285,"2827 N 70TH ST, MILWAUKEE, WI, 53210","Match","Exact","2827 N 70TH ST, MILWAUKEE, WI, 53210",77730984,"L"
152286,"2827 OAK FOREST AVE","JACKSON","MS",39212,32.2676307290001,-90.24687209,286,"2827 OAK FOREST AVE, JACKSON, MS, 39212","Match","Non_Exact","2827 OAK FOREST DR, JACKSON, MS, 39212",65366947,"R"
152287,"2827 OSMUNDA CT","PALMDALE","CA",93551,34.559677331,-118.17953794,287,"2827 OSMUNDA CT, PALMDALE, CA, 93551","Match","Exact","2827 OSMUNDA CT, PALMDALE, CA, 93551",625709013,"R"
152288,"2827 RAWLINSON RD","COLUMBIA","SC",29209,33.960204053,-80.894159284,288,"2827 RAWLINSON RD, COLUMBIA, SC, 29209","Match","Exact","2827 RAWLINSON RD, COLUMBIA, SC, 29209",71841580,"R"
152289,"2827 ROTHWOOD DRIVE","CHARLOTTE","NC",28211,35.1677477920001,-80.815199026,289,"2827 ROTHWOOD DRIVE, CHARLOTTE, NC, 28211","Match","Exact","2827 ROTHWOOD DR, CHARLOTTE, NC, 28211",70489625,"L"
152290,"2827 TELEK PL APT 1806","ALEXANDRIA","VA",22314,NA,NA,290,"2827 TELEK PL APT 1806, ALEXANDRIA, VA, 22314","No_Match",NA,NA,NA,NA
152291,"2827 WINDSOR FORREST COURT","ATLANTA","GA",30349,33.617449677,-84.481784137,291,"2827 WINDSOR FORREST COURT, ATLANTA, GA, 30349","Match","Exact","2827 WINDSOR FORREST CT, ATLANTA, GA, 30349",635812701,"L"
152292,"28275 DANVERS CT","FARMINGTON HILLS","MI",48334,42.5007273530001,-83.328103977,292,"28275 DANVERS CT, FARMINGTON HILLS, MI, 48334","Match","Exact","28275 DANVERS CT, FARMINGTON HILLS, MI, 48334",69776550,"L"
152293,"2828 105TH ST","AURORA","IA",50607,42.6358429960001,-91.721641871,293,"2828 105TH ST, AURORA, IA, 50607","Match","Exact","2828 105TH ST, AURORA, IA, 50607",101150809,"L"
152294,"2828 130TH STREET","BELMOND","IA",50421,42.863318,-93.610373221,294,"2828 130TH STREET, BELMOND, IA, 50421","Match","Exact","2828 130TH ST, BELMOND, IA, 50421",90717959,"L"
152295,"2828 3RD PLACE EAST","TUSCALOOSA","AL",35404,33.2122132900001,-87.500811751,295,"2828 3RD PLACE EAST, TUSCALOOSA, AL, 35404","Match","Exact","2828 3RD PL E, TUSCALOOSA, AL, 35404",82208434,"L"
152296,"2828 42ND ST","ASTORIA","NY",11103,NA,NA,296,"2828 42ND ST, ASTORIA, NY, 11103","No_Match",NA,NA,NA,NA
152297,"2828 6TH STREET","TUSCALOOSA","AL",35401,33.207259246,-87.573649276,297,"2828 6TH STREET, TUSCALOOSA, AL, 35401","Match","Exact","2828 6TH ST, TUSCALOOSA, AL, 35401",82147625,"R"
152298,"2828 BAMMEL LANE SUITE 904","HOUSTON","TX",77098,29.7400829000001,-95.423805414,298,"2828 BAMMEL LANE SUITE 904, HOUSTON, TX, 77098","Match","Exact","2828 BAMMEL LN, HOUSTON, TX, 77098",96146275,"R"
152299,"2828 COCHRAN ST 376","SIMI VALLEY","CA",93065,34.278994846,-118.741035208,299,"2828 COCHRAN ST 376, SIMI VALLEY, CA, 93065","Match","Exact","2828 COCHRAN ST, SIMI VALLEY, CA, 93065",110089715,"R"
152300,"2828 COCHRAN ST SUITE 332","SIMI VALLEY","CA",93065,34.278994846,-118.741035208,300,"2828 COCHRAN ST SUITE 332, SIMI VALLEY, CA, 93065","Match","Exact","2828 COCHRAN ST, SIMI VALLEY, CA, 93065",110089715,"R"
152301,"2828 CORAL WAY SUITE 208","CORAL GABLES","FL",33145,NA,NA,301,"2828 CORAL WAY SUITE 208, CORAL GABLES, FL, 33145","No_Match",NA,NA,NA,NA
152302,"2828 CORAL WAY SUITE 430","MIAMI","FL",33145,NA,NA,302,"2828 CORAL WAY SUITE 430, MIAMI, FL, 33145","No_Match",NA,NA,NA,NA
152303,"2828 E HOQUIAM ROAD","HOQUIAM","WA",98550,47.1133324620001,-123.807542323,303,"2828 E HOQUIAM ROAD, HOQUIAM, WA, 98550","Match","Exact","2828 E HOQUIAM RD, HOQUIAM, WA, 98550",180605119,"R"
152304,"2828 EDGE ROCK CIR","LAS VEGAS","NV",89117,36.1397261820001,-115.313767979,304,"2828 EDGE ROCK CIR, LAS VEGAS, NV, 89117","Match","Exact","2828 EDGE ROCK CIR, LAS VEGAS, NV, 89117",201891646,"R"
152305,"2828 GENTILLY DR","JACKSON","MS",39209,32.303980521,-90.2319035739999,305,"2828 GENTILLY DR, JACKSON, MS, 39209","Match","Exact","2828 GENTILLY DR, JACKSON, MS, 39209",65367114,"L"
152306,"2828 GREENBRIAR DR  NO 4303","HOUSTON","TX",77098,NA,NA,306,"2828 GREENBRIAR DR  NO 4303, HOUSTON, TX, 77098","No_Match",NA,NA,NA,NA
152307,"2828 GREENWOOD DR","PORTSMOUTH","VA",23701,36.8062249380001,-76.336702412,307,"2828 GREENWOOD DR, PORTSMOUTH, VA, 23701","Match","Exact","2828 GREENWOOD DR, PORTSMOUTH, VA, 23701",635845700,"R"
152308,"2828 HEIDI CIRCLE","CHAMBERSBURG","PA",17202,39.963129458,-77.711539299,308,"2828 HEIDI CIRCLE, CHAMBERSBURG, PA, 17202","Match","Exact","2828 HEIDI CIR, CHAMBERSBURG, PA, 17202",60098992,"R"
152309,"2828 JUDAH STREET","SAN FRANCISCO","CA",94122,37.761031302,-122.492338527,309,"2828 JUDAH STREET, SAN FRANCISCO, CA, 94122","Match","Exact","2828 JUDAH ST, SAN FRANCISCO, CA, 94122",192277390,"R"
152310,"2828 KAPIOLANI BLVD SUITE E","HONOLULU","HI",96826,21.2883735550001,-157.816546402,310,"2828 KAPIOLANI BLVD SUITE E, HONOLULU, HI, 96826","Match","Exact","2828 KAPIOLANI BLVD, HONOLULU, HI, 96826",203242064,"L"
152311,"2828 KRISTEN DR EAST","INDIANAPOLIS","IN",46218,39.80887162,-86.0756888,311,"2828 KRISTEN DR EAST, INDIANAPOLIS, IN, 46218","Match","Exact","2828 KRISTEN DR E, INDIANAPOLIS, IN, 46218",107999678,"L"
152312,"2828 MERRIMAC CT","NORFOLK","VA",23504,36.856490717,-76.253619602,312,"2828 MERRIMAC CT, NORFOLK, VA, 23504","Match","Exact","2828 MERRIMAC CT, NORFOLK, VA, 23504",122129030,"R"
152313,"2828 MILLER AVE","MESQUITE","TX",75150,32.8079944830001,-96.642153631,313,"2828 MILLER AVE, MESQUITE, TX, 75150","Match","Non_Exact","2828 MILLER PL, MESQUITE, TX, 75150",102931626,"R"
152314,"2828 N ATLANTIC AVE","DAYTONA BEACH","FL",32118,29.2659330810001,-81.027452868,314,"2828 N ATLANTIC AVE, DAYTONA BEACH, FL, 32118","Match","Exact","2828 N ATLANTIC AVE, DAYTONA BEACH, FL, 32118",652671221,"R"
152315,"2828 N BALLARD RD","APPLETON","WI",54911,44.2879150200001,-88.374898849,315,"2828 N BALLARD RD, APPLETON, WI, 54911","Match","Exact","2828 N BALLARD RD, APPLETON, WI, 54911",74921277,"R"
152316,"2828 N BURLING APT 104","CHICAGO","IL",60657,NA,NA,316,"2828 N BURLING APT 104, CHICAGO, IL, 60657","No_Match",NA,NA,NA,NA
152317,"2828 N CAMDEN PL","BOISE","ID",83704,43.6306562350001,-116.285338595,317,"2828 N CAMDEN PL, BOISE, ID, 83704","Match","Exact","2828 N CAMDEN PL, BOISE, ID, 83704",117872696,"L"
152318,"2828 N CENTRAL AVE STE 1000","PHOENIX","AZ",85004,33.479578089,-112.073780055,318,"2828 N CENTRAL AVE STE 1000, PHOENIX, AZ, 85004","Match","Non_Exact","2828 N CENTRAL AVE, PHOENIX, AZ, 85004",128212916,"L"
152319,"2828 N MAIN ST STE 208","DECATUR","IL",62526,39.873331551,-88.956498557,319,"2828 N MAIN ST STE 208, DECATUR, IL, 62526","Match","Non_Exact","2828 N MAIN ST, DECATUR, IL, 62526",20746271,"R"
152320,"2828 NW CORAL WAY SUITE 440","CORAL GABLES","FL",33145,NA,NA,320,"2828 NW CORAL WAY SUITE 440, CORAL GABLES, FL, 33145","No_Match",NA,NA,NA,NA
152321,"2828 OLD HICKORY BLVD APT 1003","NASHVILLE","TN",37221,NA,NA,321,"2828 OLD HICKORY BLVD APT 1003, NASHVILLE, TN, 37221","Tie",NA,NA,NA,NA
152322,"2828 PARKWAY SUITE 21","PIGEON FORGE","TN",37863,35.799609414,-83.570110755,322,"2828 PARKWAY SUITE 21, PIGEON FORGE, TN, 37863","Match","Exact","2828 PARKWAY, PIGEON FORGE, TN, 37863",608145673,"L"
152323,"2828 PTARMIGAN RD","HEPHZIBAH","GA",30815,33.3876083540001,-82.093133079,323,"2828 PTARMIGAN RD, HEPHZIBAH, GA, 30815","Match","Exact","2828 PTARMIGAN RD, HEPHZIBAH, GA, 30815",55650582,"R"
152324,"2828 QUEEN CITY DRIVE SUITE A","CHARLOTTE","NC",28054,35.238951247,-80.912702968,324,"2828 QUEEN CITY DRIVE SUITE A, CHARLOTTE, NC, 28054","Match","Non_Exact","2828 QUEEN CITY DR, CHARLOTTE, NC, 28208",70475464,"R"
152325,"2828 REA ROAD","CHARLOTTE","NC",28226,35.1138632970001,-80.785191257,325,"2828 REA ROAD, CHARLOTTE, NC, 28226","Match","Exact","2828 REA RD, CHARLOTTE, NC, 28226",70497980,"R"
152326,"2828 RICHMOND AVENUE","OAKLAND","CA",94611,37.81661647,-122.261604072,326,"2828 RICHMOND AVENUE, OAKLAND, CA, 94611","Match","Exact","2828 RICHMOND AVE, OAKLAND, CA, 94611",125000358,"R"
152327,"2828 RIO VERDE DRIVE","CEDAR PARK","TX",78641,30.552561714,-97.8151927869999,327,"2828 RIO VERDE DRIVE, CEDAR PARK, TX, 78641","Match","Exact","2828 RIO VERDE DR, CEDAR PARK, TX, 78641",648883123,"R"
152328,"2828 ROGERDALE RD STE 137","HOUSTON","TX",77042,29.7336375990001,-95.5598097869999,328,"2828 ROGERDALE RD STE 137, HOUSTON, TX, 77042","Match","Exact","2828 ROGERDALE RD, HOUSTON, TX, 77042",96619470,"R"
152329,"2828 S 76TH","WEST ALLIS","WI",53219,42.993370923,-88.007573758,329,"2828 S 76TH, WEST ALLIS, WI, 53219","Match","Non_Exact","2828 S 76TH ST, WEST ALLIS, WI, 53219",77747285,"L"
152330,"2828 S MCCALL ROAD STE 32-70","ENGLEWOOD","FL",34224,26.9346614460001,-82.314723688,330,"2828 S MCCALL ROAD STE 32-70, ENGLEWOOD, FL, 34224","Match","Non_Exact","2828 S MCCALL RD, ENGLEWOOD, FL, 34224",640811677,"R"
152331,"2828 SACKETT DRIVE","PARK CITY","UT",84098,40.7636633440001,-111.564218386,331,"2828 SACKETT DRIVE, PARK CITY, UT, 84098","Match","Exact","2828 SACKETT DR, PARK CITY, UT, 84098",653291492,"R"
152332,"2828 TELEPHONE ROAD","HOUSTON","TX",77023,29.715679745,-95.31928994,332,"2828 TELEPHONE ROAD, HOUSTON, TX, 77023","Match","Exact","2828 TELEPHONE RD, HOUSTON, TX, 77023",96082650,"R"
152333,"2828 UPTON STREET NW","WASHINGTON","DC",20008,38.9420465270001,-77.0576678049999,333,"2828 UPTON STREET NW, WASHINGTON, DC, 20008","Match","Exact","2828 UPTON ST NW, WASHINGTON, DC, 20008",76220791,"L"
152334,"2828 W MISTY OAKS DR","SOUTH JORDAN","UT",84095,40.5769697960001,-111.960276705,334,"2828 W MISTY OAKS DR, SOUTH JORDAN, UT, 84095","Match","Exact","2828 MISTY OAKS DR, SOUTH JORDAN, UT, 84095",176126362,"R"
152335,"2828 WEST 84TH","CHICAGO","IL",60652,NA,NA,335,"2828 WEST 84TH, CHICAGO, IL, 60652","Tie",NA,NA,NA,NA
152336,"2828 WEST JEFFERSON BOULEVARD","LOS ANGELES","CA",90018,34.025598234,-118.326338382,336,"2828 WEST JEFFERSON BOULEVARD, LOS ANGELES, CA, 90018","Match","Exact","2828 W JEFFERSON BLVD, LOS ANGELES, CA, 90018",141602240,"L"
152337,"2828 WEST STATE ROAD 235","BROOKER","FL",32622,NA,NA,337,"2828 WEST STATE ROAD 235, BROOKER, FL, 32622","No_Match",NA,NA,NA,NA
152338,"2828 WINDY CROSSING","WINSTON SALEM","NC",27127,36.0468188360001,-80.284540877,338,"2828 WINDY CROSSING, WINSTON SALEM, NC, 27127","Match","Exact","2828 WINDY CROSSING, WINSTON SALEM, NC, 27127",84605687,"R"
152339,"28281","CATOOSA","OK",74015,NA,NA,339,"28281, CATOOSA, OK, 74015","No_Match",NA,NA,NA,NA
152340,"28286","MENIFEE","CA",92584,NA,NA,340,"28286, MENIFEE, CA, 92584","No_Match",NA,NA,NA,NA
152341,"2829 4TH AVE NORTH","CLANTON","AL",35045,32.833445596,-86.672884838,341,"2829 4TH AVE NORTH, CLANTON, AL, 35045","Match","Exact","2829 4TH AVE N, CLANTON, AL, 35045",1233971,"R"
152342,"2829 BARCLAY DRIVE","NASHVILLE","TN",37206,36.169930225,-86.723397253,342,"2829 BARCLAY DRIVE, NASHVILLE, TN, 37206","Match","Exact","2829 BARCLAY DR, NASHVILLE, TN, 37206",97194873,"L"
152343,"2829 DICKENS LANE","FLOWER MOUND","TX",75028,33.038402268,-97.0730586719999,343,"2829 DICKENS LANE, FLOWER MOUND, TX, 75028","Match","Exact","2829 DICKENS LN, FLOWER MOUND, TX, 75028",103347865,"R"
152344,"2829 E SOUTH BLVD","MONTGOMERY","AL",36116,NA,NA,344,"2829 E SOUTH BLVD, MONTGOMERY, AL, 36116","No_Match",NA,NA,NA,NA
152345,"2829 E UNIVERSITY DR","MESA","AZ",85213,33.4226912990001,-111.770277291,345,"2829 E UNIVERSITY DR, MESA, AZ, 85213","Match","Exact","2829 E UNIVERSITY DR, MESA, AZ, 85213",128247816,"R"
152346,"2829 EAGLE DR","DALLAS","TX",75216,32.7156278470001,-96.780910712,346,"2829 EAGLE DR, DALLAS, TX, 75216","Match","Exact","2829 EAGLE DR, DALLAS, TX, 75216",102952135,"L"
152347,"2829 GEORGE STREET","LOGANSPORT","IN",46947,40.7564908730001,-86.330548347,347,"2829 GEORGE STREET, LOGANSPORT, IN, 46947","Match","Exact","2829 GEORGE ST, LOGANSPORT, IN, 46947",27198175,"R"
152348,"2829 HICKORY STREET","SAINT LOUIS","MO",63104,38.6216940510001,-90.224416557,348,"2829 HICKORY STREET, SAINT LOUIS, MO, 63104","Match","Exact","2829 HICKORY ST, SAINT LOUIS, MO, 63104",107598517,"R"
152349,"2829 LEAPHART RD","WEST COLUMBIA","SC",29169,33.9933410460001,-81.1147809679999,349,"2829 LEAPHART RD, WEST COLUMBIA, SC, 29169","Match","Exact","2829 LEAPHART RD, WEST COLUMBIA, SC, 29169",646459706,"L"
152350,"2829 N SAN FERNANDO RD","LOS ANGELES","CA",90065,34.110925765,-118.243238361,350,"2829 N SAN FERNANDO RD, LOS ANGELES, CA, 90065","Match","Non_Exact","2829 W SAN FERNANDO RD, LOS ANGELES, CA, 90065",641519334,"R"
152351,"2829 PARAISO WAY","LA CRESCENTA","CA",91214,34.2323826250001,-118.240562102,351,"2829 PARAISO WAY, LA CRESCENTA, CA, 91214","Match","Exact","2829 PARAISO WAY, LA CRESCENTA, CA, 91214",141589581,"R"
152352,"2829 PARKWOOD DR","SPEEDWAY","IN",46224,39.8068426990001,-86.2648687189999,352,"2829 PARKWOOD DR, SPEEDWAY, IN, 46224","Match","Exact","2829 PARKWOOD DR, SPEEDWAY, IN, 46224",107978335,"R"
152353,"2829 PEBBLE HILL POINTE","DULUTH","GA",30096,NA,NA,353,"2829 PEBBLE HILL POINTE, DULUTH, GA, 30096","No_Match",NA,NA,NA,NA
152354,"2829 ROCK HILL RD","AUBREY","TX",76227,33.277960674,-97.011283953,354,"2829 ROCK HILL RD, AUBREY, TX, 76227","Match","Exact","2829 ROCK HILL RD, AUBREY, TX, 76227",640577842,"R"
152355,"2829 RUBICAM AVE","WILLOW GROVE","PA",19090,40.1417801530001,-75.135162452,355,"2829 RUBICAM AVE, WILLOW GROVE, PA, 19090","Match","Exact","2829 RUBICAM AVE, WILLOW GROVE, PA, 19090",135079328,"R"
152356,"2829 S LAKELINE BLVD APT 333","CEDAR PARK","TX",78613,30.475721918,-97.809594561,356,"2829 S LAKELINE BLVD APT 333, CEDAR PARK, TX, 78613","Match","Non_Exact","2829 S LAKELINE BLVD, CEDAR PARK, TX, 78613",641005963,"L"
152357,"2829 S LAKELINE BLVD UNIT 836","CEDAR PARK","TX",78613,30.475721918,-97.809594561,357,"2829 S LAKELINE BLVD UNIT 836, CEDAR PARK, TX, 78613","Match","Non_Exact","2829 S LAKELINE BLVD, CEDAR PARK, TX, 78613",641005963,"L"
152358,"2829 SEARS ROAD","SPRING VALLEY","OH",45370,39.5881542440001,-84.0450456149999,358,"2829 SEARS ROAD, SPRING VALLEY, OH, 45370","Match","Exact","2829 SEARS RD, SPRING VALLEY, OH, 45370",143418397,"R"
152359,"2829 SEATON DR","DALLAS","TX",75216,32.705726983,-96.771966025,359,"2829 SEATON DR, DALLAS, TX, 75216","Match","Exact","2829 SEATON DR, DALLAS, TX, 75216",102952227,"L"
152360,"2829 SEDGWICK AVENUE   APARTMENT 4C","BRONX","NY",10468,40.8730647290001,-73.901959096,360,"2829 SEDGWICK AVENUE   APARTMENT 4C, BRONX, NY, 10468","Match","Exact","2829 SEDGWICK AVE, BRONX, NY, 10468",80298554,"L"
152361,"2829 SOUTH 64TH STREET","PHILADELPHIA","PA",19142,39.919518985,-75.2245138,361,"2829 SOUTH 64TH STREET, PHILADELPHIA, PA, 19142","Match","Exact","2829 S 64TH ST, PHILADELPHIA, PA, 19142",131409728,"L"
152362,"2829 SOUTH GRAND BLVD","SPOKANE","WA",99203,47.6289987660001,-117.40203845,362,"2829 SOUTH GRAND BLVD, SPOKANE, WA, 99203","Match","Exact","2829 S GRAND BLVD, SPOKANE, WA, 99203",605673661,"L"
152363,"2829 STATE STREET","SAN DIEGO","CA",92103,32.734222597,-117.171060326,363,"2829 STATE STREET, SAN DIEGO, CA, 92103","Match","Exact","2829 STATE ST, SAN DIEGO, CA, 92103",195343002,"R"
152364,"2829 TEXAS N E","ALBUQUERQUE","NM",87110,35.113552752,-106.556554138,364,"2829 TEXAS N E, ALBUQUERQUE, NM, 87110","Match","Non_Exact","2829 TEXAS ST NE, ALBUQUERQUE, NM, 87110",206717229,"L"
152365,"2829 TIMMONS 201","HOUSTON","TX",77027,29.7405052880001,-95.4366176459999,365,"2829 TIMMONS 201, HOUSTON, TX, 77027","Match","Non_Exact","2829 TIMMONS LN, HOUSTON, TX, 77027",96062690,"L"
152366,"2829 TRACY AVE","KANSAS CITY","MO",64109,39.074827138,-94.568467933,366,"2829 TRACY AVE, KANSAS CITY, MO, 64109","Match","Exact","2829 TRACY AVE, KANSAS CITY, MO, 64109",91446429,"L"
152367,"2829 TREMAINSVILLE RD APT 102","TOLEDO","OH",43613,41.713353392,-83.6123410389999,367,"2829 TREMAINSVILLE RD APT 102, TOLEDO, OH, 43613","Match","Exact","2829 TREMAINSVILLE RD, TOLEDO, OH, 43613",647829441,"L"
152368,"2829 TUBMAN AVENUE","DAYTON","OH",45417,39.734885954,-84.240507121,368,"2829 TUBMAN AVENUE, DAYTON, OH, 45417","Match","Exact","2829 TUBMAN AVE, DAYTON, OH, 45417",143567590,"R"
152369,"2829 WEST BURBANK BLVD SUITE 207","BURBANK","CA",91505,34.1773688230001,-118.342237204,369,"2829 WEST BURBANK BLVD SUITE 207, BURBANK, CA, 91505","Match","Exact","2829 W BURBANK BLVD, BURBANK, CA, 91505",141592513,"R"
152370,"2829 WHITE ROAD","WILMINGTON","NC",28411,34.2871095410001,-77.834112585,370,"2829 WHITE ROAD, WILMINGTON, NC, 28411","Match","Exact","2829 WHITE RD, WILMINGTON, NC, 28411",152763681,"L"
152371,"28290 CALLE LUSTROSOS","MENIFEE","CA",92585,33.710295741,-117.179758628,371,"28290 CALLE LUSTROSOS, MENIFEE, CA, 92585","Match","Non_Exact","28290 CLL LUSTROSOS, MENIFEE, CA, 92585",194832526,"L"
152372,"28292 HARVEST VIEW LANE","TRABUCO CANYON","CA",92679,33.677821024,-117.636866931,372,"28292 HARVEST VIEW LANE, TRABUCO CANYON, CA, 92679","Match","Exact","28292 HARVEST VIEW LN, TRABUCO CANYON, CA, 92679",649564284,"R"
152373,"28296 CHIEFTAIN DRIVE","LOGAN","OH",43138,39.560601079,-82.492627699,373,"28296 CHIEFTAIN DRIVE, LOGAN, OH, 43138","Match","Exact","28296 CHIEFTAIN DR, LOGAN, OH, 43138",36086978,"L"
152374,"283 24TH AVENUE","SAN FRANCISCO","CA",94121,37.784338335,-122.483970413,374,"283 24TH AVENUE, SAN FRANCISCO, CA, 94121","Match","Exact","283 24TH AVE, SAN FRANCISCO, CA, 94121",192276545,"R"
152375,"283 ABEL LANE","LOOGOOTEE","IN",47553,38.7082483,-86.9175596649999,375,"283 ABEL LANE, LOOGOOTEE, IN, 47553","Match","Exact","283 ABEL LN, LOOGOOTEE, IN, 47553",32112588,"L"
152376,"283 AHERN RD","BINGHAMTON","NY",13903,42.08362822,-75.8459481259999,376,"283 AHERN RD, BINGHAMTON, NY, 13903","Match","Exact","283 AHERN RD, BINGHAMTON, NY, 13903",634287482,"R"
152377,"283 ANDERSON ST","SAN FRANCISCO","CA",94110,37.7392208970001,-122.415251563,377,"283 ANDERSON ST, SAN FRANCISCO, CA, 94110","Match","Exact","283 ANDERSON ST, SAN FRANCISCO, CA, 94110",192288672,"L"
152378,"283 BAYRIDGE COURT","ORMOND BEACH","FL",32174,29.267176534,-81.123748694,378,"283 BAYRIDGE COURT, ORMOND BEACH, FL, 32174","Match","Exact","283 BAYRIDGE CT, ORMOND BEACH, FL, 32174",94515851,"L"
152379,"283 BREEZY LANE","ROSEBURG","OR",97470,43.2149988800001,-123.262722653,379,"283 BREEZY LANE, ROSEBURG, OR, 97470","Match","Exact","283 BREEZY LN, ROSEBURG, OR, 97470",137226181,"R"
152380,"283 CARRIAGE TRACE CT","TAYLORSVILLE","KY",40071,38.083937968,-85.483116447,380,"283 CARRIAGE TRACE CT, TAYLORSVILLE, KY, 40071","Match","Non_Exact","283 CARRIAGE TRACE RD, TAYLORSVILLE, KY, 40071",642848616,"L"
152381,"283 CATALONIA AVE SUITE 100","CORAL GABLES","FL",33134,25.74471765,-80.260045362,381,"283 CATALONIA AVE SUITE 100, CORAL GABLES, FL, 33134","Match","Exact","283 CATALONIA AVE, CORAL GABLES, FL, 33134",116266316,"R"
152382,"283 CLIFTON AVE","NEWARK","NJ",7104,40.7597833020001,-74.175300411,382,"283 CLIFTON AVE, NEWARK, NJ, 7104","Match","Exact","283 CLIFTON AVE, NEWARK, NJ, 07104",63494813,"R"
152383,"283 COUNCILMAN LEROY SNEED RD","RIDGELAND","SC",29936,NA,NA,383,"283 COUNCILMAN LEROY SNEED RD, RIDGELAND, SC, 29936","No_Match",NA,NA,NA,NA
152384,"283 COUNTY ROAD 105","MAPLESVILLE","AL",36750,32.8895051820001,-86.84419754,384,"283 COUNTY ROAD 105, MAPLESVILLE, AL, 36750","Match","Exact","283 CO RD 105, MAPLESVILLE, AL, 36750",651710971,"R"
152385,"283 CRANES ROOST BLVD  STE 180","ALTAMONTE SPRINGS","FL",32701,28.6665209270001,-81.382847333,385,"283 CRANES ROOST BLVD  STE 180, ALTAMONTE SPRINGS, FL, 32701","Match","Exact","283 CRANES ROOST BLVD, ALTAMONTE SPRINGS, FL, 32701",647526561,"R"
152386,"283 CRANES ROOST BLVD SUITE 111","ALTAMONTE SPRINGS","FL",32701,28.6665209270001,-81.382847333,386,"283 CRANES ROOST BLVD SUITE 111, ALTAMONTE SPRINGS, FL, 32701","Match","Exact","283 CRANES ROOST BLVD, ALTAMONTE SPRINGS, FL, 32701",647526561,"R"
152387,"283 CRANES ROOST BVLD SUITE 111","ALTAMONTE SPRINGS","FL",32701,28.6665209270001,-81.382847333,387,"283 CRANES ROOST BVLD SUITE 111, ALTAMONTE SPRINGS, FL, 32701","Match","Exact","283 CRANES ROOST BLVD, ALTAMONTE SPRINGS, FL, 32701",647526561,"R"
152388,"283 CRESTWOOD LANE","LOUISVILLE","KY",40229,38.0769158570001,-85.675317713,388,"283 CRESTWOOD LANE, LOUISVILLE, KY, 40229","Match","Exact","283 CRESTWOOD LN, LOUISVILLE, KY, 40229",47734428,"R"
152389,"283 E MAIN ST","JACKSON","OH",45640,NA,NA,389,"283 E MAIN ST, JACKSON, OH, 45640","Tie",NA,NA,NA,NA
152390,"283 E PLACITA NUBES BLANCAS","SAHUARITA","AZ",85629,NA,NA,390,"283 E PLACITA NUBES BLANCAS, SAHUARITA, AZ, 85629","No_Match",NA,NA,NA,NA
152391,"283 EAST 139TH STREET 3A","BRONX","NY",10454,40.810902899,-73.925032169,391,"283 EAST 139TH STREET 3A, BRONX, NY, 10454","Match","Exact","283 E 139TH ST, BRONX, NY, 10454",80300300,"L"
152392,"283 EBERT RD","WINCHESTER","VA",22603,39.2326293290001,-78.1247950549999,392,"283 EBERT RD, WINCHESTER, VA, 22603","Match","Exact","283 EBERT RD, WINCHESTER, VA, 22603",55579437,"L"
152393,"283 FISHER BONN ROAD","FREDERICKSBURG","TX",78624,30.1762456870001,-99.009046848,393,"283 FISHER BONN ROAD, FREDERICKSBURG, TX, 78624","Match","Exact","283 FISHER BONN RD, FREDERICKSBURG, TX, 78624",176833489,"R"
152394,"283 FOREST RD W","MASTIC BEACH","NY",11951,40.753905784,-72.856027742,394,"283 FOREST RD W, MASTIC BEACH, NY, 11951","Match","Exact","283 FOREST RD W, MASTIC BEACH, NY, 11951",114023627,"L"
152395,"283 FOREST ROAD","HUEYTOWN","AL",35023,33.454861625,-86.981198239,395,"283 FOREST ROAD, HUEYTOWN, AL, 35023","Match","Exact","283 FOREST RD, HUEYTOWN, AL, 35023",81546917,"L"
152396,"283 HAYPATH ROAD","OLD BETHPAGE","NY",11804,40.76578994,-73.4525237619999,396,"283 HAYPATH ROAD, OLD BETHPAGE, NY, 11804","Match","Exact","283 HAYPATH RD, OLD BETHPAGE, NY, 11804",147643863,"L"
152397,"283 HIGHLAND AVE","NEWTON","MA",2465,42.346630674,-71.218872984,397,"283 HIGHLAND AVE, NEWTON, MA, 2465","Match","Exact","283 HIGHLAND AVE, NEWTON, MA, 02465",86864057,"R"
152398,"283 HILLS BRIDGE RD","FAYETTEVILLE","GA",30215,33.3849897970001,-84.403391223,398,"283 HILLS BRIDGE RD, FAYETTEVILLE, GA, 30215","Match","Exact","283 HILLS BRIDGE RD, FAYETTEVILLE, GA, 30215",75948258,"L"
152399,"283 HOLLAND DRIVE","SAINT AUGUSTINE","FL",32095,30.0274975580001,-81.396830302,399,"283 HOLLAND DRIVE, SAINT AUGUSTINE, FL, 32095","Match","Exact","283 HOLLAND DR, SAINT AUGUSTINE, FL, 32095",630310096,"L"
152400,"283 KELLY RIDGE RD","OROVILLE","CA",95966,39.513744079,-121.463981193,400,"283 KELLY RIDGE RD, OROVILLE, CA, 95966","Match","Exact","283 KELLY RIDGE RD, OROVILLE, CA, 95966",68476092,"L"
152401,"283 KING LANE","DES PLAINES","IL",60016,42.03644467,-87.928067132,401,"283 KING LANE, DES PLAINES, IL, 60016","Match","Exact","283 KING LN, DES PLAINES, IL, 60016",111720944,"L"
152402,"283 KOOLABREW DR NW","CALABASH","NC",28467,33.908399285,-78.598807489,402,"283 KOOLABREW DR NW, CALABASH, NC, 28467","Match","Exact","283 KOOLABREW DR NW, CALABASH, NC, 28467",153163186,"L"
152403,"283 LAZY LOOP","GOODRICH","TX",77335,30.556431364,-94.874652075,403,"283 LAZY LOOP, GOODRICH, TX, 77335","Match","Exact","283 LAZY LOOP, GOODRICH, TX, 77335",23239654,"R"
152404,"283 LEMBECK AVE","JERSEY CITY","NJ",7087,NA,NA,404,"283 LEMBECK AVE, JERSEY CITY, NJ, 7087","No_Match",NA,NA,NA,NA
152405,"283 MAIN STREET","CUMBERLAND","ME",4021,43.7950858390001,-70.258363736,405,"283 MAIN STREET, CUMBERLAND, ME, 4021","Match","Exact","283 MAIN ST, CUMBERLAND, ME, 04021",639890917,"R"
152406,"283 MATEER ROAD","LEXINGTON","VA",24450,37.741284466,-79.504683529,406,"283 MATEER ROAD, LEXINGTON, VA, 24450","Match","Exact","283 MATEER RD, LEXINGTON, VA, 24450",63127356,"R"
152407,"283 MLK JR BLVD","BLAKELY","GA",39823,NA,NA,407,"283 MLK JR BLVD, BLAKELY, GA, 39823","No_Match",NA,NA,NA,NA
152408,"283 MORNING DEW DRIVE","CONCORD","NC",28025,35.368282105,-80.557855386,408,"283 MORNING DEW DRIVE, CONCORD, NC, 28025","Match","Exact","283 MORNING DEW DR, CONCORD, NC, 28025",631957836,"R"
152409,"283 N CENTER ST","ORANGE","NJ",7050,40.7788991900001,-74.2236460729999,409,"283 N CENTER ST, ORANGE, NJ, 7050","Match","Exact","283 N CENTER ST, ORANGE, NJ, 07050",63450306,"L"
152410,"283 NORTH 85TH STREET","CENTREVILLE","IL",62203,38.584837384,-90.0706085689999,410,"283 NORTH 85TH STREET, CENTREVILLE, IL, 62203","Match","Exact","283 N 85TH ST, CENTREVILLE, IL, 62203",107837129,"L"
152411,"283 NW 41 STREET","MIAMI","FL",33127,25.8140142450001,-80.201150062,411,"283 NW 41 STREET, MIAMI, FL, 33127","Match","Exact","283 NW 41ST ST, MIAMI, FL, 33127",116007442,"R"
152412,"283 NW SANDALWOOD LOOP","BEND","OR",97703,44.05359008,-121.350000829,412,"283 NW SANDALWOOD LOOP, BEND, OR, 97703","Match","Exact","283 NW SANDALWOOD LOOP, BEND, OR, 97703",152587926,"R"
152413,"283 PINE ST","NORWELL","MA",2061,42.142654404,-70.8024567859999,413,"283 PINE ST, NORWELL, MA, 2061","Match","Exact","283 PINE ST, NORWELL, MA, 02061",87433603,"L"
152414,"283 ROMAINE SPRING VIEW","FENTON","MO",63026,38.458582075,-90.453285228,414,"283 ROMAINE SPRING VIEW, FENTON, MO, 63026","Match","Exact","283 ROMAINE SPRING VW, FENTON, MO, 63026",607829525,"L"
152415,"283 SEBAGO RD","SEBAGO","ME",4029,43.8543021880001,-70.637813464,415,"283 SEBAGO RD, SEBAGO, ME, 4029","Match","Exact","283 SEBAGO RD, SEBAGO, ME, 04029",78058945,"R"
152416,"283 SOUTH KROME AVE","HOMESTEAD","FL",33030,25.4670365420001,-80.477307431,416,"283 SOUTH KROME AVE, HOMESTEAD, FL, 33030","Match","Non_Exact","283 KROME AVE, HOMESTEAD, FL, 33030",116277299,"L"
152417,"283 SUPERIOR STREER","SAINT PAUL","MN",55102,NA,NA,417,"283 SUPERIOR STREER, SAINT PAUL, MN, 55102","No_Match",NA,NA,NA,NA
152418,"283 THOMAS DR","KING OF PRUSSIA","PA",19406,40.0945933530001,-75.382692542,418,"283 THOMAS DR, KING OF PRUSSIA, PA, 19406","Match","Exact","283 THOMAS DR, KING OF PRUSSIA, PA, 19406",135070793,"R"
152419,"283 TOBEY ROAD","NEW GLOUCESTER","ME",4260,44.0030718030001,-70.321332178,419,"283 TOBEY ROAD, NEW GLOUCESTER, ME, 4260","Match","Exact","283 TOBEY RD, NEW GLOUCESTER, ME, 04260",78055404,"L"
152420,"283 VAN GALLOWAY TRAIL SE","WINNABOW","NC",28479,34.1252505910001,-78.09709255,420,"283 VAN GALLOWAY TRAIL SE, WINNABOW, NC, 28479","Match","Exact","283 VAN GALLOWAY TRL SE, WINNABOW, NC, 28479",637977173,"R"
152421,"283 VILLAFRANCA ST","CORONA","CA",92879,33.852126469,-117.566695636,421,"283 VILLAFRANCA ST, CORONA, CA, 92879","Match","Exact","283 VILLAFRANCA ST, CORONA, CA, 92879",633954472,"L"
152422,"283 WALNUT HILL FARM ROAD","GAFFNEY","SC",29340,35.034199533,-81.688413597,422,"283 WALNUT HILL FARM ROAD, GAFFNEY, SC, 29340","Match","Exact","283 WALNUT HILL FARM RD, GAFFNEY, SC, 29340",18989261,"R"
152423,"283 WAYNE AVE","PATERSON","NJ",7502,40.9221476820001,-74.189705309,423,"283 WAYNE AVE, PATERSON, NJ, 7502","Match","Exact","283 WAYNE AVE, PATERSON, NJ, 07502",65260604,"L"
152424,"283 WOODMERE","WILLOWICK","OH",44095,41.6267983540001,-81.4841750579999,424,"283 WOODMERE, WILLOWICK, OH, 44095","Match","Non_Exact","283 WOODMERE DR, WILLOWICK, OH, 44095",137474728,"L"
152425,"283 WOODSTORK POINT","JUPITER","FL",33458,26.9082936620001,-80.138449722,425,"283 WOODSTORK POINT, JUPITER, FL, 33458","Match","Exact","283 WOODSTORK PT, JUPITER, FL, 33458",115351349,"L"
152426,"2830 220TH STREET","AINSWORTH","IA",52201,41.337688584,-91.593720721,426,"2830 220TH STREET, AINSWORTH, IA, 52201","Match","Exact","2830 220TH ST, AINSWORTH, IA, 52201",84183460,"R"
152427,"2830 AVALON MEADOWS LANE","LAWRENCEVILLE","GA",30044,33.9320090040001,-84.085466114,427,"2830 AVALON MEADOWS LANE, LAWRENCEVILLE, GA, 30044","Match","Exact","2830 AVALON MEADOWS LN, LAWRENCEVILLE, GA, 30044",650129097,"R"
152428,"2830 BUTCH CASSIDY CT","PARK CITY","UT",84060,40.6677283340001,-111.486189475,428,"2830 BUTCH CASSIDY CT, PARK CITY, UT, 84060","Match","Exact","2830 BUTCH CASSIDY CT, PARK CITY, UT, 84060",160626252,"L"
152429,"2830 COPLEY ROAD SUITE 18","COPLEY","OH",44321,41.0937710360001,-81.620323116,429,"2830 COPLEY ROAD SUITE 18, COPLEY, OH, 44321","Match","Exact","2830 COPLEY RD, COPLEY, OH, 44321",61336508,"L"
152430,"2830 CURRY COURT SUITE 2","GREENBAY","WI",54311,44.522349788,-87.939620946,430,"2830 CURRY COURT SUITE 2, GREENBAY, WI, 54311","Match","Non_Exact","2830 CURRY LN, GREEN BAY, WI, 54311",148121262,"R"
152431,"2830 CUTWATER COURT","ANCHORAGE","AK",99516,61.0972042430001,-149.829378479,431,"2830 CUTWATER COURT, ANCHORAGE, AK, 99516","Match","Exact","2830 CUTWATER CT, ANCHORAGE, AK, 99516",190801324,"R"
152432,"2830 E ROCKLYN ROAD","SPRINGFIELD","MO",65804,37.1625750530001,-93.239119118,432,"2830 E ROCKLYN ROAD, SPRINGFIELD, MO, 65804","Match","Exact","2830 E ROCKLYN RD, SPRINGFIELD, MO, 65804",76681485,"R"
152433,"2830 EGRET LN","LOS BANOS","CA",93635,37.061496005,-120.807213388,433,"2830 EGRET LN, LOS BANOS, CA, 93635","Match","Exact","2830 EGRET LN, LOS BANOS, CA, 93635",125343874,"L"
152434,"2830 G ST SUITE 210","SACRAMENTO","CA",95816,38.5769968070001,-121.467334541,434,"2830 G ST SUITE 210, SACRAMENTO, CA, 95816","Match","Exact","2830 G ST, SACRAMENTO, CA, 95816",133324928,"R"
152435,"2830 GARVIN AVE","RICHMOND","CA",94804,37.943649581,-122.340218294,435,"2830 GARVIN AVE, RICHMOND, CA, 94804","Match","Exact","2830 GARVIN AVE, RICHMOND, CA, 94804",192039691,"R"
152436,"2830 GLENLOCKE CIR","ATLANTA","GA",30318,33.7966569720001,-84.483335161,436,"2830 GLENLOCKE CIR, ATLANTA, GA, 30318","Match","Exact","2830 GLENLOCKE CIR, ATLANTA, GA, 30318",618349539,"R"
152437,"2830 HARRISON STREET APT 2N","KANSAS CITY","MO",64109,39.0754861510001,-94.57235818,437,"2830 HARRISON STREET APT 2N, KANSAS CITY, MO, 64109","Match","Exact","2830 HARRISON ST, KANSAS CITY, MO, 64109",91446403,"R"
152438,"2830 HILLSIDE DRIVE","DOUGLASVILLE","GA",30135,33.728282537,-84.731779731,438,"2830 HILLSIDE DRIVE, DOUGLASVILLE, GA, 30135","Match","Exact","2830 HILLSIDE DR, DOUGLASVILLE, GA, 30135",16648677,"L"
152439,"2830 LAKE PARK ROAD","MEMPHIS","TN",38127,35.2299171760001,-89.969225006,439,"2830 LAKE PARK ROAD, MEMPHIS, TN, 38127","Match","Exact","2830 LAKE PARK RD, MEMPHIS, TN, 38127",72898292,"L"
152440,"2830 LINCOLN STREET","ANDERSON","IN",46016,40.087983453,-85.684871125,440,"2830 LINCOLN STREET, ANDERSON, IN, 46016","Match","Exact","2830 LINCOLN ST, ANDERSON, IN, 46016",31115043,"L"
152441,"2830 MAPLE SPRINGS COURT","MARIETTA","GA",30064,33.902658371,-84.6360506249999,441,"2830 MAPLE SPRINGS COURT, MARIETTA, GA, 30064","Match","Exact","2830 MAPLE SPRINGS CT, MARIETTA, GA, 30064",634051315,"R"
152442,"2830 MONICA DRIVE WEST","COLORADO SPGS","CO",80916,38.791708859,-104.747762576,442,"2830 MONICA DRIVE WEST, COLORADO SPGS, CO, 80916","Match","Exact","2830 MONICA DR W, COLORADO SPRINGS, CO, 80916",105524058,"R"
152443,"2830 N ORANGE BLOSSOM TRAIL","KISSIMMEE","FL",34744,28.3310848830001,-81.4037341329999,443,"2830 N ORANGE BLOSSOM TRAIL, KISSIMMEE, FL, 34744","Match","Exact","2830 N ORANGE BLOSSOM TRL, KISSIMMEE, FL, 34744",637955311,"L"
152444,"2830 N SHERMAN DR UNIT 18221","INDIANAPOLIS","IN",46218,39.807665457,-86.1025368259999,444,"2830 N SHERMAN DR UNIT 18221, INDIANAPOLIS, IN, 46218","Match","Non_Exact","2830 N SHERMAN DR, INDIANAPOLIS, IN, 46218",107998584,"L"
152445,"2830 NE 202 TERRACE","WILLISTON","FL",32696,29.3693176850001,-82.434844523,445,"2830 NE 202 TERRACE, WILLISTON, FL, 32696","Match","Exact","2830 NE 202ND TER, WILLISTON, FL, 32696",639310545,"L"
152446,"2830 NE FLANDERS STREET","PORTLAND","OR",97232,45.525745671,-122.636773007,446,"2830 NE FLANDERS STREET, PORTLAND, OR, 97232","Match","Exact","2830 NE FLANDERS ST, PORTLAND, OR, 97232",157507414,"R"
152447,"2830 NORTHWAY DR APT 104","BROOKLYN CENTER","MN",55430,45.059986833,-93.316614191,447,"2830 NORTHWAY DR APT 104, BROOKLYN CENTER, MN, 55430","Match","Exact","2830 NORTHWAY DR, BROOKLYN CENTER, MN, 55430",43830037,"R"
152448,"2830 NORTHWAY DRIVE APT 301","BROOKLYN CENTER","MN",55430,45.059986833,-93.316614191,448,"2830 NORTHWAY DRIVE APT 301, BROOKLYN CENTER, MN, 55430","Match","Exact","2830 NORTHWAY DR, BROOKLYN CENTER, MN, 55430",43830037,"R"
152449,"2830 NORWOOD AVE","NORWOOD","OH",45212,39.1636665360001,-84.438445311,449,"2830 NORWOOD AVE, NORWOOD, OH, 45212","Match","Exact","2830 NORWOOD AVE, NORWOOD, OH, 45212",103979984,"L"
152450,"2830 OAK PARK CIR","WESTFIELD","IN",46074,40.0209939490001,-86.114776863,450,"2830 OAK PARK CIR, WESTFIELD, IN, 46074","Match","Exact","2830 OAK PARK CIR, WESTFIELD, IN, 46074",29310996,"L"
152451,"2830 OAK ST","CONWAY","SC",29526,33.875332987,-79.0702189469999,451,"2830 OAK ST, CONWAY, SC, 29526","Match","Exact","2830 OAK ST, CONWAY, SC, 29526",607427492,"R"
152452,"2830 OCEAN PARKWAY APT 21G","BROOKLYN","NY",11235,40.5810380840001,-73.96772648,452,"2830 OCEAN PARKWAY APT 21G, BROOKLYN, NY, 11235","Match","Exact","2830 OCEAN PKWY, BROOKLYN, NY, 11235",650063863,"R"
152453,"2830 OCEAN PARKWAY APT 22E","BROOKLYN","NY",11235,40.5810380840001,-73.96772648,453,"2830 OCEAN PARKWAY APT 22E, BROOKLYN, NY, 11235","Match","Exact","2830 OCEAN PKWY, BROOKLYN, NY, 11235",650063863,"R"
152454,"2830 S HULEN STREET","FORT WORTH","TX",76109,32.7120566460001,-97.385987744,454,"2830 S HULEN STREET, FORT WORTH, TX, 76109","Match","Exact","2830 S HULEN ST, FORT WORTH, TX, 76109",102114335,"R"
152455,"2830 SANDY HOLLOW ROAD","ROCKFORD","IL",61109,42.2235831690001,-89.049196669,455,"2830 SANDY HOLLOW ROAD, ROCKFORD, IL, 61109","Match","Exact","2830 SANDY HOLLOW RD, ROCKFORD, IL, 61109",629594077,"L"
152456,"2830 SHADY OAKS CT SW","GRANDVILLE","MI",49418,42.8945506360001,-85.735271859,456,"2830 SHADY OAKS CT SW, GRANDVILLE, MI, 49418","Match","Exact","2830 SHADY OAKS CT SW, GRANDVILLE, MI, 49418",12454802,"R"
152457,"2830 SOUTH 18TH AVE","BROADVIEW","IL",60155,41.8518624480001,-87.853779894,457,"2830 SOUTH 18TH AVE, BROADVIEW, IL, 60155","Match","Exact","2830 S 18TH AVE, BROADVIEW, IL, 60155",111791369,"R"
152458,"2830 SOUTH 800 EAST","GREENTOWN","IN",46936,NA,NA,458,"2830 SOUTH 800 EAST, GREENTOWN, IN, 46936","No_Match",NA,NA,NA,NA
152459,"2830 TWIN LAKES DRIVE","SPRING HILL","TN",37174,NA,NA,459,"2830 TWIN LAKES DRIVE, SPRING HILL, TN, 37174","No_Match",NA,NA,NA,NA
152460,"2830 TWIN LAKES","SPRING HILL","TN",37174,NA,NA,460,"2830 TWIN LAKES, SPRING HILL, TN, 37174","No_Match",NA,NA,NA,NA
152461,"2830 W FOREST HILLS DR","FLAGSTAFF","AZ",86001,35.2458041570001,-111.680623084,461,"2830 W FOREST HILLS DR, FLAGSTAFF, AZ, 86001","Match","Exact","2830 FOREST HILLS DR, FLAGSTAFF, AZ, 86001",625174246,"L"
152462,"2830 WALTON CREEK DRIVE","COLORADO SPRINGS","CO",80922,38.8733837360001,-104.69927119,462,"2830 WALTON CREEK DRIVE, COLORADO SPRINGS, CO, 80922","Match","Exact","2830 WALTON CREEK DR, COLORADO SPRINGS, CO, 80922",610714227,"R"
152463,"2830 WEST INTERSTATE 20","GRAND PRAIRIE","TX",75052,NA,NA,463,"2830 WEST INTERSTATE 20, GRAND PRAIRIE, TX, 75052","No_Match",NA,NA,NA,NA
152464,"2830 WHITEWOOD DRIVE","DALLAS","TX",75233,32.703066795,-96.8665445829999,464,"2830 WHITEWOOD DRIVE, DALLAS, TX, 75233","Match","Exact","2830 WHITEWOOD DR, DALLAS, TX, 75233",102947180,"L"
152465,"2830 WOODCLIFF CIRCLE","EAST GRAND RAPIDS","MI",49506,42.943312178,-85.598733894,465,"2830 WOODCLIFF CIRCLE, EAST GRAND RAPIDS, MI, 49506","Match","Non_Exact","2830 WOODCLIFF CIR SE, EAST GRAND RAPIDS, MI, 49506",12467761,"R"
152466,"28301 SW 158 AVE","HOMESTEAD","FL",33033,25.5038845730001,-80.447035276,466,"28301 SW 158 AVE, HOMESTEAD, FL, 33033","Match","Exact","28301 SW 158TH AVE, HOMESTEAD, FL, 33033",115988687,"L"
152467,"28302 ENCINA DRIVE","WINTERS","CA",95694,38.528549298,-122.01197753,467,"28302 ENCINA DRIVE, WINTERS, CA, 95694","Match","Exact","28302 ENCINA DR, WINTERS, CA, 95694",624379233,"L"
152468,"28305 SOUTHFIELD RD","LATHRUP VILLAGE","MI",48076,NA,NA,468,"28305 SOUTHFIELD RD, LATHRUP VILLAGE, MI, 48076","No_Match",NA,NA,NA,NA
152469,"28306 ATLEY COURT","SAUGUS","CA",91350,34.441873597,-118.47861461,469,"28306 ATLEY COURT, SAUGUS, CA, 91350","Match","Exact","28306 ATLEY CT, SAUGUS, CA, 91350",651020968,"R"
152470,"28307 PLANTATION DRIVE NE","ATLANTA","GA",30324,33.8359893900001,-84.356193505,470,"28307 PLANTATION DRIVE NE, ATLANTA, GA, 30324","Match","Non_Exact","28307 PLANTATION DR, ATLANTA, GA, 30324",618353037,"R"
152471,"2830B WORMANS MILL ROAD BOX 289","FREDERICK","MD",21701,NA,NA,471,"2830B WORMANS MILL ROAD BOX 289, FREDERICK, MD, 21701","No_Match",NA,NA,NA,NA
152472,"2831 113TH AVE NW","COON RAPIDS","MN",55433,45.1758035060001,-93.339133154,472,"2831 113TH AVE NW, COON RAPIDS, MN, 55433","Match","Exact","2831 113TH AVE NW, COON RAPIDS, MN, 55433",97516574,"R"
152473,"2831 134TH AVE NE","BELLEVUE","WA",98005,47.635675215,-122.162116059,473,"2831 134TH AVE NE, BELLEVUE, WA, 98005","Match","Exact","2831 134TH AVE NE, BELLEVUE, WA, 98005",187032718,"L"
152474,"2831 22ND ST","KENOSHA","WI",53140,42.6180698910001,-87.842901501,474,"2831 22ND ST, KENOSHA, WI, 53140","Match","Exact","2831 22ND ST, KENOSHA, WI, 53140",79810297,"R"
152475,"2831 59TH STREET NW","ROCHESTER","MN",55901,44.0846655830001,-92.5073142699999,475,"2831 59TH STREET NW, ROCHESTER, MN, 55901","Match","Exact","2831 59TH ST NW, ROCHESTER, MN, 55901",612111351,"L"
152476,"2831 76TH AVE SE","BUCHANAN","ND",58420,47.0067483730001,-98.890103718,476,"2831 76TH AVE SE, BUCHANAN, ND, 58420","Match","Exact","2831 76TH AVE SE, BUCHANAN, ND, 58420",151901986,"L"
152477,"2831 9TH AVENUE","CLARKSTON","WA",99403,46.379768088,-117.112181863,477,"2831 9TH AVENUE, CLARKSTON, WA, 99403","Match","Exact","2831 9TH AVE, CLARKSTON, WA, 99403",632054077,"L"
152478,"2831 AVENUE S","RIVIERA BEACH","FL",33404,26.7856292820001,-80.080661826,478,"2831 AVENUE S, RIVIERA BEACH, FL, 33404","Match","Exact","2831 AVENUE S, RIVIERA BEACH, FL, 33404",636397183,"L"
152479,"2831 CAMINO DEL RIO SOUTH SUITE 206","SAN DIEGO","CA",92108,NA,NA,479,"2831 CAMINO DEL RIO SOUTH SUITE 206, SAN DIEGO, CA, 92108","No_Match",NA,NA,NA,NA
152480,"2831 E 8TH ST","KANSAS CITY","MO",64124,39.103382346,-94.5478921929999,480,"2831 E 8TH ST, KANSAS CITY, MO, 64124","Match","Exact","2831 E 8TH ST, KANSAS CITY, MO, 64124",91449341,"R"
152481,"2831 E LEDBETTER DR","DALLAS","TX",75216,32.6935039790001,-96.774333117,481,"2831 E LEDBETTER DR, DALLAS, TX, 75216","Match","Exact","2831 E LEDBETTER DR, DALLAS, TX, 75216",103222694,"L"
152482,"2831 ELDORADO PARKWAY STE 103-149","FRISCO","TX",75033,33.1781386580001,-96.864466938,482,"2831 ELDORADO PARKWAY STE 103-149, FRISCO, TX, 75033","Match","Exact","2831 ELDORADO PKWY, FRISCO, TX, 75033",638534270,"R"
152483,"2831 ELDORADO PKWY 103-311","FRISCO","TX",75033,33.1781386580001,-96.864466938,483,"2831 ELDORADO PKWY 103-311, FRISCO, TX, 75033","Match","Exact","2831 ELDORADO PKWY, FRISCO, TX, 75033",638534270,"R"
152484,"2831 EXTERIOR STREET","BRONX","NY",10463,40.8740953980001,-73.906440435,484,"2831 EXTERIOR STREET, BRONX, NY, 10463","Match","Exact","2831 EXTERIOR ST, BRONX, NY, 10463",80310324,"L"
152485,"2831 FRANCIS LN","COSTA MESA","CA",92626,33.674809462,-117.893417333,485,"2831 FRANCIS LN, COSTA MESA, CA, 92626","Match","Exact","2831 FRANCIS LN, COSTA MESA, CA, 92626",144048058,"L"
152486,"2831 FRANKLIN BLVD","CLEVELAND","OH",44113,41.4874086470001,-81.7090327239999,486,"2831 FRANKLIN BLVD, CLEVELAND, OH, 44113","Match","Exact","2831 FRANKLIN BLVD, CLEVELAND, OH, 44113",61109234,"L"
152487,"2831 HUNTINGTON AVENUE SOUTH","MINNEAPOLIS","MN",55416,44.9513047140001,-93.331364849,487,"2831 HUNTINGTON AVENUE SOUTH, MINNEAPOLIS, MN, 55416","Match","Exact","2831 HUNTINGTON AVE S, MINNEAPOLIS, MN, 55416",43627513,"L"
152488,"2831 MARCO DR NW","ATLANTA","GA",30318,33.798046877,-84.477570755,488,"2831 MARCO DR NW, ATLANTA, GA, 30318","Match","Exact","2831 MARCO DR NW, ATLANTA, GA, 30318",17333696,"R"
152489,"2831 MUSTANG AVENUE","HERNDON","VA",20171,38.9324020670001,-77.417540235,489,"2831 MUSTANG AVENUE, HERNDON, VA, 20171","Match","Non_Exact","2831 MUSTANG DR, HERNDON, VA, 20171",649766625,"L"
152490,"2831 NE EDGEHILL PLACE","PORTLAND","OR",97212,45.54924779,-122.636882493,490,"2831 NE EDGEHILL PLACE, PORTLAND, OR, 97212","Match","Exact","2831 NE EDGEHILL PL, PORTLAND, OR, 97212",157506332,"L"
152491,"2831 PALMER AVE","GRANITE CITY","IL",62040,38.707401385,-90.121053283,491,"2831 PALMER AVE, GRANITE CITY, IL, 62040","Match","Exact","2831 PALMER AVE, GRANITE CITY, IL, 62040",107682417,"L"
152492,"2831 S PULASKI ROAD","CHICAGO","IL",60623,41.840183789,-87.724428759,492,"2831 S PULASKI ROAD, CHICAGO, IL, 60623","Match","Exact","2831 S PULASKI RD, CHICAGO, IL, 60623",111799314,"L"
152493,"2831 SE EAGLE DRIVE","PORT ST LUCIE","FL",34984,27.2545676190001,-80.340321993,493,"2831 SE EAGLE DRIVE, PORT ST LUCIE, FL, 34984","Match","Exact","2831 SE EAGLE DR, PORT ST LUCIE, FL, 34984",120166470,"L"
152494,"2831 SIERRA ROAD","PINON HILLS","CA",92372,NA,NA,494,"2831 SIERRA ROAD, PINON HILLS, CA, 92372","No_Match",NA,NA,NA,NA
152495,"2831 SKYE TER","DULUTH","GA",30096,33.9685600870001,-84.165189558,495,"2831 SKYE TER, DULUTH, GA, 30096","Match","Non_Exact","2831 SKYE TER NW, DULUTH, GA, 30096",88903132,"R"
152496,"2831 SOUTH BAYSHORE DRIVE UNIT 707","MIAMI","FL",33133,25.7280080360001,-80.238253819,496,"2831 SOUTH BAYSHORE DRIVE UNIT 707, MIAMI, FL, 33133","Match","Exact","2831 S BAYSHORE DR, MIAMI, FL, 33133",647854885,"R"
152497,"2831 SPRUCE ROAD","EATON RAPIDS","MI",48827,42.608087486,-84.6713666759999,497,"2831 SPRUCE ROAD, EATON RAPIDS, MI, 48827","Match","Exact","2831 SPRUCE RD, EATON RAPIDS, MI, 48827",652789641,"L"
152498,"2831 SR-13","ST JOHNS","FL",32259,NA,NA,498,"2831 SR-13, ST JOHNS, FL, 32259","No_Match",NA,NA,NA,NA
152499,"2831 ST CLAUDE AVENUE","NEW ORLEANS","LA",70117,29.968608036,-90.0478926179999,499,"2831 ST CLAUDE AVENUE, NEW ORLEANS, LA, 70117","Match","Exact","2831 SAINT CLAUDE AVE, NEW ORLEANS, LA, 70117",191716704,"L"
152500,"2831 ST ROSE PARKWAY 200","LAS VEGAS","NV",89052,NA,NA,500,"2831 ST ROSE PARKWAY 200, LAS VEGAS, NV, 89052","No_Match",NA,NA,NA,NA
