"ID","Address","City","State","Zip","lat","long","id","input_address","match_indicator","match_type","matched_address","tiger_line_id","tiger_side"
306501,"8816 RENTON AVE S","SEATTLE","WA",98118,47.524110401,-122.27655812,1,"8816 RENTON AVE S, SEATTLE, WA, 98118","Match","Exact","8816 RENTON AVE S, SEATTLE, WA, 98118",186597069,"L"
306502,"8816 S KY 32","ISONVILLE","OH",41149,NA,NA,2,"8816 S KY 32, ISONVILLE, OH, 41149","No_Match",NA,NA,NA,NA
306503,"8817 BRYSON BEND DRIVE","CHARLOTTE","NC",28277,35.035296982,-80.81861405,3,"8817 BRYSON BEND DRIVE, CHARLOTTE, NC, 28277","Match","Exact","8817 BRYSON BEND DR, CHARLOTTE, NC, 28277",70528762,"R"
306504,"8817 GOODFELLOW BLVD","SAINT LOUIS","MO",63147,38.720038845,-90.2473834959999,4,"8817 GOODFELLOW BLVD, SAINT LOUIS, MO, 63147","Match","Exact","8817 GOODFELLOW BLVD, SAINT LOUIS, MO, 63147",107591865,"L"
306505,"8817 HIGHWAY 6 STE 700","MISSOURI CITY","TX",77459,NA,NA,5,"8817 HIGHWAY 6 STE 700, MISSOURI CITY, TX, 77459","No_Match",NA,NA,NA,NA
306506,"8817 POLLAND AVE","SAN DIEGO","CA",92123,32.796775747,-117.141541286,6,"8817 POLLAND AVE, SAN DIEGO, CA, 92123","Match","Exact","8817 POLLAND AVE, SAN DIEGO, CA, 92123",195321254,"R"
306507,"8817 S BROADWAY","HIGHLANDS RANCH","CO",80129,39.557314019,-104.989041276,7,"8817 S BROADWAY, HIGHLANDS RANCH, CO, 80129","Match","Exact","8817 S BROADWAY, HIGHLANDS RANCH, CO, 80129",130842319,"R"
306508,"8817 SW GREENING LANE","TIGARD","OR",97224,45.407555868,-122.768023749,8,"8817 SW GREENING LANE, TIGARD, OR, 97224","Match","Exact","8817 SW GREENING LN, TIGARD, OR, 97224",605222755,"R"
306509,"8818 210TH STREET","QUEENS VILLAGE","NY",11427,NA,NA,9,"8818 210TH STREET, QUEENS VILLAGE, NY, 11427","No_Match",NA,NA,NA,NA
306510,"8818 CRENSHAW BLVD","INGLEWOOD","CA",90305,33.957766893,-118.326487734,10,"8818 CRENSHAW BLVD, INGLEWOOD, CA, 90305","Match","Exact","8818 CRENSHAW BLVD, INGLEWOOD, CA, 90305",141655622,"L"
306511,"8818 EASTHEIMER STREET","HOUSTON","TX",77064,29.9331711740001,-95.5495483179999,11,"8818 EASTHEIMER STREET, HOUSTON, TX, 77064","Match","Exact","8818 EASTHEIMER ST, HOUSTON, TX, 77064",631801517,"L"
306512,"8818 GOODBYS EXECUTIVE DR","JACKSONVILLE","FL",32217,30.219390558,-81.610636712,12,"8818 GOODBYS EXECUTIVE DR, JACKSONVILLE, FL, 32217","Match","Non_Exact","8818 GOODBY'S EXECUTIVE DR, JACKSONVILLE, FL, 32217",83947387,"L"
306513,"8818 GREYHAWK DR","FT WAYNE","IN",46835,41.1472414420001,-85.030576648,13,"8818 GREYHAWK DR, FT WAYNE, IN, 46835","Match","Exact","8818 GREYHAWK DR, FORT WAYNE, IN, 46835",6407127,"R"
306514,"8818 PINEY BRANCH ROAD","SILVER SPRING","MD",20903,38.999691904,-76.99383319,14,"8818 PINEY BRANCH ROAD, SILVER SPRING, MD, 20903","Match","Exact","8818 PINEY BRANCH RD, SILVER SPRING, MD, 20903",62094257,"L"
306515,"8818 S EGGLESTON","CHICAGO","IL",60620,41.7339448810001,-87.635051532,15,"8818 S EGGLESTON, CHICAGO, IL, 60620","Match","Non_Exact","8818 S EGGLESTON AVE, CHICAGO, IL, 60620",111832147,"R"
306516,"8818 SLEEPY HOLLOW LANE","POTOMAC","MD",20854,39.035776771,-77.1803703209999,16,"8818 SLEEPY HOLLOW LANE, POTOMAC, MD, 20854","Match","Exact","8818 SLEEPY HOLLOW LN, POTOMAC, MD, 20854",639108425,"L"
306517,"8818 SLEEPY HOLLOW LN","POTOMAC","MD",20854,39.035776771,-77.1803703209999,17,"8818 SLEEPY HOLLOW LN, POTOMAC, MD, 20854","Match","Exact","8818 SLEEPY HOLLOW LN, POTOMAC, MD, 20854",639108425,"L"
306518,"8818 TARVER DRIVE","TEMPLE","TX",76502,31.113233914,-97.437913065,18,"8818 TARVER DRIVE, TEMPLE, TX, 76502","Match","Exact","8818 TARVER DR, TEMPLE, TX, 76502",617265361,"L"
306519,"8818 VILLA VIEW CIRCLE","ORLANDO","FL",32821,28.3495972270001,-81.5161143,19,"8818 VILLA VIEW CIRCLE, ORLANDO, FL, 32821","Match","Exact","8818 VILLA VIEW CIR, ORLANDO, FL, 32821",94423557,"R"
306520,"8818 WEEMS ROAD","MANASSAS","VA",20110,38.763424797,-77.46742126,20,"8818 WEEMS ROAD, MANASSAS, VA, 20110","Match","Exact","8818 WEEMS RD, MANASSAS, VA, 20110",76505004,"R"
306521,"8818 ZEPHYR RANCH RD","ZEPHYRHILLS","FL",33541,28.286039579,-82.200473909,21,"8818 ZEPHYR RANCH RD, ZEPHYRHILLS, FL, 33541","Match","Exact","8818 ZEPHYR RANCH RD, ZEPHYRHILLS, FL, 33541",86389327,"L"
306522,"8819 AUDRIE RAE LN","CYPRESS","TX",77433,29.904793264,-95.6956000759999,22,"8819 AUDRIE RAE LN, CYPRESS, TX, 77433","Match","Exact","8819 AUDRIE RAE LN, CYPRESS, TX, 77433",642093099,"L"
306523,"8819 BOOM CIRCLE","ANCHORAGE","AK",99502,61.140416686,-149.935816583,23,"8819 BOOM CIRCLE, ANCHORAGE, AK, 99502","Match","Exact","8819 BOOM CIR, ANCHORAGE, AK, 99502",190819807,"R"
306524,"8819 DISTANT WOODS DRIVE","HOUSTON","TX",77095,29.909211344,-95.663355063,24,"8819 DISTANT WOODS DRIVE, HOUSTON, TX, 77095","Match","Exact","8819 DISTANT WOODS DR, HOUSTON, TX, 77095",631467973,"L"
306525,"8819 E FREDERICK AVE","MILLWOOD","WA",99212,47.6853325770001,-117.286418364,25,"8819 E FREDERICK AVE, MILLWOOD, WA, 99212","Match","Exact","8819 E FREDERICK AVE, MILLWOOD, WA, 99212",189886233,"L"
306526,"8819 KILRENNY DR","SPRING","TX",77379,30.0202562330001,-95.551811917,26,"8819 KILRENNY DR, SPRING, TX, 77379","Match","Exact","8819 KILRENNY DR, SPRING, TX, 77379",96162022,"R"
306527,"8819 SE KNAPP ST","PORTLAND","OR",97266,45.4702948880001,-122.572090151,27,"8819 SE KNAPP ST, PORTLAND, OR, 97266","Match","Exact","8819 SE KNAPP ST, PORTLAND, OR, 97266",157568220,"L"
306528,"8819 SEGUIN COVE LN","RICHMOND","TX",77407,29.681099267,-95.7233158449999,28,"8819 SEGUIN COVE LN, RICHMOND, TX, 77407","Match","Exact","8819 SEGUIN COVE LN, RICHMOND, TX, 77407",651139474,"R"
306529,"8819 SHINING OCEANS WAY","COLUMBIA","MD",21045,39.1894084200001,-76.8075979669999,29,"8819 SHINING OCEANS WAY, COLUMBIA, MD, 21045","Match","Exact","8819 SHINING OCEANS WAY, COLUMBIA, MD, 21045",619490833,"R"
306530,"8819 TORREY PINES DR","CHESTERFIELD","VA",23832,37.386839808,-77.661823135,30,"8819 TORREY PINES DR, CHESTERFIELD, VA, 23832","Match","Exact","8819 TORREY PINES DR, CHESTERFIELD, VA, 23832",201565916,"L"
306531,"8819 UNIVERSITY EAST DR STE 201","CHARLOTTE","NC",28213,35.286041416,-80.728384773,31,"8819 UNIVERSITY EAST DR STE 201, CHARLOTTE, NC, 28213","Match","Exact","8819 UNIVERSITY EAST DR, CHARLOTTE, NC, 28213",642242609,"R"
306532,"881WINDSOR GREEN DR","VILLA HILLS","KY",41017,NA,NA,32,"881WINDSOR GREEN DR, VILLA HILLS, KY, 41017","No_Match",NA,NA,NA,NA
306533,"882 13TH AVENUE SOUTH","ST PETERSBURG","FL",33701,27.7578080220001,-82.646035545,33,"882 13TH AVENUE SOUTH, ST PETERSBURG, FL, 33701","Match","Exact","882 13TH AVE S, SAINT PETERSBURG, FL, 33701",124708351,"L"
306534,"882 BAY STREET","SEBRING","FL",33870,27.4875229990001,-81.439914785,34,"882 BAY STREET, SEBRING, FL, 33870","Match","Exact","882 BAY ST, SEBRING, FL, 33870",4633054,"L"
306535,"882 BRIAR DR","DELAWARE","OH",43015,40.211760892,-83.0481092909999,35,"882 BRIAR DR, DELAWARE, OH, 43015","Match","Exact","882 BRIAR DR, DELAWARE, OH, 43015",649619531,"L"
306536,"882 CLEVELAND ST APT 21","OAKLAND","CA",94606,37.803189414,-122.240438399,36,"882 CLEVELAND ST APT 21, OAKLAND, CA, 94606","Match","Exact","882 CLEVELAND ST, OAKLAND, CA, 94606",652207845,"L"
306537,"882 COLLEGE PARKWAY APT 302","ROCKVILLE","MD",20850,39.097057695,-77.166767851,37,"882 COLLEGE PARKWAY APT 302, ROCKVILLE, MD, 20850","Match","Exact","882 COLLEGE PKWY, ROCKVILLE, MD, 20850",639329387,"L"
306538,"882 COUNTY ROAD 461","ENGLEWOOD","TN",37329,35.4119128200001,-84.45764286,38,"882 COUNTY ROAD 461, ENGLEWOOD, TN, 37329","Match","Exact","882 CO RD 461, ENGLEWOOD, TN, 37329",88544594,"R"
306539,"882 E NEW YORK AVENUE","BROOKLYN","NY",11203,40.6520021040001,-73.9467973599999,39,"882 E NEW YORK AVENUE, BROOKLYN, NY, 11203","Match","Exact","882 NEW YORK AVE, BROOKLYN, NY, 11203",59081504,"R"
306540,"882 E WORTH AVE","PORTERVILLE","CA",93257,36.043918121,-118.997138176,40,"882 E WORTH AVE, PORTERVILLE, CA, 93257","Match","Exact","882 E WORTH AVE, PORTERVILLE, CA, 93257",202816062,"L"
306541,"882 EAST WORTH AVE","PORTERVILLE","CA",93257,36.043929587,-118.997171315,41,"882 EAST WORTH AVE, PORTERVILLE, CA, 93257","Match","Exact","882 E WORTH AVE, PORTERVILLE, CA, 93257",202816062,"L"
306542,"882 EDISON RD","GRAYSON","KY",41143,38.276854868,-82.9550162369999,42,"882 EDISON RD, GRAYSON, KY, 41143","Match","Exact","882 EDISON RD, GRAYSON, KY, 41143",39609396,"R"
306543,"882 HALYARD","NEWPORT BEACH","CA",92663,33.6274852190001,-117.935845187,43,"882 HALYARD, NEWPORT BEACH, CA, 92663","Match","Exact","882 HALYARD, NEWPORT BEACH, CA, 92663",144091081,"L"
306544,"882 HERITAGE OAKS DR","STONE MOUNTAIN","GA",30088,33.7707534400001,-84.189328041,44,"882 HERITAGE OAKS DR, STONE MOUNTAIN, GA, 30088","Match","Exact","882 HERITAGE OAKS DR, STONE MOUNTAIN, GA, 30088",23386700,"L"
306545,"882 HERITAGE PLACE","DECATUR","GA",30033,33.8038360310001,-84.301429151,45,"882 HERITAGE PLACE, DECATUR, GA, 30033","Match","Exact","882 HERITAGE PL, DECATUR, GA, 30033",625033431,"R"
306546,"882 HIGHWAY 92 S","DANDRIDGE","TN",37725,36.02391742,-83.428494288,46,"882 HIGHWAY 92 S, DANDRIDGE, TN, 37725","Match","Non_Exact","882 OLD HWY 92, DANDRIDGE, TN, 37725",42572536,"R"
306547,"882 HILLSIDE AVENUE","ALBANY","CA",94706,37.8918274490001,-122.303893194,47,"882 HILLSIDE AVENUE, ALBANY, CA, 94706","Match","Exact","882 HILLSIDE AVE, ALBANY, CA, 94706",124991944,"R"
306548,"882 HUNTING HORN WAY","EVANS","GA",30809,33.5692337610001,-82.111847763,48,"882 HUNTING HORN WAY, EVANS, GA, 30809","Match","Exact","882 HUNTING HORN WAY, EVANS, GA, 30809",55381242,"L"
306549,"882 JENNY LANE","BERTHOUD","CO",80513,40.339601396,-105.089618681,49,"882 JENNY LANE, BERTHOUD, CO, 80513","Match","Exact","882 JENNY LN, BERTHOUD, CO, 80513",645456140,"R"
306550,"882 MONTRACHET CT","LEWISVILLE","NC",27023,36.0965748,-80.4638509659999,50,"882 MONTRACHET CT, LEWISVILLE, NC, 27023","Match","Exact","882 MONTRACHET CT, LEWISVILLE, NC, 27023",634531896,"R"
306551,"882 PATHVIEW COURT","DACULA","GA",30019,34.025219104,-83.903043525,51,"882 PATHVIEW COURT, DACULA, GA, 30019","Match","Exact","882 PATHVIEW CT, DACULA, GA, 30019",623857690,"L"
306552,"882 ROCK SPRINGS ROAD","LAVONIA","GA",30553,34.436988715,-82.9906376869999,52,"882 ROCK SPRINGS ROAD, LAVONIA, GA, 30553","Match","Exact","882 ROCK SPRINGS RD, LAVONIA, GA, 30553",22646305,"R"
306553,"882 ROCKWOOD LANE","TRYON","NC",28782,35.251436534,-82.245084774,53,"882 ROCKWOOD LANE, TRYON, NC, 28782","Match","Exact","882 ROCKWOOD LN, TRYON, NC, 28782",627795021,"R"
306554,"882 SHADOW OAK BEND","MARYSVILLE","OH",43040,40.2056710740001,-83.3746785609999,54,"882 SHADOW OAK BEND, MARYSVILLE, OH, 43040","Match","Exact","882 SHADOW OAK BEND, MARYSVILLE, OH, 43040",618730615,"L"
306555,"882 SUMMERFIELD DR","WESTLAND","MI",48185,42.3138024400001,-83.425819584,55,"882 SUMMERFIELD DR, WESTLAND, MI, 48185","Match","Exact","882 SUMMERFIELD DR, WESTLAND, MI, 48185",617584271,"R"
306556,"882 SUNSET RIDGE PLACE","CHULA VISTA","CA",91914,32.6568416700001,-116.945928489,56,"882 SUNSET RIDGE PLACE, CHULA VISTA, CA, 91914","Match","Exact","882 SUNSET RIDGE PL, CHULA VISTA, CA, 91914",195765214,"R"
306557,"882 WEST HIGHWAY 150","LINCOLNTON","NC",28092,NA,NA,57,"882 WEST HIGHWAY 150, LINCOLNTON, NC, 28092","No_Match",NA,NA,NA,NA
306558,"882 WOOD STREET","OAKLAND","CA",94607,37.809337919,-122.301014222,58,"882 WOOD STREET, OAKLAND, CA, 94607","Match","Exact","882 WOOD ST, OAKLAND, CA, 94607",124995343,"R"
306559,"8820      E     33RD ST","INDIANAPOLIS","IN",46226,39.8166275140001,-86.012406988,59,"8820      E     33RD ST, INDIANAPOLIS, IN, 46226","Match","Exact","8820 E 33RD ST, INDIANAPOLIS, IN, 46226",108012252,"L"
306560,"8820 AVENUE J APT 3C","BROOKLYN","NY",11236,40.637736472,-73.905426833,60,"8820 AVENUE J APT 3C, BROOKLYN, NY, 11236","Match","Exact","8820 AVE J, BROOKLYN, NY, 11236",59086771,"R"
306561,"8820 AVENUE J APT 3D","BROOKLYN","NY",11236,40.637736472,-73.905426833,61,"8820 AVENUE J APT 3D, BROOKLYN, NY, 11236","Match","Exact","8820 AVE J, BROOKLYN, NY, 11236",59086771,"R"
306562,"8820 BASELINE RD","BATTLE CREEK","MI",49017,42.420966048,-85.1180958799999,62,"8820 BASELINE RD, BATTLE CREEK, MI, 49017","Match","Exact","8820 BASELINE RD, BATTLE CREEK, MI, 49017",10510468,"R"
306563,"8820 E 33 RD","INDIANAPOLIS","IN",46226,39.8166275140001,-86.012406988,63,"8820 E 33 RD, INDIANAPOLIS, IN, 46226","Match","Non_Exact","8820 E 33RD ST, INDIANAPOLIS, IN, 46226",108012252,"L"
306564,"8820 LILLINGTON CIRCLE","MONTGOMERY","AL",36117,32.3299950680001,-86.1461844999999,64,"8820 LILLINGTON CIRCLE, MONTGOMERY, AL, 36117","Match","Exact","8820 LILLINGTON CIR, MONTGOMERY, AL, 36117",641753199,"L"
306565,"8820 MARSH AIRE LANE","EDISTO ISLAND","SC",29438,32.5331490140001,-80.318566037,65,"8820 MARSH AIRE LANE, EDISTO ISLAND, SC, 29438","Match","Exact","8820 MARSH AIRE LN, EDISTO ISLAND, SC, 29438",605707528,"R"
306566,"8820 MEISENHEIMER AVENUE","LAS VEGAS","NV",89143,36.3120808780001,-115.288338205,66,"8820 MEISENHEIMER AVENUE, LAS VEGAS, NV, 89143","Match","Exact","8820 MEISENHEIMER AVE, LAS VEGAS, NV, 89143",201965746,"R"
306567,"8820 N SEVEN MILE RD","NINE MILE FALLS","WA",99026,NA,NA,67,"8820 N SEVEN MILE RD, NINE MILE FALLS, WA, 99026","No_Match",NA,NA,NA,NA
306568,"8820 REEDS CORNERS RD","DANSVILLE","NY",14437,42.5977845580001,-77.6871955129999,68,"8820 REEDS CORNERS RD, DANSVILLE, NY, 14437","Match","Exact","8820 REEDS CORNERS RD, DANSVILLE, NY, 14437",14468808,"L"
306569,"8820 RIXLEW LANE","MANASSAS","VA",20109,NA,NA,69,"8820 RIXLEW LANE, MANASSAS, VA, 20109","No_Match",NA,NA,NA,NA
306570,"8820 W 33RD STREET","INDIANAPOLIS","IN",46226,39.8166275140001,-86.012406988,70,"8820 W 33RD STREET, INDIANAPOLIS, IN, 46226","Match","Non_Exact","8820 E 33RD ST, INDIANAPOLIS, IN, 46226",108012252,"L"
306571,"8820 W BOONE PRAIRIE RD","FRANKLIN","TX",77856,31.152215142,-96.493064174,71,"8820 W BOONE PRAIRIE RD, FRANKLIN, TX, 77856","Match","Exact","8820 W BOONE PRAIRIE RD, FRANKLIN, TX, 77856",24676818,"R"
306572,"8820 W RUSSELL RD STE 155","LAS VEGAS","NV",89148,36.0852159030001,-115.283913795,72,"8820 W RUSSELL RD STE 155, LAS VEGAS, NV, 89148","Match","Non_Exact","8820 W RUSSELL RD, LAS VEGAS, NV, 89148",650341385,"L"
306573,"8820 WAYNELL COURT","NAVARRE","FL",32566,30.4266221830001,-86.8509184979999,73,"8820 WAYNELL COURT, NAVARRE, FL, 32566","Match","Exact","8820 WAYNELL CT, NAVARRE, FL, 32566",74582759,"L"
306574,"8820 WEST ACAPULCO LANE","PEORIA","AZ",85381,33.6236272530001,-112.249097731,74,"8820 WEST ACAPULCO LANE, PEORIA, AZ, 85381","Match","Exact","8820 W ACAPULCO LN, PEORIA, AZ, 85381",128420569,"R"
306575,"8820 WESTHEIMER ROAD APT 1340","HOUSTON","TX",77063,29.7375057180001,-95.5181358249999,75,"8820 WESTHEIMER ROAD APT 1340, HOUSTON, TX, 77063","Match","Exact","8820 WESTHEIMER RD, HOUSTON, TX, 77063",233389731,"L"
306576,"8821 DANIA DRIVE","PALM BEACH GARDENS","FL",33410,26.806588173,-80.102728605,76,"8821 DANIA DRIVE, PALM BEACH GARDENS, FL, 33410","Match","Exact","8821 DANIA DR, PALM BEACH GARDENS, FL, 33410",647649753,"L"
306577,"8821 MANCHESTER RD","BRENTWOOD","MO",63144,38.6125835020001,-90.350136264,77,"8821 MANCHESTER RD, BRENTWOOD, MO, 63144","Match","Exact","8821 MANCHESTER RD, BRENTWOOD, MO, 63144",100135340,"R"
306578,"8821 VALLEY RCH PKWY E 122","IRVING","TX",75063,32.9276619510001,-96.945820532,78,"8821 VALLEY RCH PKWY E 122, IRVING, TX, 75063","Match","Exact","8821 VALLEY RANCH PKWY E, IRVING, TX, 75063",102998496,"L"
306579,"8821 VILLANOVA AVE","LOS ANGELES","CA",90056,NA,NA,79,"8821 VILLANOVA AVE, LOS ANGELES, CA, 90056","No_Match",NA,NA,NA,NA
306580,"8822 237TH ST","BELLEROSE","NY",11426,NA,NA,80,"8822 237TH ST, BELLEROSE, NY, 11426","No_Match",NA,NA,NA,NA
306581,"8822 N 69TH DRIVE","PEORIA","AZ",85345,33.5652067030001,-112.20792875,81,"8822 N 69TH DRIVE, PEORIA, AZ, 85345","Match","Exact","8822 N 69TH DR, PEORIA, AZ, 85345",128879470,"L"
306582,"8822 S UNION AVE","TULSA","OK",74132,36.035789708,-96.011742921,82,"8822 S UNION AVE, TULSA, OK, 74132","Match","Exact","8822 S UNION AVE, TULSA, OK, 74132",166479133,"R"
306583,"8822 SPECTRUM CENTER BLVD","SAN DIEGO","CA",92123,32.826429019,-117.137324748,83,"8822 SPECTRUM CENTER BLVD, SAN DIEGO, CA, 92123","Match","Exact","8822 SPECTRUM CENTER BLVD, SAN DIEGO, CA, 92123",650075433,"L"
306584,"8822 SVL BOX","VICTORVILLE","CA",92395,NA,NA,84,"8822 SVL BOX, VICTORVILLE, CA, 92395","No_Match",NA,NA,NA,NA
306585,"8823 1/2 DORRINGTON AVE","WEST HOLLYWOOD","CA",90048,34.079342636,-118.385124452,85,"8823 1/2 DORRINGTON AVE, WEST HOLLYWOOD, CA, 90048","Match","Non_Exact","8823 W DORRINGTON AVE, W HOLLYWOOD, CA, 90048",141572320,"R"
306586,"8823 ANTRIM DR","DALLAS","TX",75218,32.8266966400001,-96.7126606849999,86,"8823 ANTRIM DR, DALLAS, TX, 75218","Match","Exact","8823 ANTRIM DR, DALLAS, TX, 75218",102922510,"L"
306587,"8823 CALLAGHAN RD","SAN ANTONIO","TX",78230,29.5211283620001,-98.542613924,87,"8823 CALLAGHAN RD, SAN ANTONIO, TX, 78230","Match","Exact","8823 CALLAGHAN RD, SAN ANTONIO, TX, 78230",101698860,"L"
306588,"8823 HOLLY DRIVE H-204","EVERETT","WA",98208,47.9184147880001,-122.229896204,88,"8823 HOLLY DRIVE H-204, EVERETT, WA, 98208","Match","Exact","8823 HOLLY DR, EVERETT, WA, 98208",637756682,"L"
306589,"8823 OWENFIELD DR","POWELL","OH",43065,NA,NA,89,"8823 OWENFIELD DR, POWELL, OH, 43065","No_Match",NA,NA,NA,NA
306590,"8823 SANDIFUR PARKWAY","PASCO","WA",99301,46.2779203040001,-119.190495601,90,"8823 SANDIFUR PARKWAY, PASCO, WA, 99301","Match","Exact","8823 SANDIFUR PKWY, PASCO, WA, 99301",175257861,"R"
306591,"8824 BRUNSWICK FARMS DR","ARLINGTON","TN",38002,35.2542860340001,-89.7689866169999,91,"8824 BRUNSWICK FARMS DR, ARLINGTON, TN, 38002","Match","Exact","8824 BRUNSWICK FARMS DR, ARLINGTON, TN, 38002",641638406,"R"
306592,"8824 BUFFALOE RD","KNIGHTDALE","NC",27545,35.8318592270001,-78.4657904599999,92,"8824 BUFFALOE RD, KNIGHTDALE, NC, 27545","Match","Exact","8824 BUFFALOE RD, KNIGHTDALE, NC, 27545",624544975,"R"
306593,"8824 CHURCH LANE","RANDALLSTOWN","MD",21133,39.3679460640001,-76.788798055,93,"8824 CHURCH LANE, RANDALLSTOWN, MD, 21133","Match","Exact","8824 CHURCH LN, RANDALLSTOWN, MD, 21133",635886971,"R"
306594,"8824 HATTON COURT","CHARLOTTE","NC",28277,35.05592712,-80.827114916,94,"8824 HATTON COURT, CHARLOTTE, NC, 28277","Match","Exact","8824 HATTON CT, CHARLOTTE, NC, 28277",70529094,"R"
306595,"8824 KELSEY DR","ELK GROVE","CA",95624,38.4158352330001,-121.375541387,95,"8824 KELSEY DR, ELK GROVE, CA, 95624","Match","Exact","8824 KELSEY DR, ELK GROVE, CA, 95624",133377600,"L"
306596,"8824 LEATRICE DRIVE","LITTLE ROCK","AR",72227,34.7709935990001,-92.371680167,96,"8824 LEATRICE DRIVE, LITTLE ROCK, AR, 72227","Match","Exact","8824 LEATRICE DR, LITTLE ROCK, AR, 72227",83535253,"R"
306597,"8824 NORTH BROADWAY","SAINT LOUIS","MO",63147,38.7244663220001,-90.2282396159999,97,"8824 NORTH BROADWAY, SAINT LOUIS, MO, 63147","Match","Exact","8824 N BROADWAY, SAINT LOUIS, MO, 63147",107592142,"R"
306598,"8824 RIVERWELL CIR W","HOUSTON","TX",77083,29.6822118970001,-95.6290769129999,98,"8824 RIVERWELL CIR W, HOUSTON, TX, 77083","Match","Exact","8824 RIVERWELL CIR W, HOUSTON, TX, 77083",96295821,"L"
306599,"8825 AERO DRIVE STE 200","SAN DIEGO","CA",92123,32.809738039,-117.138052532,99,"8825 AERO DRIVE STE 200, SAN DIEGO, CA, 92123","Match","Exact","8825 AERO DR, SAN DIEGO, CA, 92123",195680052,"R"
306600,"8825 ASPINWALL DRIVE  107","CHARLOTT","NC",28216,35.335385499,-80.8530461029999,100,"8825 ASPINWALL DRIVE  107, CHARLOTT, NC, 28216","Match","Non_Exact","8825 ASPINWALL DR, CHARLOTTE, NC, 28216",631525029,"L"
306601,"8825 E 93RD ST","TULSA","OK",74133,36.0280596320001,-95.877700476,101,"8825 E 93RD ST, TULSA, OK, 74133","Match","Exact","8825 E 93RD ST, TULSA, OK, 74133",166507839,"R"
306602,"8825 GULF DRIVE  APT A","FORT WAYNE","IN",46825,41.162149449,-85.1111170679999,102,"8825 GULF DRIVE  APT A, FORT WAYNE, IN, 46825","Match","Exact","8825 GULF DR, FORT WAYNE, IN, 46825",6406800,"R"
306603,"8825 N 23 AVENUE STE 100","PHOENIX","AZ",85021,33.5646073290001,-112.108234445,103,"8825 N 23 AVENUE STE 100, PHOENIX, AZ, 85021","Match","Non_Exact","8825 N 23RD AVE, PHOENIX, AZ, 85021",128202715,"R"
306604,"8825 OAKWOOD DR","LAKE WALES","FL",33898,27.84949871,-81.4482915899999,104,"8825 OAKWOOD DR, LAKE WALES, FL, 33898","Match","Exact","8825 OAKWOOD DR, LAKE WALES, FL, 33898",104907027,"L"
306605,"8825 RAMBLEWOOD DRIVE SUITE 1505","CORAL SPRINGS","FL",33071,26.243283138,-80.243599874,105,"8825 RAMBLEWOOD DRIVE SUITE 1505, CORAL SPRINGS, FL, 33071","Match","Exact","8825 RAMBLEWOOD DR, CORAL SPRINGS, FL, 33071",648164800,"L"
306606,"8825 S ASOTIN ST","TACOMA","WA",98444,47.177277636,-122.456693835,106,"8825 S ASOTIN ST, TACOMA, WA, 98444","Match","Exact","8825 ASOTIN ST, TACOMA, WA, 98444",184677349,"R"
306607,"8825 S CALUMET AVE","CHICAGO","IL",60619,41.7338741340001,-87.616063916,107,"8825 S CALUMET AVE, CHICAGO, IL, 60619","Match","Exact","8825 S CALUMET AVE, CHICAGO, IL, 60619",111773034,"L"
306608,"8825 TROPICAL PALM DR","TAMPA","FL",33626,28.0539962030001,-82.58400146,108,"8825 TROPICAL PALM DR, TAMPA, FL, 33626","Match","Non_Exact","8825 TROPICAL PALM DR, TAMPA, FL, 33635",648470195,"R"
306609,"8825 WHITE OAK AVENUE","MUNSTER","IN",46321,41.5536887010001,-87.4904792569999,109,"8825 WHITE OAK AVENUE, MUNSTER, IN, 46321","Match","Exact","8825 WHITE OAK AVE, MUNSTER, IN, 46321",98421276,"L"
306610,"8825 WINTERBROOK ROAD","RANDALLSTOWN","MD",21133,39.3726361540001,-76.7857120629999,110,"8825 WINTERBROOK ROAD, RANDALLSTOWN, MD, 21133","Match","Exact","8825 WINTERBROOK RD, RANDALLSTOWN, MD, 21133",191466279,"L"
306611,"8826 ARRABIDA LN","ORLANDO","FL",32836,28.4376683900001,-81.555265742,111,"8826 ARRABIDA LN, ORLANDO, FL, 32836","Match","Exact","8826 ARRABIDA LN, ORLANDO, FL, 32836",640861022,"R"
306612,"8826 BANDERA ST","LOS ANGELES","CA",90002,33.9564561180001,-118.239635934,112,"8826 BANDERA ST, LOS ANGELES, CA, 90002","Match","Exact","8826 BANDERA ST, LOS ANGELES, CA, 90002",142761373,"L"
306613,"8826 CAVALRY DRIVE","FAIR OAKS RANCH","TX",78015,29.7560792790001,-98.65786875,113,"8826 CAVALRY DRIVE, FAIR OAKS RANCH, TX, 78015","Match","Exact","8826 CAVALRY DR, FAIR OAKS RANCH, TX, 78015",649829393,"L"
306614,"8826 FORSHEY STREET","NEW ORLEANS","LA",70118,29.967349782,-90.119709827,114,"8826 FORSHEY STREET, NEW ORLEANS, LA, 70118","Match","Exact","8826 FORSHEY ST, NEW ORLEANS, LA, 70118",191700630,"L"
306615,"8826 MAY AVENUE","SAINT LOUIS","MO",63136,38.7242611450001,-90.254858196,115,"8826 MAY AVENUE, SAINT LOUIS, MO, 63136","Match","Exact","8826 MAY AVE, SAINT LOUIS, MO, 63136",100149912,"R"
306616,"8826 RAMSBURY WAY","WILMINGTON","NC",28411,34.3037235940001,-77.767574607,116,"8826 RAMSBURY WAY, WILMINGTON, NC, 28411","Match","Exact","8826 RAMSBURY WAY, WILMINGTON, NC, 28411",647226243,"R"
306617,"8826 SE 28TH AVE","MILWAUKIE","OR",97222,45.4592851940001,-122.634650787,117,"8826 SE 28TH AVE, MILWAUKIE, OR, 97222","Match","Exact","8826 SE 28TH AVE, MILWAUKIE, OR, 97222",157912672,"L"
306618,"8826 SO HARPER","CHICAGO","IL",60619,41.7345261830001,-87.58687114,118,"8826 SO HARPER, CHICAGO, IL, 60619","Match","Non_Exact","8826 S HARPER AVE, CHICAGO, IL, 60619",111775348,"R"
306619,"8826 TODD STREET ROAD","SUNBURY","OH",43074,40.348900986,-82.89863143,119,"8826 TODD STREET ROAD, SUNBURY, OH, 43074","Match","Exact","8826 TODD STREET RD, SUNBURY, OH, 43074",24587057,"R"
306620,"8826 VENIKOV PL","ORANGEVALE","CA",95662,38.68081342,-121.229743045,120,"8826 VENIKOV PL, ORANGEVALE, CA, 95662","Match","Exact","8826 VENIKOV PL, ORANGEVALE, CA, 95662",640884494,"L"
306621,"8826 WEST MARKET STREET","COLFAX","NC",27235,36.1044355720001,-79.988148628,121,"8826 WEST MARKET STREET, COLFAX, NC, 27235","Match","Exact","8826 W MARKET ST, COLFAX, NC, 27235",131074781,"L"
306622,"8826 WHISPER GATE","FAIR OAKS RANCH","TX",78015,29.7264994490001,-98.660668777,122,"8826 WHISPER GATE, FAIR OAKS RANCH, TX, 78015","Match","Exact","8826 WHISPER GATE, FAIR OAKS RANCH, TX, 78015",648998558,"L"
306623,"8826","MORTON GROVE","IL",60053,NA,NA,123,"8826, MORTON GROVE, IL, 60053","No_Match",NA,NA,NA,NA
306624,"8827 31ST AVE","SEATTLE","WA",98126,47.5243168440001,-122.372617817,124,"8827 31ST AVE, SEATTLE, WA, 98126","Match","Non_Exact","8827 31ST AVE SW, SEATTLE, WA, 98126",186578225,"R"
306625,"8827 HARGRAVE STREET","PHILADELPHIA","PA",19152,40.0628691700001,-75.030621921,125,"8827 HARGRAVE STREET, PHILADELPHIA, PA, 19152","Match","Exact","8827 HARGRAVE ST, PHILADELPHIA, PA, 19152",131441369,"R"
306626,"8827 HIGHLAND LAKE DR","GEORGETOWN","IN",47122,38.327105584,-85.9686639,126,"8827 HIGHLAND LAKE DR, GEORGETOWN, IN, 47122","Match","Exact","8827 HIGHLAND LAKE DR, GEORGETOWN, IN, 47122",618381180,"R"
306627,"8827 NEWTON DRIVE","OVERLAND PARK","KS",66212,38.968150205,-94.67464423,127,"8827 NEWTON DRIVE, OVERLAND PARK, KS, 66212","Match","Exact","8827 NEWTON DR, OVERLAND PARK, KS, 66212",91297900,"L"
306628,"8827 RUTHELEN STREET","LOS ANGELES","CA",90047,33.957511131,-118.312832419,128,"8827 RUTHELEN STREET, LOS ANGELES, CA, 90047","Match","Exact","8827 RUTHELEN ST, LOS ANGELES, CA, 90047",141658744,"R"
306629,"8828 BURNET AVE STE 4","NORTH HILLS","CA",91343,34.2305067090001,-118.463263825,129,"8828 BURNET AVE STE 4, NORTH HILLS, CA, 91343","Match","Exact","8828 BURNET AVE, NORTH HILLS, CA, 91343",141549092,"R"
306630,"8828 PERSHING DRIVE UNIT 204","PLAYA DEL REY","CA",90293,33.9535695390001,-118.440492865,130,"8828 PERSHING DRIVE UNIT 204, PLAYA DEL REY, CA, 90293","Match","Exact","8828 PERSHING DR, PLAYA DEL REY, CA, 90293",141577658,"L"
306631,"8828 RIVERVIEW","REDFORD","MI",48239,42.357614406,-83.272581444,131,"8828 RIVERVIEW, REDFORD, MI, 48239","Match","Exact","8828 RIVERVIEW, REDFORD, MI, 48239",95715582,"R"
306632,"8828 S MOZART AVE","EVERGREEN PARK","IL",60805,NA,NA,132,"8828 S MOZART AVE, EVERGREEN PARK, IL, 60805","Tie",NA,NA,NA,NA
306633,"8828 ST THOMAS CIRCLE","DALLAS","TX",75228,32.7986531560001,-96.692295459,133,"8828 ST THOMAS CIRCLE, DALLAS, TX, 75228","Match","Exact","8828 ST THOMAS CIR, DALLAS, TX, 75228",102971849,"R"
306634,"8828 SUN HAVEN WAY","FORTH WORTH","TX",76244,32.9006368560001,-97.258820661,134,"8828 SUN HAVEN WAY, FORTH WORTH, TX, 76244","Match","Exact","8828 SUN HAVEN WAY, FORT WORTH, TX, 76244",637607058,"R"
306635,"88289 YOUNGS RIVER RD","ASTORIA","OR",97103,46.070089038,-123.779974711,135,"88289 YOUNGS RIVER RD, ASTORIA, OR, 97103","Match","Exact","88289 YOUNGS RIVER RD, ASTORIA, OR, 97103",159226721,"L"
306636,"8829 CYPRESS CREEK RD","LANATA","TX",76226,33.089176745,-97.1246805819999,136,"8829 CYPRESS CREEK RD, LANATA, TX, 76226","Match","Non_Exact","8829 CYPRESS CREEK RD, LANTANA, TX, 76226",639639548,"L"
306637,"8829 GLENARDEN PARKWAY","LANHAM","MD",20706,38.9304184900001,-76.856677627,137,"8829 GLENARDEN PARKWAY, LANHAM, MD, 20706","Match","Exact","8829 GLENARDEN PKWY, LANHAM, MD, 20706",76310098,"R"
306638,"8829 JUDWIN STREET","HOUSTON","TX",77079,29.6365416360001,-95.259303932,138,"8829 JUDWIN STREET, HOUSTON, TX, 77079","Match","Non_Exact","8829 JUDWIN ST, HOUSTON, TX, 77075",96094621,"L"
306639,"8829 LEM TURNER RD","JACKSONVILLE","FL",32208,30.401992552,-81.684208816,139,"8829 LEM TURNER RD, JACKSONVILLE, FL, 32208","Match","Exact","8829 LEM TURNER RD, JACKSONVILLE, FL, 32208",83960943,"R"
306640,"8829 NORTH MARCUS STREET","WRIGHTSVILLE","GA",31096,32.7345268080001,-82.719685828,140,"8829 NORTH MARCUS STREET, WRIGHTSVILLE, GA, 31096","Match","Exact","8829 N MARCUS ST, WRIGHTSVILLE, GA, 31096",100827743,"L"
306641,"8829 TINNEY ROAD SE","DENNISON","OH",44621,40.421653033,-81.291022798,141,"8829 TINNEY ROAD SE, DENNISON, OH, 44621","Match","Exact","8829 TINNEY RD SE, DENNISON, OH, 44621",44228150,"R"
306642,"88299 HUSTON RD","VENETA","OR",97487,44.0556561120001,-123.330245259,142,"88299 HUSTON RD, VENETA, OR, 97487","Match","Exact","88299 HUSTON RD, VENETA, OR, 97487",624550143,"R"
306643,"883 ASPEN DRIVE","LITHIA SPRINGS","GA",30122,33.780171926,-84.632853129,143,"883 ASPEN DRIVE, LITHIA SPRINGS, GA, 30122","Match","Exact","883 ASPEN DR, LITHIA SPGS, GA, 30122",16654964,"R"
306644,"883 BEATRICE PKWY","EDISON","NJ",8820,40.5920557110001,-74.344049055,144,"883 BEATRICE PKWY, EDISON, NJ, 8820","Match","Exact","883 BEATRICE PKWY, EDISON, NJ, 08820",636499508,"L"
306645,"883 BROADWAY AVE","LOWELL","MA",1854,42.6413657860001,-71.335440679,145,"883 BROADWAY AVE, LOWELL, MA, 1854","Match","Non_Exact","883 BROADWAY ST, LOWELL, MA, 01854",87117520,"R"
306646,"883 CAPTAIN SHREVE DR","SHREVEPORT","LA",71105,32.4757293700001,-93.7114374669999,146,"883 CAPTAIN SHREVE DR, SHREVEPORT, LA, 71105","Match","Exact","883 CAPTAIN SHREVE DR, SHREVEPORT, LA, 71105",57438826,"R"
306647,"883 COUNTY ROAD 2125N","CHAMPAIGN","IL",61822,NA,NA,147,"883 COUNTY ROAD 2125N, CHAMPAIGN, IL, 61822","No_Match",NA,NA,NA,NA
306648,"883 DAW PATE ROAD","PIKEVILLE","NC",27863,35.45750973,-77.934697888,148,"883 DAW PATE ROAD, PIKEVILLE, NC, 27863","Match","Exact","883 DAW PATE RD, PIKEVILLE, NC, 27863",605719031,"L"
306649,"883 EAST MADISON ROAD","MADISON","ME",4950,44.8404672450001,-69.7530036909999,149,"883 EAST MADISON ROAD, MADISON, ME, 4950","Match","Exact","883 E MADISON RD, MADISON, ME, 04950",625494888,"R"
306650,"883 FULLER AVE","SAINT PAUL","MN",55104,44.9539421370001,-93.1374830669999,150,"883 FULLER AVE, SAINT PAUL, MN, 55104","Match","Exact","883 FULLER AVE, SAINT PAUL, MN, 55104",97642504,"R"
306651,"883 HUNTINGTON DRIVE","HIGHLANDS RANCH","CO",80126,39.5347989850001,-104.978909,151,"883 HUNTINGTON DRIVE, HIGHLANDS RANCH, CO, 80126","Match","Non_Exact","883 E HUNTINGTON DR, HIGHLANDS RANCH, CO, 80126",130817292,"L"
306652,"883 MYSTIC WOODS DRIVE","HOWELL","MI",48843,42.6123916510001,-83.7655309419999,152,"883 MYSTIC WOODS DRIVE, HOWELL, MI, 48843","Match","Exact","883 MYSTIC WOODS DR, HOWELL, MI, 48843",614119780,"R"
306653,"883 N 350 E","PRINCETON","IN",47670,NA,NA,153,"883 N 350 E, PRINCETON, IN, 47670","No_Match",NA,NA,NA,NA
306654,"883 ST CHARLES DR APT17","THOUSAND OAKS","CA",91360,34.1894813430001,-118.880654539,154,"883 ST CHARLES DR APT17, THOUSAND OAKS, CA, 91360","Match","Exact","883 SAINT CHARLES DR, THOUSAND OAKS, CA, 91360",110091978,"L"
306655,"883 WAGMYR LANE","LOGANTON","PA",17747,41.0587706860001,-77.189355882,155,"883 WAGMYR LANE, LOGANTON, PA, 17747","Match","Exact","883 WAGMYR LN, LOGANTON, PA, 17747",637453000,"L"
306656,"883 WESTPOINTE CIRCLE","SALT LAKE CITY","UT",84116,40.7889100260001,-111.940148636,156,"883 WESTPOINTE CIRCLE, SALT LAKE CITY, UT, 84116","Match","Exact","883 WESTPOINTE CIR, SALT LAKE CITY, UT, 84116",176101536,"R"
306657,"8830 1ST AVE NE","SEATTLE","WA",98115,47.6927644680001,-122.328396988,157,"8830 1ST AVE NE, SEATTLE, WA, 98115","Match","Exact","8830 1ST AVE NE, SEATTLE, WA, 98115",239761570,"R"
306658,"8830 ARCH ROCK DR","CYPRESS","TX",77433,29.906732575,-95.709599464,158,"8830 ARCH ROCK DR, CYPRESS, TX, 77433","Match","Exact","8830 ARCH ROCK DR, CYPRESS, TX, 77433",652137210,"L"
306659,"8830 ASHGROVE HOUSE LANE 102","VIENNA","VA",22182,38.9319639450001,-77.2494610219999,159,"8830 ASHGROVE HOUSE LANE 102, VIENNA, VA, 22182","Match","Exact","8830 ASHGROVE HOUSE LN, VIENNA, VA, 22182",76043245,"R"
306660,"8830 BLUE GRASS","STOCKTON","CA",95210,38.030863944,-121.307400152,160,"8830 BLUE GRASS, STOCKTON, CA, 95210","Match","Non_Exact","8830 BLUE GRASS DR, STOCKTON, CA, 95210",133878352,"R"
306661,"8830 E 29TH AVE","DENVER","CO",80238,39.757754882,-104.885228147,161,"8830 E 29TH AVE, DENVER, CO, 80238","Match","Exact","8830 E 29TH AVE, DENVER, CO, 80238",606067598,"R"
306662,"8830 EAST 35TH STREET","INDIANAPOLIS","IN",46226,39.8204926170001,-86.012714586,162,"8830 EAST 35TH STREET, INDIANAPOLIS, IN, 46226","Match","Exact","8830 E 35TH ST, INDIANAPOLIS, IN, 46226",108012246,"L"
306663,"8830 FLICKER RD","TALLAHASSEE","FL",32305,30.313384335,-84.289735779,163,"8830 FLICKER RD, TALLAHASSEE, FL, 32305","Match","Exact","8830 FLICKER RD, TALLAHASSEE, FL, 32305",82867752,"L"
306664,"8830 GREENWOOD AVE","SAN GABRIEL","CA",91775,34.123827911,-118.076526883,164,"8830 GREENWOOD AVE, SAN GABRIEL, CA, 91775","Match","Non_Exact","8830 E GREENWOOD AVE, SAN GABRIEL, CA, 91775",141634864,"R"
306665,"8830 LEA BROOK ST","FAIRHOPE","AL",36532,30.5153462540001,-87.8721362429999,165,"8830 LEA BROOK ST, FAIRHOPE, AL, 36532","Match","Exact","8830 LEA BROOK ST, FAIRHOPE, AL, 36532",131668471,"R"
306666,"8830 MAPLEBROOK LANE","MINT HILL","NC",28227,35.189030351,-80.638455596,166,"8830 MAPLEBROOK LANE, MINT HILL, NC, 28227","Match","Exact","8830 MAPLEBROOK LN, MINT HILL, NC, 28227",70532939,"R"
306667,"8830 S BISHOP","CHICAGO","IL",60620,41.7334392830001,-87.659354206,167,"8830 S BISHOP, CHICAGO, IL, 60620","Match","Non_Exact","8830 S BISHOP ST, CHICAGO, IL, 60620",111821579,"R"
306668,"8830 S GENTIO RD","JETERSVILLE","VA",23083,37.335658718,-78.1602654329999,168,"8830 S GENTIO RD, JETERSVILLE, VA, 23083","Match","Non_Exact","8830 S GENITO RD, JETERSVILLE, VA, 23083",73725038,"L"
306669,"8830 SW 68 COURT UNIT D4","MIAMI","FL",33156,NA,NA,169,"8830 SW 68 COURT UNIT D4, MIAMI, FL, 33156","No_Match",NA,NA,NA,NA
306670,"8831 ALBATROSS DR","HUNTINGTON BEACH","CA",92646,33.6790360580001,-117.973795979,170,"8831 ALBATROSS DR, HUNTINGTON BEACH, CA, 92646","Match","Exact","8831 ALBATROSS DR, HUNTINGTON BEACH, CA, 92646",144020628,"L"
306671,"8831 BARNETT VALLEY ROAD","SEBASTOPOL","CA",95472,38.367859384,-122.846591223,171,"8831 BARNETT VALLEY ROAD, SEBASTOPOL, CA, 95472","Match","Exact","8831 BARNETT VALLEY RD, SEBASTOPOL, CA, 95472",67465584,"R"
306672,"8831 E 77TH PL","TULSA","OK",74133,36.0520220610001,-95.876674155,172,"8831 E 77TH PL, TULSA, OK, 74133","Match","Exact","8831 E 77TH PL, TULSA, OK, 74133",166499482,"R"
306673,"8831 N 17TH LANE","PHOENIX","AZ",85021,33.565066087,-112.096776971,173,"8831 N 17TH LANE, PHOENIX, AZ, 85021","Match","Exact","8831 N 17TH LN, PHOENIX, AZ, 85021",128203407,"R"
306674,"8831 OTTER COVE CIRCLE","INDIANAPOLIS","IN",46236,39.9164583400001,-85.9669187119999,174,"8831 OTTER COVE CIRCLE, INDIANAPOLIS, IN, 46236","Match","Exact","8831 OTTER COVE CIR, INDIANAPOLIS, IN, 46236",108031775,"R"
306675,"8831 S GRAMERCY PL","LOS ANGELES","CA",90047,33.9574446670001,-118.313920591,175,"8831 S GRAMERCY PL, LOS ANGELES, CA, 90047","Match","Exact","8831 S GRAMERCY PL, LOS ANGELES, CA, 90047",141658737,"R"
306676,"8831 SHADOWLAKE WAY","SPRINGFIELD","VA",22153,38.7500800460001,-77.249264279,176,"8831 SHADOWLAKE WAY, SPRINGFIELD, VA, 22153","Match","Exact","8831 SHADOWLAKE WAY, SPRINGFIELD, VA, 22153",642593641,"R"
306677,"8831 SW 17TH AVENUE","STUART","FL",34997,27.0979310270001,-80.277163634,177,"8831 SW 17TH AVENUE, STUART, FL, 34997","Match","Exact","8831 SW 17TH AVE, STUART, FL, 34997",120435923,"R"
306678,"8831 VINEYARD HAVEN DRIVE","DUBLIN","OH",43016,40.1429540450001,-83.1729288889999,178,"8831 VINEYARD HAVEN DRIVE, DUBLIN, OH, 43016","Match","Exact","8831 VINEYARD HAVEN DR, DUBLIN, OH, 43016",628860565,"R"
306679,"8831 WEST HARBOR LANE","HOMOSASSA","FL",34448,28.827618081,-82.580809996,179,"8831 WEST HARBOR LANE, HOMOSASSA, FL, 34448","Match","Exact","8831 W HARBOR LN, HOMOSASSA, FL, 34448",86233366,"R"
306680,"8832 BRENNAN CIRCLE APT 208","TAMPA","FL",33615,28.008178877,-82.584887458,180,"8832 BRENNAN CIRCLE APT 208, TAMPA, FL, 33615","Match","Exact","8832 BRENNAN CIR, TAMPA, FL, 33615",104579165,"L"
306681,"8832 NORTH BROOK CIRCLE NORTH","BROOKLYN PARK","MN",55428,45.0664621670001,-93.393860757,181,"8832 NORTH BROOK CIRCLE NORTH, BROOKLYN PARK, MN, 55428","Match","Exact","8832 N BROOK CIR N, BROOKLYN PARK, MN, 55428",43816714,"L"
306682,"8832 S BLACKSTONE","CHICAGO","IL",60619,41.7344045990001,-87.588082819,182,"8832 S BLACKSTONE, CHICAGO, IL, 60619","Match","Non_Exact","8832 S BLACKSTONE AVE, CHICAGO, IL, 60619",111775332,"R"
306683,"8832 SW 72ND ST APT M276","MIAMI","FL",33173,25.7021918090001,-80.337000254,183,"8832 SW 72ND ST APT M276, MIAMI, FL, 33173","Match","Non_Exact","8832 SW 72ND ST, MIAMI, FL, 33173",115980782,"R"
306684,"8832 THREE CHIMNEYS DRIVE EAST","GERMANTOWN","TN",38138,35.0574430990001,-89.768318629,184,"8832 THREE CHIMNEYS DRIVE EAST, GERMANTOWN, TN, 38138","Match","Exact","8832 THREE CHIMNEYS DR E, GERMANTOWN, TN, 38138",614335273,"L"
306685,"8833 ACADEMY DRIVE","BUENA PARK","CA",90620,33.860942928,-117.980215964,185,"8833 ACADEMY DRIVE, BUENA PARK, CA, 90620","Match","Non_Exact","8833 ACADEMY DR, BUENA PARK, CA, 90621",144010375,"L"
306686,"8833 EATONWICK DRIVE","CORDOVA","TN",38016,35.1957163320001,-89.76834633,186,"8833 EATONWICK DRIVE, CORDOVA, TN, 38016","Match","Exact","8833 EATONWICK DR, CORDOVA, TN, 38016",72931252,"R"
306687,"8833 FRONTBEACH RD","PANAMA CITY BEACH","FL",32407,30.1823722730001,-85.785358077,187,"8833 FRONTBEACH RD, PANAMA CITY BEACH, FL, 32407","Match","Non_Exact","8833 FRONT BEACH RD, PANAMA CITY BEACH, FL, 32407",7020871,"R"
306688,"8833 LAKE ROAD","UNION CITY","GA",30291,33.6020125580001,-84.566386043,188,"8833 LAKE ROAD, UNION CITY, GA, 30291","Match","Exact","8833 LAKE RD, UNION CITY, GA, 30291",17405473,"L"
306689,"8833 MAPLE RIDGE TRAIL","FORT WORTH","TX",76244,32.9003519510001,-97.265342216,189,"8833 MAPLE RIDGE TRAIL, FORT WORTH, TX, 76244","Match","Exact","8833 MAPLE RIDGE TRL, FORT WORTH, TX, 76244",641724290,"R"
306690,"8833 S 2700 W PO BOX 998","WEST JORDAN","UT",84084,NA,NA,190,"8833 S 2700 W PO BOX 998, WEST JORDAN, UT, 84084","No_Match",NA,NA,NA,NA
306691,"8834 250TH AVE NE","REDMOND","WA",98053,47.6795838450001,-122.00561018,191,"8834 250TH AVE NE, REDMOND, WA, 98053","Match","Exact","8834 250TH AVE NE, REDMOND, WA, 98053",627452708,"R"
306692,"8834 DENKER CIRCLE","WICHITA","KS",67210,37.643917394,-97.233984492,192,"8834 DENKER CIRCLE, WICHITA, KS, 67210","Match","Non_Exact","8834 E DENKER CIR, WICHITA, KS, 67210",115682413,"R"
306693,"8834 E 34 RD 13 SMB 12139","CADILLAC","MI",49601,NA,NA,193,"8834 E 34 RD 13 SMB 12139, CADILLAC, MI, 49601","No_Match",NA,NA,NA,NA
306694,"8834 GALBRAITH RD","CHEBOYGAN","MI",49721,45.587465078,-84.454172765,194,"8834 GALBRAITH RD, CHEBOYGAN, MI, 49721","Match","Exact","8834 GALBRAITH RD, CHEBOYGAN, MI, 49721",134527324,"R"
306695,"8834 GORGOZA DRIVE","PARK CITY","UT",84098,40.760348192,-111.593860082,195,"8834 GORGOZA DRIVE, PARK CITY, UT, 84098","Match","Exact","8834 GORGOZA DR, PARK CITY, UT, 84098",607600845,"R"
306696,"8834 RESEDA BLVD  PMB 4448","NORTHRIDGE","CA",91324,34.231173244,-118.536074465,196,"8834 RESEDA BLVD  PMB 4448, NORTHRIDGE, CA, 91324","Match","Exact","8834 RESEDA BLVD, NORTHRIDGE, CA, 91324",141541194,"R"
306697,"8834 RESEDA BLVD SUITE 2080","NORTHRIDGE","CA",91324,34.231173244,-118.536074465,197,"8834 RESEDA BLVD SUITE 2080, NORTHRIDGE, CA, 91324","Match","Exact","8834 RESEDA BLVD, NORTHRIDGE, CA, 91324",141541194,"R"
306698,"8835 164TH ST APT6AS","JAMAICA","NY",11432,NA,NA,198,"8835 164TH ST APT6AS, JAMAICA, NY, 11432","No_Match",NA,NA,NA,NA
306699,"8835 BROOK DRIVE","WALDORF","MD",20603,38.624596614,-77.005816995,199,"8835 BROOK DRIVE, WALDORF, MD, 20603","Match","Exact","8835 BROOK DR, WALDORF, MD, 20603",25377068,"R"
306700,"8835 CLEARWATER DR","DALLAS","TX",75243,32.898190185,-96.7562919439999,200,"8835 CLEARWATER DR, DALLAS, TX, 75243","Match","Exact","8835 CLEARWATER DR, DALLAS, TX, 75243",102914341,"L"
306701,"8835 COOLEY RD","RAVENNA","OH",44266,41.2313588420001,-81.201566413,201,"8835 COOLEY RD, RAVENNA, OH, 44266","Match","Exact","8835 COOLEY RD, RAVENNA, OH, 44266",137543610,"L"
306702,"8835 CRESSON DRIVE","DENHAM SPRINGS","LA",70726,30.410369471,-90.947073727,202,"8835 CRESSON DRIVE, DENHAM SPRINGS, LA, 70726","Match","Exact","8835 CRESSON DR, DENHAM SPRINGS, LA, 70726",651067818,"R"
306703,"8835 NE 4TH AVENUE ROAD","MIAMI SHORES","FL",33138,25.8566116380001,-80.187187433,203,"8835 NE 4TH AVENUE ROAD, MIAMI SHORES, FL, 33138","Match","Exact","8835 NE 4TH AVENUE RD, MIAMI SHORES, FL, 33138",116003675,"R"
306704,"8835 ORCHID VALLEY WAY","CYPRESS","TX",77433,29.9057225220001,-95.711976534,204,"8835 ORCHID VALLEY WAY, CYPRESS, TX, 77433","Match","Exact","8835 ORCHID VALLEY WAY, CYPRESS, TX, 77433",652823989,"L"
306705,"8835 RAMBLEWOOD DRIVE APT1610","CORAL SPRINGS","FL",33071,26.243285271,-80.243734237,205,"8835 RAMBLEWOOD DRIVE APT1610, CORAL SPRINGS, FL, 33071","Match","Exact","8835 RAMBLEWOOD DR, CORAL SPRINGS, FL, 33071",648164800,"L"
306706,"8835 RIFLE ROAD","LINCOLN","NE",68516,NA,NA,206,"8835 RIFLE ROAD, LINCOLN, NE, 68516","No_Match",NA,NA,NA,NA
306707,"8835 S HERMITAGE AVENUE","CHICAGO","IL",60620,41.733396111,-87.666630884,207,"8835 S HERMITAGE AVENUE, CHICAGO, IL, 60620","Match","Exact","8835 S HERMITAGE AVE, CHICAGO, IL, 60620",604995096,"L"
306708,"8835 SW 107 AVE NO 329","MIAMI","FL",33176,NA,NA,208,"8835 SW 107 AVE NO 329, MIAMI, FL, 33176","No_Match",NA,NA,NA,NA
306709,"8835 SW 107TH AVENUE  UNIT 294","MIAMI","FL",33176,25.686233406,-80.365854155,209,"8835 SW 107TH AVENUE  UNIT 294, MIAMI, FL, 33176","Match","Non_Exact","8835 SW 107TH AVE, MIAMI, FL, 33176",642891701,"L"
306710,"8835 SW CANYON LANE STE 402","PORTLAND","OR",97225,NA,NA,210,"8835 SW CANYON LANE STE 402, PORTLAND, OR, 97225","No_Match",NA,NA,NA,NA
306711,"8835 SW107TH AVE STE 347","MIAMI","FL",33143,NA,NA,211,"8835 SW107TH AVE STE 347, MIAMI, FL, 33143","No_Match",NA,NA,NA,NA
306712,"8835 SWASEY DR","REDDING","CA",96001,40.5460269120001,-122.474096259,212,"8835 SWASEY DR, REDDING, CA, 96001","Match","Exact","8835 SWASEY DR, REDDING, CA, 96001",126682597,"R"
306713,"8836 CHAPS AVENUE","FORT WORTH","TX",76244,32.8995707650001,-97.278440882,213,"8836 CHAPS AVENUE, FORT WORTH, TX, 76244","Match","Exact","8836 CHAPS AVE, FORT WORTH, TX, 76244",102117720,"L"
306714,"8836 COUNTY ROAD 128","CELINA","TX",75009,33.3479735870001,-96.730471197,214,"8836 COUNTY ROAD 128, CELINA, TX, 75009","Match","Exact","8836 CO RD 128, CELINA, TX, 75009",652757301,"R"
306715,"8836 PECAN TREE DR","BATON ROUGE","LA",70810,30.352035764,-91.1186449309999,215,"8836 PECAN TREE DR, BATON ROUGE, LA, 70810","Match","Exact","8836 PECAN TREE DR, BATON ROUGE, LA, 70810",92193102,"L"
306716,"8836 S DANTE AVE APT 3","CHICAGO","IL",60619,41.7343246620001,-87.589296722,216,"8836 S DANTE AVE APT 3, CHICAGO, IL, 60619","Match","Non_Exact","8836 S DANTE AVE, CHICAGO, IL, 60619",111775328,"R"
306717,"8836 WEST GAGE BLVD SUITE 204A","KENNEWICK","WA",99336,46.2271872790001,-119.239863295,217,"8836 WEST GAGE BLVD SUITE 204A, KENNEWICK, WA, 99336","Match","Exact","8836 W GAGE BLVD, KENNEWICK, WA, 99336",175008456,"R"
306718,"8836 WORTHINGTON CIRCLE","INDIANAPOLIS","IN",46278,39.914814333,-86.277703792,218,"8836 WORTHINGTON CIRCLE, INDIANAPOLIS, IN, 46278","Match","Exact","8836 WORTHINGTON CIR, INDIANAPOLIS, IN, 46278",108042364,"L"
306719,"8837 4TH STREET","STUART","OK",74570,34.898316773,-96.0938718739999,219,"8837 4TH STREET, STUART, OK, 74570","Match","Exact","8837 4TH ST, STUART, OK, 74570",107348304,"R"
306720,"8837 CHINABERRY CIRCLE","MACEDONIA","OH",44056,41.2933611780001,-81.481566447,220,"8837 CHINABERRY CIRCLE, MACEDONIA, OH, 44056","Match","Exact","8837 CHINABERRY CIR, MACEDONIA, OH, 44056",61400902,"L"
306721,"8837 DUNLAP ST","HOUSTON","TX",77074,29.6824228680001,-95.493503548,221,"8837 DUNLAP ST, HOUSTON, TX, 77074","Match","Exact","8837 DUNLAP ST, HOUSTON, TX, 77074",96353093,"L"
306722,"8837 LATREC AVENUE NO 302","ORLANDO","FL",32819,28.4375661810001,-81.478945169,222,"8837 LATREC AVENUE NO 302, ORLANDO, FL, 32819","Match","Non_Exact","8837 LATREC AVE, ORLANDO, FL, 32819",640899992,"R"
306723,"8837 ORMAND WAY","WAKE FOREST","NC",27587,36.0476355600001,-78.621203198,223,"8837 ORMAND WAY, WAKE FOREST, NC, 27587","Match","Exact","8837 ORMAND WAY, WAKE FOREST, NC, 27587",634097167,"L"
306724,"8838 FARM RIDGE LN","HUMBLE","TX",77338,30.0120164840001,-95.289720428,224,"8838 FARM RIDGE LN, HUMBLE, TX, 77338","Match","Exact","8838 FARM RIDGE LN, HUMBLE, TX, 77338",624812472,"R"
306725,"8838 PHOENIX AVE","FAIR OAKS","CA",95628,38.6603189530001,-121.228454829,225,"8838 PHOENIX AVE, FAIR OAKS, CA, 95628","Match","Exact","8838 PHOENIX AVE, FAIR OAKS, CA, 95628",133403083,"R"
306726,"8838 S 2ND AVE","PHOENIX","AZ",85041,33.366072978,-112.075570628,226,"8838 S 2ND AVE, PHOENIX, AZ, 85041","Match","Non_Exact","8838 S 2ND AVE, PHOENIX, AZ, 85041",128217673,"R"
306727,"8838 SOUTH SECOND AVE","PHOENIX","AZ",85041,33.366085035,-112.075570682,227,"8838 SOUTH SECOND AVE, PHOENIX, AZ, 85041","Match","Exact","8838 S 2ND AVE, PHOENIX, AZ, 85041",128217673,"R"
306728,"8839 28TH AVE SW","SEATTLE","WA",98126,47.5242376480001,-122.368667207,228,"8839 28TH AVE SW, SEATTLE, WA, 98126","Match","Exact","8839 28TH AVE SW, SEATTLE, WA, 98126",186591190,"R"
306729,"8839 E MCCLELLAN ST","TUCSON","AZ",85710,32.2176721060001,-110.804405825,229,"8839 E MCCLELLAN ST, TUCSON, AZ, 85710","Match","Exact","8839 E MCCLELLAN ST, TUCSON, AZ, 85710",606830151,"L"
306730,"8839 N CEDAR APT 314","FRESNO","CA",93720,NA,NA,230,"8839 N CEDAR APT 314, FRESNO, CA, 93720","No_Match",NA,NA,NA,NA
306731,"88395 TIMBERLINE DRIVE","VENETA","OR",97487,44.0583115210001,-123.313271791,231,"88395 TIMBERLINE DRIVE, VENETA, OR, 97487","Match","Exact","88395 TIMBERLINE DR, VENETA, OR, 97487",178189115,"R"
306732,"884 3RD ST D","SANTA ROSA","CA",95403,38.441794874,-122.708676326,232,"884 3RD ST D, SANTA ROSA, CA, 95403","Match","Non_Exact","884 3RD ST, SANTA ROSA, CA, 95404",67470040,"R"
306733,"884 ALVARADO STREET","SAN FRANCISCO","CA",94114,37.753338195,-122.440421327,233,"884 ALVARADO STREET, SAN FRANCISCO, CA, 94114","Match","Exact","884 ALVARADO ST, SAN FRANCISCO, CA, 94114",192284506,"R"
306734,"884 BLEECKER ST","UTICA","NY",13501,43.096507425,-75.2119550309999,234,"884 BLEECKER ST, UTICA, NY, 13501","Match","Exact","884 BLEECKER ST, UTICA, NY, 13501",640432214,"R"
306735,"884 CASTLETON AVENUE","STATEN ISLAND","NY",10310,40.6347401300001,-74.1116379969999,235,"884 CASTLETON AVENUE, STATEN ISLAND, NY, 10310","Match","Exact","884 CASTLETON AVE, STATEN ISLAND, NY, 10310",59878112,"L"
306736,"884 CHESTERFIELD ROAD","ANNAPOLIS","MD",21401,38.997177322,-76.5940391999999,236,"884 CHESTERFIELD ROAD, ANNAPOLIS, MD, 21401","Match","Exact","884 CHESTERFIELD RD, ANNAPOLIS, MD, 21401",68211138,"R"
306737,"884 CLONMEL DR","MATTHEWS","NC",28104,35.1306818620001,-80.6459014329999,237,"884 CLONMEL DR, MATTHEWS, NC, 28104","Match","Exact","884 CLONMEL DR, MATTHEWS, NC, 28104",14199072,"R"
306738,"884 MAIDEN LANE","ROCHESTER","NY",14615,43.223729431,-77.666227723,238,"884 MAIDEN LANE, ROCHESTER, NY, 14615","Match","Exact","884 MAIDEN LN, ROCHESTER, NY, 14615",14526887,"R"
306739,"884 MCDONALD AVE","BROOKLYN","NY",11218,40.6324026880001,-73.977480917,239,"884 MCDONALD AVE, BROOKLYN, NY, 11218","Match","Exact","884 MCDONALD AVE, BROOKLYN, NY, 11218",59080738,"R"
306740,"884 MEADOW LANE","FRANKLIN LAKES","NJ",7417,41.0096477650001,-74.2307603679999,240,"884 MEADOW LANE, FRANKLIN LAKES, NJ, 7417","Match","Exact","884 MEADOW LN, FRANKLIN LAKES, NJ, 07417",64400945,"L"
306741,"884 MURPHY AVE SW","ATLANTA","GA",30310,33.731070684,-84.413925658,241,"884 MURPHY AVE SW, ATLANTA, GA, 30310","Match","Exact","884 MURPHY AVE SW, ATLANTA, GA, 30310",653484896,"L"
306742,"884 N 1040 W","MAPLETON","UT",84664,40.1384612910001,-111.591306156,242,"884 N 1040 W, MAPLETON, UT, 84664","Match","Exact","884 N 1040 W, MAPLETON, UT, 84664",134238171,"R"
306743,"884 NEWFIELD AVENUE","STAMFORD","CT",6905,41.0898057100001,-73.533935844,243,"884 NEWFIELD AVENUE, STAMFORD, CT, 6905","Match","Exact","884 NEWFIELD AVE, STAMFORD, CT, 06905",3275489,"L"
306744,"884 NW 135TH CT","MIAMI","FL",33182,25.777587479,-80.414066626,244,"884 NW 135TH CT, MIAMI, FL, 33182","Match","Exact","884 NW 135TH CT, MIAMI, FL, 33182",116284750,"R"
306745,"884 NW TEXAS AVENUE","LAKE CITY","FL",32055,30.200738523,-82.638855194,245,"884 NW TEXAS AVENUE, LAKE CITY, FL, 32055","Match","Non_Exact","884 TEXAS ST, LAKE CITY, FL, 32055",653057338,"R"
306746,"884 SOUTH 3RD STREET","INDIANA","PA",15701,40.612893953,-79.143201426,246,"884 SOUTH 3RD STREET, INDIANA, PA, 15701","Match","Exact","884 S 3RD ST, INDIANA, PA, 15701",66307609,"L"
306747,"884 WASHINGTON STREET","WEYMOUTH","MA",2189,42.200306879,-70.940938379,247,"884 WASHINGTON STREET, WEYMOUTH, MA, 2189","Match","Exact","884 WASHINGTON ST, WEYMOUTH, MA, 02189",87253223,"L"
306748,"884 WEST END AVENUE - NO 103","NEW YORK","NY",10025,40.799816369,-73.969870654,248,"884 WEST END AVENUE - NO 103, NEW YORK, NY, 10025","Match","Exact","884 W END AVE, NEW YORK, NY, 10025",59656788,"R"
306749,"8840 APPLEBY LANE","INDIANAPOLIS","IN",46256,39.9214119320001,-86.013259013,249,"8840 APPLEBY LANE, INDIANAPOLIS, IN, 46256","Match","Exact","8840 APPLEBY LN, INDIANAPOLIS, IN, 46256",108017742,"L"
306750,"8840 CALICO WAY","STAGECOACH","NV",89429,39.3644069580001,-119.376241487,250,"8840 CALICO WAY, STAGECOACH, NV, 89429","Match","Non_Exact","8840 CALICO RD, STAGECOACH, NV, 89429",605198540,"R"
306751,"8840 E SUNLAND AVE  LOT 154","MESA","AZ",85208,33.3969914,-111.641158308,251,"8840 E SUNLAND AVE  LOT 154, MESA, AZ, 85208","Match","Non_Exact","8840 E SUNLAND AVE, MESA, AZ, 85208",642050346,"L"
306752,"8840 GRAY ROAD","BARODA","MI",49101,41.958598475,-86.465526181,252,"8840 GRAY ROAD, BARODA, MI, 49101","Match","Exact","8840 GRAY RD, BARODA, MI, 49101",647541626,"L"
306753,"8840 LIMNOL STREET","RENO","NV",89506,39.6348649770001,-119.840502882,253,"8840 LIMNOL STREET, RENO, NV, 89506","Match","Exact","8840 LIMNOL ST, RENO, NV, 89506",107040598,"R"
306754,"8840 LOCKRIDGE RD","FOLEY","AL",36535,30.3531568820001,-87.755744563,254,"8840 LOCKRIDGE RD, FOLEY, AL, 36535","Match","Exact","8840 LOCKRIDGE RD, FOLEY, AL, 36535",618722579,"R"
306755,"8840 M 72 EAST","WILLIAMSBURG","MI",49690,44.77091102,-85.396336343,255,"8840 M 72 EAST, WILLIAMSBURG, MI, 49690","Match","Non_Exact","8840 STATE HWY 72 E, WILLIAMSBURG, MI, 49690",145516524,"L"
306756,"8840 MARLOWE","DETROIT","MI",48228,42.358776586,-83.1883403689999,256,"8840 MARLOWE, DETROIT, MI, 48228","Match","Non_Exact","8840 MARLOWE ST, DETROIT, MI, 48228",95442004,"R"
306757,"8840 NIAGARA DR","FONTANA","CA",92335,34.093749519,-117.458885922,257,"8840 NIAGARA DR, FONTANA, CA, 92335","Match","Exact","8840 NIAGARA DR, FONTANA, CA, 92335",614821691,"R"
306758,"8840 RIXLEW LN","MANASSAS","VA",20109,NA,NA,258,"8840 RIXLEW LN, MANASSAS, VA, 20109","No_Match",NA,NA,NA,NA
306759,"8840 ROLLIN SUNSET DRIVE","WINONA","MN",55987,44.027723613,-91.757664803,259,"8840 ROLLIN SUNSET DRIVE, WINONA, MN, 55987","Match","Exact","8840 ROLLIN SUNSET DR, WINONA, MN, 55987",633783680,"R"
306760,"8840 SW 204 STREET","CUTLER BAY","FL",33189,25.577717335,-80.334604314,260,"8840 SW 204 STREET, CUTLER BAY, FL, 33189","Match","Exact","8840 SW 204TH ST, CUTLER BAY, FL, 33189",116298021,"L"
306761,"8841 DORAL DRIVE","MENTOR","OH",44060,41.7063423590001,-81.322217334,261,"8841 DORAL DRIVE, MENTOR, OH, 44060","Match","Exact","8841 DORAL DR, MENTOR, OH, 44060",137462543,"L"
306762,"8841 FOOTHILL BLVD STUDIO 4","RANCHO CUCAMONGA","CA",91730,34.1066580190001,-117.612663766,262,"8841 FOOTHILL BLVD STUDIO 4, RANCHO CUCAMONGA, CA, 91730","Match","Exact","8841 FOOTHILL BLVD, RANCHO CUCAMONGA, CA, 91730",144634549,"R"
306763,"8841 FOOTHILL BOULEVARD","RANCHO CUCAMONGA","CA",91730,34.1066580190001,-117.612663766,263,"8841 FOOTHILL BOULEVARD, RANCHO CUCAMONGA, CA, 91730","Match","Exact","8841 FOOTHILL BLVD, RANCHO CUCAMONGA, CA, 91730",144634549,"R"
306764,"8841 S MERRILL AVE","CHICAGO","IL",60617,41.7345021890001,-87.572004321,264,"8841 S MERRILL AVE, CHICAGO, IL, 60617","Match","Exact","8841 S MERRILL AVE, CHICAGO, IL, 60617",111776090,"L"
306765,"8841 S MERRILL","CHICAGO","IL",60617,41.7345021890001,-87.572004321,265,"8841 S MERRILL, CHICAGO, IL, 60617","Match","Non_Exact","8841 S MERRILL AVE, CHICAGO, IL, 60617",111776090,"L"
306766,"8841 SYNDICATE AVE","LEXINGTON","MN",55014,45.1335387600001,-93.171401153,266,"8841 SYNDICATE AVE, LEXINGTON, MN, 55014","Match","Non_Exact","8841 SYNDICATE AVE, LINO LAKES, MN, 55014",97521014,"R"
306767,"8842 BROWNING DR APT E","INDIANAPOLIS","IN",46227,NA,NA,267,"8842 BROWNING DR APT E, INDIANAPOLIS, IN, 46227","No_Match",NA,NA,NA,NA
306768,"8842 EAST  77TH STREET","TULSA","OK",74133,36.053086342,-95.87739957,268,"8842 EAST  77TH STREET, TULSA, OK, 74133","Match","Exact","8842 E 77TH ST, TULSA, OK, 74133",166499468,"R"
306769,"8842 HANLEY","CROWN POINT","IN",46307,NA,NA,269,"8842 HANLEY, CROWN POINT, IN, 46307","Tie",NA,NA,NA,NA
306770,"8842 NEW BRIDGE RD","DENTON","MD",21629,38.849959987,-75.8805470459999,270,"8842 NEW BRIDGE RD, DENTON, MD, 21629","Match","Exact","8842 NEW BRIDGE RD, DENTON, MD, 21629",68312262,"L"
306771,"8842 RIDGECREST DRIVE","VALLES MINES","MO",63087,37.9760257820001,-90.475600358,271,"8842 RIDGECREST DRIVE, VALLES MINES, MO, 63087","Match","Exact","8842 RIDGECREST DR, VALLES MINES, MO, 63087",618312592,"R"
306772,"8842 ROUNDHOUSE CIRCLE","EASTON","MD",21601,38.7875075520001,-76.054827642,272,"8842 ROUNDHOUSE CIRCLE, EASTON, MD, 21601","Match","Exact","8842 ROUNDHOUSE CIR, EASTON, MD, 21601",637443247,"R"
306773,"8842 SKYLINE DR","BURR RIDGE","IL",60527,41.7281604290001,-87.939756479,273,"8842 SKYLINE DR, BURR RIDGE, IL, 60527","Match","Exact","8842 SKYLINE DR, BURR RIDGE, IL, 60527",112668681,"R"
306774,"8842 STATE ROUTE 571 EAST","ARCANUM","OH",45304,40.0402902600001,-84.477631754,274,"8842 STATE ROUTE 571 EAST, ARCANUM, OH, 45304","Match","Non_Exact","8842 STATE RTE 571, ARCANUM, OH, 45304",54540546,"L"
306775,"8842 STATE RTE 90N","KING FERRY","NY",13081,NA,NA,275,"8842 STATE RTE 90N, KING FERRY, NY, 13081","No_Match",NA,NA,NA,NA
306776,"8843 E FAIRVIEW AVE","SAN GABRIEL","CA",91775,34.12688067,-118.076883049,276,"8843 E FAIRVIEW AVE, SAN GABRIEL, CA, 91775","Match","Exact","8843 E FAIRVIEW AVE, SAN GABRIEL, CA, 91775",141634480,"L"
306777,"8843 GRANT AVENUE APT 201","OVERLAND PARK","KS",66212,38.9680732950001,-94.695661789,277,"8843 GRANT AVENUE APT 201, OVERLAND PARK, KS, 66212","Match","Exact","8843 GRANT AVE, OVERLAND PARK, KS, 66212",91275169,"L"
306778,"8843 GREEN BELT ROAD SUITE 343","GREEN BELT","MD",20770,38.9910366230001,-76.8544709609999,278,"8843 GREEN BELT ROAD SUITE 343, GREEN BELT, MD, 20770","Match","Non_Exact","8843 GREENBELT RD, GREENBELT, MD, 20770",647273741,"R"
306779,"8843 GREENBELT RD STE 159","GREENBELT","MD",20770,38.9910366230001,-76.8544709609999,279,"8843 GREENBELT RD STE 159, GREENBELT, MD, 20770","Match","Exact","8843 GREENBELT RD, GREENBELT, MD, 20770",647273741,"R"
306780,"8843 SALMON FALLS DRIVE UNIT C","SACRAMENTO","CA",95826,38.5623606070001,-121.37773119,280,"8843 SALMON FALLS DRIVE UNIT C, SACRAMENTO, CA, 95826","Match","Exact","8843 SALMON FALLS DR, SACRAMENTO, CA, 95826",133420979,"L"
306781,"8844 CORITLE DRIVE","LAS VEGAS","NV",89134,36.194734372,-115.288607523,281,"8844 CORITLE DRIVE, LAS VEGAS, NV, 89134","Match","Non_Exact","8844 CORTILE DR, LAS VEGAS, NV, 89134",201903880,"R"
306782,"8844 E 16TH PLACE","INDIANAPOLIS","IN",46219,39.789929107,-86.011850366,282,"8844 E 16TH PLACE, INDIANAPOLIS, IN, 46219","Match","Exact","8844 E 16TH PL, INDIANAPOLIS, IN, 46219",108012567,"L"
306783,"8844 MAIN STREET","WHITMORE LAKE","MI",48189,42.4133345750001,-83.76106858,283,"8844 MAIN STREET, WHITMORE LAKE, MI, 48189","Match","Exact","8844 MAIN ST, WHITMORE LAKE, MI, 48189",26043585,"R"
306784,"8844 RAINBOW RIDGE DR","LAS VEGAS","NV",89117,36.1448386820001,-115.287638034,284,"8844 RAINBOW RIDGE DR, LAS VEGAS, NV, 89117","Match","Exact","8844 RAINBOW RIDGE DR, LAS VEGAS, NV, 89117",201914854,"L"
306785,"8844 ROUNDHOUSE CIRCLE","EASTON","MD",21601,38.7872368110001,-76.0550973109999,285,"8844 ROUNDHOUSE CIRCLE, EASTON, MD, 21601","Match","Exact","8844 ROUNDHOUSE CIR, EASTON, MD, 21601",637443247,"R"
306786,"8844 VILLANOVA AVE","LOS ANGELES","CA",90045,33.9580124510001,-118.420301617,286,"8844 VILLANOVA AVE, LOS ANGELES, CA, 90045","Match","Non_Exact","8844 VILLANOVA ST, LOS ANGELES, CA, 90045",141578559,"L"
306787,"88442 FISHER RD","EUGENE","OR",97402,44.0602925790001,-123.244803305,287,"88442 FISHER RD, EUGENE, OR, 97402","Match","Exact","88442 FISHER RD, EUGENE, OR, 97402",178162316,"L"
306788,"8845 BLAYLOCK LANE","BEAUMONT","TX",77707,30.0599674110001,-94.195819633,288,"8845 BLAYLOCK LANE, BEAUMONT, TX, 77707","Match","Exact","8845 BLAYLOCK LN, BEAUMONT, TX, 77707",73851468,"L"
306789,"8845 E FOUNTAIN ST","MESA","AZ",85207,33.4349637490001,-111.640274401,289,"8845 E FOUNTAIN ST, MESA, AZ, 85207","Match","Exact","8845 E FOUNTAIN ST, MESA, AZ, 85207",128827275,"L"
306790,"8845 FLAGSTONE DRIVE","ZIONSVILLE","IN",46077,39.98807255,-86.302038652,290,"8845 FLAGSTONE DRIVE, ZIONSVILLE, IN, 46077","Match","Exact","8845 FLAGSTONE DR, ZIONSVILLE, IN, 46077",610974882,"L"
306791,"8845 JACKSON STREET","INDIANAPOLIS","IN",46231,39.7608735740001,-86.3187484169999,291,"8845 JACKSON STREET, INDIANAPOLIS, IN, 46231","Match","Exact","8845 JACKSON ST, INDIANAPOLIS, IN, 46231",107977128,"L"
306792,"8845 N OAK FOREST DRIVE","PRESCOTT","AZ",86305,34.668482328,-112.5169063,292,"8845 N OAK FOREST DRIVE, PRESCOTT, AZ, 86305","Match","Exact","8845 N OAK FOREST DR, PRESCOTT, AZ, 86305",159510739,"R"
306793,"8845 N WISNER AVE","NILES","IL",60714,NA,NA,293,"8845 N WISNER AVE, NILES, IL, 60714","Tie",NA,NA,NA,NA
306794,"8845 PARK BYRD ROAD","LAKELAND","FL",33810,28.160284206,-81.9902989459999,294,"8845 PARK BYRD ROAD, LAKELAND, FL, 33810","Match","Exact","8845 PARK BYRD RD, LAKELAND, FL, 33810",104878086,"R"
306795,"8845 S RIDGELAND","CHICAGO","IL",60617,41.734338978,-87.581656242,295,"8845 S RIDGELAND, CHICAGO, IL, 60617","Match","Non_Exact","8845 S RIDGELAND AVE, CHICAGO, IL, 60617",111775413,"L"
306796,"8845 SMITH CALHOUN RD","PLAIN CITY","OH",43064,40.07222319,-83.246485491,296,"8845 SMITH CALHOUN RD, PLAIN CITY, OH, 43064","Match","Exact","8845 SMITH CALHOUN RD, PLAIN CITY, OH, 43064",135264686,"L"
306797,"8845 VIRGIN LAKE RD","TOMAHAWK","WI",54487,45.5817023430001,-89.652318876,297,"8845 VIRGIN LAKE RD, TOMAHAWK, WI, 54487","Match","Exact","8845 VIRGIN LAKE RD, TOMAHAWK, WI, 54487",635616586,"L"
306798,"8845 WALL TRIANA HWY","HARVEST","AL",35749,34.847904612,-86.749159501,298,"8845 WALL TRIANA HWY, HARVEST, AL, 35749","Match","Exact","8845 WALL TRIANA HWY, HARVEST, AL, 35749",58213401,"L"
306799,"8846 MOFFAT ST","DETROIT","MI",48213,42.3817775480001,-83.0058963449999,299,"8846 MOFFAT ST, DETROIT, MI, 48213","Match","Exact","8846 MOFFAT ST, DETROIT, MI, 48213",95483433,"R"
306800,"8846 OSO AVE","WINNETKA","CA",91306,34.231279323,-118.575409063,300,"8846 OSO AVE, WINNETKA, CA, 91306","Match","Exact","8846 OSO AVE, WINNETKA, CA, 91306",141539993,"R"
306801,"8846 W PINE LAKE RD","ARGONNE","IL",54511,NA,NA,301,"8846 W PINE LAKE RD, ARGONNE, IL, 54511","Tie",NA,NA,NA,NA
306802,"8847 HWY 53 E","DAWSONVILLE","GA",30534,NA,NA,302,"8847 HWY 53 E, DAWSONVILLE, GA, 30534","No_Match",NA,NA,NA,NA
306803,"8847 KATHERINE ST","TAYLOR","MI",48180,42.2447879950001,-83.2486953659999,303,"8847 KATHERINE ST, TAYLOR, MI, 48180","Match","Exact","8847 KATHERINE ST, TAYLOR, MI, 48180",95445906,"L"
306804,"8847 N SUNBURST TRAIL","PARKER","CO",80134,NA,NA,304,"8847 N SUNBURST TRAIL, PARKER, CO, 80134","Tie",NA,NA,NA,NA
306805,"8847 TILBURY DR","WILMINGTON","NC",28411,34.3089922630001,-77.7727045789999,305,"8847 TILBURY DR, WILMINGTON, NC, 28411","Match","Exact","8847 TILBURY DR, WILMINGTON, NC, 28411",610199370,"R"
306806,"8848 BISMARCK PALM DRIVE","WINTER GARDEN","FL",34787,28.421715841,-81.6266951869999,306,"8848 BISMARCK PALM DRIVE, WINTER GARDEN, FL, 34787","Match","Exact","8848 BISMARCK PALM DR, WINTER GARDEN, FL, 34787",645099291,"R"
306807,"8848 E FOOTHILLS DRIVE","SCOTTSDALE","AZ",85255,33.6884908330001,-111.889011005,307,"8848 E FOOTHILLS DRIVE, SCOTTSDALE, AZ, 85255","Match","Exact","8848 E FOOTHILLS DR, SCOTTSDALE, AZ, 85255",649096292,"R"
306808,"8848 GREY HAWK POINT","ORLANDO","FL",32836,28.4376631550001,-81.508017534,308,"8848 GREY HAWK POINT, ORLANDO, FL, 32836","Match","Exact","8848 GREY HAWK PT, ORLANDO, FL, 32836",94369849,"R"
306809,"8848 MICCOSUKEE ROAD","TALLAHASSEE","FL",32309,30.517979843,-84.128784359,309,"8848 MICCOSUKEE ROAD, TALLAHASSEE, FL, 32309","Match","Exact","8848 MICCOSUKEE RD, TALLAHASSEE, FL, 32309",640426708,"L"
306810,"8849 208TH STREET","QUEENS VILLAGE","NY",11427,NA,NA,310,"8849 208TH STREET, QUEENS VILLAGE, NY, 11427","No_Match",NA,NA,NA,NA
306811,"8849 HWY 5  SUITE A","DOUGLASVILLE","GA",30134,33.74085559,-84.7758922529999,311,"8849 HWY 5  SUITE A, DOUGLASVILLE, GA, 30134","Match","Non_Exact","8849 STATE RTE 5, DOUGLASVILLE, GA, 30134",16662027,"R"
306812,"8849 LATREC AVENUE APT 108","ORLANDO","FL",32819,28.4373300570001,-81.4789637119999,312,"8849 LATREC AVENUE APT 108, ORLANDO, FL, 32819","Match","Exact","8849 LATREC AVE, ORLANDO, FL, 32819",640899992,"R"
306813,"8849 SCORPIUS WAY","SAN DIEGO","CA",92126,32.9220443470001,-117.134587714,313,"8849 SCORPIUS WAY, SAN DIEGO, CA, 92126","Match","Exact","8849 SCORPIUS WAY, SAN DIEGO, CA, 92126",195318295,"R"
306814,"8849 SPECTRUM CENTER BLVD","SAN DIEGO","CA",92123,32.826424957,-117.136581468,314,"8849 SPECTRUM CENTER BLVD, SAN DIEGO, CA, 92123","Match","Exact","8849 SPECTRUM CENTER BLVD, SAN DIEGO, CA, 92123",650075433,"R"
306815,"8849 W CAMINO DE ORO","PEORIA","AZ",85383,NA,NA,315,"8849 W CAMINO DE ORO, PEORIA, AZ, 85383","No_Match",NA,NA,NA,NA
306816,"8849 WHITE EAGLE E","SYLVANIA","OH",43560,41.7223706930001,-83.759550366,316,"8849 WHITE EAGLE E, SYLVANIA, OH, 43560","Match","Exact","8849 WHITE EAGLE E, SYLVANIA, OH, 43560",623687293,"R"
306817,"885 ARAPAHOE AVENUE","BOULDER","CO",80302,40.0130582840001,-105.28393612,317,"885 ARAPAHOE AVENUE, BOULDER, CO, 80302","Match","Exact","885 ARAPAHOE AVE, BOULDER, CO, 80302",188159519,"L"
306818,"885 BADGER CIRCLE","GRAFTON","WI",53024,43.3250736270001,-87.932242743,318,"885 BADGER CIRCLE, GRAFTON, WI, 53024","Match","Exact","885 BADGER CIR, GRAFTON, WI, 53024",95909287,"R"
306819,"885 BELLMORE ROAD","N BELLMORE","NY",11756,40.7009501920001,-73.533612029,319,"885 BELLMORE ROAD, N BELLMORE, NY, 11756","Match","Non_Exact","885 BELLMORE RD, N BELLMORE, NY, 11710",147636230,"L"
306820,"885 CENTRE STREET BC LAB","NEWTON","MA",2459,NA,NA,320,"885 CENTRE STREET BC LAB, NEWTON, MA, 2459","No_Match",NA,NA,NA,NA
306821,"885 COX ROAD","HUNTINGTOWN","MD",20639,38.613634958,-76.603339381,321,"885 COX ROAD, HUNTINGTOWN, MD, 20639","Match","Exact","885 COX RD, HUNTINGTOWN, MD, 20639",78174762,"L"
306822,"885 E 56 ST APT 2C","BROOKLYN","NY",11234,40.636676934,-74.005402155,322,"885 E 56 ST APT 2C, BROOKLYN, NY, 11234","Match","Non_Exact","885 56TH ST, BROOKLYN, NY, 11220",59094851,"L"
306823,"885 EAST KING STREET","KING","NC",27021,36.270866896,-80.332345649,323,"885 EAST KING STREET, KING, NC, 27021","Match","Exact","885 E KING ST, KING, NC, 27021",637568959,"R"
306824,"885 EMPRESS DR","LAKE HAVASU CITY","AZ",86403,34.505374132,-114.32076318,324,"885 EMPRESS DR, LAKE HAVASU CITY, AZ, 86403","Match","Exact","885 EMPRESS DR, LAKE HAVASU CITY, AZ, 86403",190279125,"L"
306825,"885 GENEVA DRIVE","GENEVA","IL",60134,41.894338238,-88.287631366,325,"885 GENEVA DRIVE, GENEVA, IL, 60134","Match","Exact","885 GENEVA DR, GENEVA, IL, 60134",119535491,"L"
306826,"885 JAQUELYN STREET","ASHLAND","OR",97520,42.1786395610001,-122.673949952,326,"885 JAQUELYN STREET, ASHLAND, OR, 97520","Match","Exact","885 JAQUELYN ST, ASHLAND, OR, 97520",155523062,"R"
306827,"885 LUPINE ST  UNIT C","GOLDEN","CO",80401,39.730805833,-105.173748529,327,"885 LUPINE ST  UNIT C, GOLDEN, CO, 80401","Match","Exact","885 LUPINE ST, GOLDEN, CO, 80401",637698530,"L"
306828,"885 MABEN AVENUE","GARNER","IA",50438,43.0970702860001,-93.600748535,328,"885 MABEN AVENUE, GARNER, IA, 50438","Match","Exact","885 MABEN AVE, GARNER, IA, 50438",7405294,"R"
306829,"885 MAIN STREET","DARBY","PA",19023,39.9184325350001,-75.261681956,329,"885 MAIN STREET, DARBY, PA, 19023","Match","Exact","885 MAIN ST, DARBY, PA, 19023",134886395,"R"
306830,"885 MARLBORO RD","LOTHIAN","MD",20711,38.819248697,-76.6684842029999,330,"885 MARLBORO RD, LOTHIAN, MD, 20711","Match","Exact","885 MARLBORO RD, LOTHIAN, MD, 20711",636149490,"L"
306831,"885 MONTGOMERY STREET","BROOKLYN","NY",11213,40.66454294,-73.93505071,331,"885 MONTGOMERY STREET, BROOKLYN, NY, 11213","Match","Exact","885 MONTGOMERY ST, BROOKLYN, NY, 11213",59079877,"L"
306832,"885 NOBLES MILL RD","DEEP RUN","NC",28525,35.0931524920001,-77.663795594,332,"885 NOBLES MILL RD, DEEP RUN, NC, 28525","Match","Exact","885 NOBLES MILL RD, DEEP RUN, NC, 28525",13887910,"R"
306833,"885 NORTH 70TH AVENUE","PENSACOLA","FL",32506,30.4224134410001,-87.3059150399999,333,"885 NORTH 70TH AVENUE, PENSACOLA, FL, 32506","Match","Exact","885 N 70TH AVE, PENSACOLA, FL, 32506",93212499,"L"
306834,"885 NORTH EASTON ROAD APT 13A5","GLENSIDE","PA",19038,40.1156795850001,-75.13875086,334,"885 NORTH EASTON ROAD APT 13A5, GLENSIDE, PA, 19038","Match","Exact","885 N EASTON RD, GLENSIDE, PA, 19038",135092212,"R"
306835,"885 NORTH MEADOWS COURT APT C","COLUMBUS","OH",43229,40.084956124,-82.993690643,335,"885 NORTH MEADOWS COURT APT C, COLUMBUS, OH, 43229","Match","Exact","885 N MEADOWS CT, COLUMBUS, OH, 43229",135570697,"R"
306836,"885 NORTH POWERS DRIVE A","ORLANDO","FL",32818,28.5536520100001,-81.4676444099999,336,"885 NORTH POWERS DRIVE A, ORLANDO, FL, 32818","Match","Exact","885 N POWERS DR, ORLANDO, FL, 32818",94271530,"R"
306837,"885 NORTHWEST BLVD","COLUMBUS","OH",43212,39.9774442240001,-83.0296729149999,337,"885 NORTHWEST BLVD, COLUMBUS, OH, 43212","Match","Exact","885 NORTHWEST BLVD, COLUMBUS, OH, 43212",135574428,"L"
306838,"885 NORTHWOOD DRIVE","VIRGINIA BEACH","VA",23452,36.8057883290001,-76.09861251,338,"885 NORTHWOOD DRIVE, VIRGINIA BEACH, VA, 23452","Match","Exact","885 NORTHWOOD DR, VA BCH, VA, 23452",122285498,"R"
306839,"885 PENNIMAN 5382","PLYMOUTH","MI",48170,42.3717013180001,-83.470399307,339,"885 PENNIMAN 5382, PLYMOUTH, MI, 48170","Match","Non_Exact","885 PENNIMAN AVE, PLYMOUTH, MI, 48170",95407966,"L"
306840,"885 S COLLEGE MALL RD 362","BLOOMINGTON","IN",47401,39.1571906300001,-86.497794154,340,"885 S COLLEGE MALL RD 362, BLOOMINGTON, IN, 47401","Match","Non_Exact","885 S COLLEGE MALL RD, BLOOMINGTON, IN, 47401",42324678,"L"
306841,"885 S COLLEGE MALL RD STE 144","BLOOMINGTON","IN",47401,39.1571906300001,-86.497794154,341,"885 S COLLEGE MALL RD STE 144, BLOOMINGTON, IN, 47401","Match","Non_Exact","885 S COLLEGE MALL RD, BLOOMINGTON, IN, 47401",42324678,"L"
306842,"885 S COLLEGE MALL RD STE 274","BLOOMINGTON","IN",47401,39.1571906300001,-86.497794154,342,"885 S COLLEGE MALL RD STE 274, BLOOMINGTON, IN, 47401","Match","Non_Exact","885 S COLLEGE MALL RD, BLOOMINGTON, IN, 47401",42324678,"L"
306843,"885 S FARM RD 197","SPRINGFIELD","MO",65809,37.1955437560001,-93.189074841,343,"885 S FARM RD 197, SPRINGFIELD, MO, 65809","Match","Exact","885 S FARM RD 197, SPRINGFIELD, MO, 65809",609089362,"R"
306844,"885 SCHUMANN DR","VIRGINIA BEACH","VA",23454,36.773268515,-75.981586439,344,"885 SCHUMANN DR, VIRGINIA BEACH, VA, 23454","Match","Exact","885 SCHUMANN DR, VIRGINIA BCH, VA, 23454",643251715,"L"
306845,"885 SCOTT BLVD SUITE 4","SANTA CLARA","CA",95050,37.3443365260001,-121.959281631,345,"885 SCOTT BLVD SUITE 4, SANTA CLARA, CA, 95050","Match","Exact","885 SCOTT BLVD, SANTA CLARA, CA, 95050",122899481,"R"
306846,"885 SPALDING DRIVE","SANDY SPRINGS","GA",30328,33.956216075,-84.358038598,346,"885 SPALDING DRIVE, SANDY SPRINGS, GA, 30328","Match","Non_Exact","885 SPALDING DR NE, SANDY SPRINGS, GA, 30328",636291374,"R"
306847,"885 SUNDANCE ST","EUGENE","OR",97405,44.0124910430001,-123.106292823,347,"885 SUNDANCE ST, EUGENE, OR, 97405","Match","Exact","885 SUNDANCE ST, EUGENE, OR, 97405",605397118,"R"
306848,"885 THIRD AVE - 24TH FLOOR","NEW YORK","NY",10022,40.7579430960001,-73.969207973,348,"885 THIRD AVE - 24TH FLOOR, NEW YORK, NY, 10022","Match","Exact","885 3RD AVE, NEW YORK, NY, 10022",59657505,"R"
306849,"885 TIBWIN PLACE","LAWRENCEVILLE","GA",30045,33.9436239090001,-83.9117001939999,349,"885 TIBWIN PLACE, LAWRENCEVILLE, GA, 30045","Match","Non_Exact","885 TIBWIN PL SE, LAWRENCEVILLE, GA, 30045",646852443,"R"
306850,"885 TOWN CREEK CHURCH RD","DAHLONEGA","GA",30533,34.57102052,-83.892841661,350,"885 TOWN CREEK CHURCH RD, DAHLONEGA, GA, 30533","Match","Exact","885 TOWN CREEK CHURCH RD, DAHLONEGA, GA, 30533",642481039,"L"
306851,"885 TRAVIS AVE","STATEN ISLAND","NY",10314,40.5935969930001,-74.165569686,351,"885 TRAVIS AVE, STATEN ISLAND, NY, 10314","Match","Exact","885 TRAVIS AVE, STATEN ISLAND, NY, 10314",59871808,"R"
306852,"885 USS HUNLEY AVE","KINGSBAY","GA",31547,NA,NA,352,"885 USS HUNLEY AVE, KINGSBAY, GA, 31547","No_Match",NA,NA,NA,NA
306853,"885 W CO RD 1000 S","CLAY CITY","IN",47841,39.2417640840001,-87.127156004,353,"885 W CO RD 1000 S, CLAY CITY, IN, 47841","Match","Exact","885 W CO RD 1000 S, CLAY CITY, IN, 47841",41748494,"R"
306854,"885 W FOREST GROVE ROAD","LUCAS","TX",75002,33.1186166030001,-96.58925702,354,"885 W FOREST GROVE ROAD, LUCAS, TX, 75002","Match","Exact","885 W FOREST GROVE RD, LUCAS, TX, 75002",642470781,"R"
306855,"885 WEST CLYDESDALE","FAYETTEVILLE","AR",72701,36.034161984,-94.175124856,355,"885 WEST CLYDESDALE, FAYETTEVILLE, AR, 72701","Match","Non_Exact","885 W CLYDESDALE DR, FAYETTEVILLE, AR, 72701",637575558,"L"
306856,"885 WOODSTOCK ROAD SUITE 430-207","ROSWELL","GA",30075,34.060833938,-84.387094341,356,"885 WOODSTOCK ROAD SUITE 430-207, ROSWELL, GA, 30075","Match","Exact","885 WOODSTOCK RD, ROSWELL, GA, 30075",17385171,"R"
306857,"8850 59 AVENUE E","BRADENTON","FL",34207,NA,NA,357,"8850 59 AVENUE E, BRADENTON, FL, 34207","No_Match",NA,NA,NA,NA
306858,"8850 ALCOTT ST","LOS ANGELES","CA",90035,34.053978312,-118.385130809,358,"8850 ALCOTT ST, LOS ANGELES, CA, 90035","Match","Exact","8850 ALCOTT ST, LOS ANGELES, CA, 90035",141573019,"L"
306859,"8850 BROADWAY ST","SAN ANTONIO","TX",78217,29.5207405560001,-98.460595293,359,"8850 BROADWAY ST, SAN ANTONIO, TX, 78217","Match","Non_Exact","8850 BROADWAY, SAN ANTONIO, TX, 78217",101497598,"R"
306860,"8850 COLUMBIA 100 PARKWAY SUITE 316","COLUMBIA","MD",21045,39.2317258210001,-76.8155567539999,360,"8850 COLUMBIA 100 PARKWAY SUITE 316, COLUMBIA, MD, 21045","Match","Exact","8850 COLUMBIA 100 PKWY, COLUMBIA, MD, 21045",158962025,"L"
306861,"8850 FARM ROAD 1100","PURDY","MO",65734,NA,NA,361,"8850 FARM ROAD 1100, PURDY, MO, 65734","No_Match",NA,NA,NA,NA
306862,"8850 MODESTO AVE NE","ALBUQUERQUE","NM",87122,35.188789689,-106.545233446,362,"8850 MODESTO AVE NE, ALBUQUERQUE, NM, 87122","Match","Exact","8850 MODESTO AVE NE, ALBUQUERQUE, NM, 87122",627626198,"R"
306863,"8850 N POMONA AVE 205","KANSAS CITY","MO",64153,39.2555218910001,-94.671956504,363,"8850 N POMONA AVE 205, KANSAS CITY, MO, 64153","Match","Non_Exact","8850 N POMONA AVE, KANSAS CITY, MO, 64153",641595746,"R"
306864,"8850 PARDEE RD","TAYLOR","MI",48180,42.2448789910001,-83.25665438,364,"8850 PARDEE RD, TAYLOR, MI, 48180","Match","Exact","8850 PARDEE RD, TAYLOR, MI, 48180",95437395,"R"
306865,"8850 RICHMOND HWY SUITE 202","ALEXANDRIA","VA",22309,38.7192038680001,-77.1281635239999,365,"8850 RICHMOND HWY SUITE 202, ALEXANDRIA, VA, 22309","Match","Exact","8850 RICHMOND HWY, ALEXANDRIA, VA, 22309",647381144,"L"
306866,"8850 SOUTH SIDE AVE","ELK GROVE","CA",95624,38.407300869,-121.373319222,366,"8850 SOUTH SIDE AVE, ELK GROVE, CA, 95624","Match","Non_Exact","8850 SOUTHSIDE AVE, ELK GROVE, CA, 95624",133365245,"R"
306867,"8850 SOUTHSIDE AVE","ELK GROVE","CA",95624,38.407300869,-121.373319222,367,"8850 SOUTHSIDE AVE, ELK GROVE, CA, 95624","Match","Exact","8850 SOUTHSIDE AVE, ELK GROVE, CA, 95624",133365245,"R"
306868,"8850 TRUMPETER COURT","INDIANAPOLIS","IN",46234,39.7985722990001,-86.3190976,368,"8850 TRUMPETER COURT, INDIANAPOLIS, IN, 46234","Match","Exact","8850 TRUMPETER CT, INDIANAPOLIS, IN, 46234",108041685,"L"
306869,"88500 FOREST MEADOWS LANE","VENETA","OR",97487,44.0580027780001,-123.338072745,369,"88500 FOREST MEADOWS LANE, VENETA, OR, 97487","Match","Exact","88500 FOREST MEADOWS LN, VENETA, OR, 97487",605449263,"L"
306870,"88500 OVERSEAS HWY","TAVERNIER","FL",33070,NA,NA,370,"88500 OVERSEAS HWY, TAVERNIER, FL, 33070","No_Match",NA,NA,NA,NA
306871,"8851 BOLIN CIRCLE","HUNTINGTON BEACH","CA",92646,33.6572221760001,-117.973576776,371,"8851 BOLIN CIRCLE, HUNTINGTON BEACH, CA, 92646","Match","Exact","8851 BOLIN CIR, HUNTINGTON BEACH, CA, 92646",144021326,"L"
306872,"8851 CAMINITO PRIMAVERA","LA JOLLA","CA",92037,NA,NA,372,"8851 CAMINITO PRIMAVERA, LA JOLLA, CA, 92037","No_Match",NA,NA,NA,NA
306873,"8851 CENTER DRIVE SUITE 307","LA MESA","CA",91942,32.7816711830001,-117.008968439,373,"8851 CENTER DRIVE SUITE 307, LA MESA, CA, 91942","Match","Exact","8851 CENTER DR, LA MESA, CA, 91942",195326497,"R"
306874,"8851 ELVIRA AVENUE","WESTMINSTER","CA",92683,33.7426282760001,-117.97448673,374,"8851 ELVIRA AVENUE, WESTMINSTER, CA, 92683","Match","Exact","8851 ELVIRA AVE, WESTMINSTER, CA, 92683",144016745,"L"
306875,"8851 RESEARCH DRIVE","IRVINE","CA",92618,NA,NA,375,"8851 RESEARCH DRIVE, IRVINE, CA, 92618","No_Match",NA,NA,NA,NA
306876,"8851 SMITHFIELD DRIVE NW","CALABASH","NC",28467,33.9430981150001,-78.5664131839999,376,"8851 SMITHFIELD DRIVE NW, CALABASH, NC, 28467","Match","Exact","8851 SMITHFIELD DR NW, CALABASH, NC, 28467",637959537,"L"
306877,"88511 OVERSEA HWY UNIT 4","TAVERNIER","FL",33070,NA,NA,377,"88511 OVERSEA HWY UNIT 4, TAVERNIER, FL, 33070","No_Match",NA,NA,NA,NA
306878,"88517 RIDICULOUS RD","VENETA","OR",97487,44.0586320410001,-123.39846834,378,"88517 RIDICULOUS RD, VENETA, OR, 97487","Match","Exact","88517 RIDICULOUS RD, VENETA, OR, 97487",642182408,"R"
306879,"8852","COVINGTON","WA",98042,NA,NA,379,"8852, COVINGTON, WA, 98042","No_Match",NA,NA,NA,NA
306880,"8853 RASPBERRY LANE","CORDOVA","TN",38016,35.1722660140001,-89.76792715,380,"8853 RASPBERRY LANE, CORDOVA, TN, 38016","Match","Exact","8853 RASPBERRY LN, CORDOVA, TN, 38016",72965447,"L"
306881,"8854 S ESCANABA AVE","CHICAGO","IL",60617,41.7345155960001,-87.5541352129999,381,"8854 S ESCANABA AVE, CHICAGO, IL, 60617","Match","Exact","8854 S ESCANABA AVE, CHICAGO, IL, 60617",111776482,"R"
306882,"8855 ALPINE AVE NW","SPARTA","MI",49345,43.124837912,-85.690226916,382,"8855 ALPINE AVE NW, SPARTA, MI, 49345","Match","Exact","8855 ALPINE AVE NW, SPARTA, MI, 49345",647621131,"L"
306883,"8855 ANNAPOLIS ROAD SUITE 201","LANHAM","MD",20706,38.9609943730001,-76.86339077,383,"8855 ANNAPOLIS ROAD SUITE 201, LANHAM, MD, 20706","Match","Exact","8855 ANNAPOLIS RD, LANHAM, MD, 20706",76414693,"R"
306884,"8855 BROAD ST","RURAL HALL","NC",27045,36.2507682400001,-80.3063780429999,384,"8855 BROAD ST, RURAL HALL, NC, 27045","Match","Exact","8855 BROAD ST, RURAL HALL, NC, 27045",635546635,"R"
306885,"8855 CENER POINTE DRIVE","BALDWINSVILLE","NY",13027,NA,NA,385,"8855 CENER POINTE DRIVE, BALDWINSVILLE, NY, 13027","No_Match",NA,NA,NA,NA
306886,"8855 INWOOD AVENUE SOUTH","COTTAGE GROVE","MN",55016,44.821264243,-92.9341007629999,386,"8855 INWOOD AVENUE SOUTH, COTTAGE GROVE, MN, 55016","Match","Exact","8855 INWOOD AVE S, COTTAGE GROVE, MN, 55016",97815617,"L"
306887,"8855 N LAMON AVENUE APT 2N","SKOKIE","IL",60077,42.0421782390001,-87.74941767,387,"8855 N LAMON AVENUE APT 2N, SKOKIE, IL, 60077","Match","Exact","8855 LAMON AVE, SKOKIE, IL, 60077",111739051,"R"
306888,"8855 N STEMMONS FWY","DALLAS","TX",75247,32.8366039200001,-96.87566694,388,"8855 N STEMMONS FWY, DALLAS, TX, 75247","Match","Exact","8855 N STEMMONS FWY, DALLAS, TX, 75247",102894324,"L"
306889,"8855 OKEECHOBEE BLVD APT 103","ROYAL PALM BEACH","FL",33411,26.7088064860001,-80.18273277,389,"8855 OKEECHOBEE BLVD APT 103, ROYAL PALM BEACH, FL, 33411","Match","Exact","8855 OKEECHOBEE BLVD, ROYAL PALM BEACH, FL, 33411",115265925,"L"
306890,"8855 RAGWEED COURT","SAN DIEGO","CA",92129,32.945707934,-117.133469992,390,"8855 RAGWEED COURT, SAN DIEGO, CA, 92129","Match","Exact","8855 RAGWEED CT, SAN DIEGO, CA, 92129",195391037,"R"
306891,"8855 SOUTH EGGLESTON AVE","CHICAGO","IL",60620,41.7334087350001,-87.6350205269999,391,"8855 SOUTH EGGLESTON AVE, CHICAGO, IL, 60620","Match","Exact","8855 S EGGLESTON AVE, CHICAGO, IL, 60620",111832147,"L"
306892,"8855 W PICO BLVD","LOS ANGELES","CA",90035,34.055003469,-118.384904805,392,"8855 W PICO BLVD, LOS ANGELES, CA, 90035","Match","Exact","8855 W PICO BLVD, LOS ANGELES, CA, 90035",141573000,"R"
306893,"8856 FIRE PINK CT","INDIANAPOLIS","IN",46231,39.740246707,-86.319100589,393,"8856 FIRE PINK CT, INDIANAPOLIS, IN, 46231","Match","Exact","8856 FIRE PINK CT, INDIANAPOLIS, IN, 46231",633861521,"R"
306894,"8856 PEER ROAD","SOUTH LYON","MI",48178,42.476013154,-83.6874935009999,394,"8856 PEER ROAD, SOUTH LYON, MI, 48178","Match","Exact","8856 PEER RD, SOUTH LYON, MI, 48178",619584222,"R"
306895,"8856 SE 177TH GRASSAMERE ST","THE VILLAGES","FL",32162,28.9675596920001,-82.0069680829999,395,"8856 SE 177TH GRASSAMERE ST, THE VILLAGES, FL, 32162","Match","Non_Exact","8856 SE 177TH GRASSMERE ST, THE VILLAGES, FL, 32162",116839823,"L"
306896,"8856 W 47TH STREET","BROOKFIELD","IL",60513,41.8055915410001,-87.8428238229999,396,"8856 W 47TH STREET, BROOKFIELD, IL, 60513","Match","Exact","8856 47TH ST, BROOKFIELD, IL, 60513",111792837,"R"
306897,"88563 CIRCLE CITY LANE","BANDON","OR",97411,43.075964603,-124.37964642,397,"88563 CIRCLE CITY LANE, BANDON, OR, 97411","Match","Exact","88563 CIRCLE CITY LN, BANDON, OR, 97411",136994679,"L"
306898,"8857 DAVIS BLVD STE 100","KELLER","TX",76248,32.9203561,-97.18681362,398,"8857 DAVIS BLVD STE 100, KELLER, TX, 76248","Match","Exact","8857 DAVIS BLVD, KELLER, TX, 76248",102145700,"L"
306899,"8857 MINERS DR","HIGHLANDS RANCH","CO",80126,39.55469341,-104.944743128,399,"8857 MINERS DR, HIGHLANDS RANCH, CO, 80126","Match","Non_Exact","8857 S MINERS DR, HIGHLANDS RANCH, CO, 80126",130818575,"R"
306900,"8857 PENFIELD AVE","NORTHRIDGE","CA",91324,34.2312277080001,-118.568926187,400,"8857 PENFIELD AVE, NORTHRIDGE, CA, 91324","Match","Exact","8857 PENFIELD AVE, NORTHRIDGE, CA, 91324",141540027,"L"
306901,"8857 PENFIELD ST","NORTHRIDGE","CA",91324,34.2312277080001,-118.568926187,401,"8857 PENFIELD ST, NORTHRIDGE, CA, 91324","Match","Non_Exact","8857 PENFIELD AVE, NORTHRIDGE, CA, 91324",141540027,"L"
306902,"8857 PORTICO LANE","LONGMONT","CO",80503,40.1352852380001,-105.170168811,402,"8857 PORTICO LANE, LONGMONT, CO, 80503","Match","Exact","8857 PORTICO LN, LONGMONT, CO, 80503",627444143,"L"
306903,"8858 CENTERGROVE PLACE CT","CLEMMONS","NC",27012,36.0565463510001,-80.423759052,403,"8858 CENTERGROVE PLACE CT, CLEMMONS, NC, 27012","Match","Exact","8858 CENTERGROVE PLACE CT, CLEMMONS, NC, 27012",634558284,"L"
306904,"8858 IVYMILL PLACE N","JACKSONVILLE","FL",32244,30.1944935180001,-81.800365461,404,"8858 IVYMILL PLACE N, JACKSONVILLE, FL, 32244","Match","Exact","8858 IVYMILL PL N, JACKSONVILLE, FL, 32244",650478145,"L"
306905,"8858 MAJORCA DRIVE","LAKE WORTH","FL",33467,NA,NA,405,"8858 MAJORCA DRIVE, LAKE WORTH, FL, 33467","No_Match",NA,NA,NA,NA
306906,"8858 MARATHON RD","NIWOT","CO",80503,40.0989616000001,-105.145130765,406,"8858 MARATHON RD, NIWOT, CO, 80503","Match","Exact","8858 MARATHON RD, NIWOT, CO, 80503",220752640,"R"
306907,"8858 SW 129 STREET","MIAMI","FL",33176,25.650622395,-80.3370239929999,407,"8858 SW 129 STREET, MIAMI, FL, 33176","Match","Exact","8858 SW 129TH ST, MIAMI, FL, 33176",115983212,"L"
306908,"8859 S DANTE AVE","CHICAGO","IL",60619,41.733973489,-87.589275572,408,"8859 S DANTE AVE, CHICAGO, IL, 60619","Match","Exact","8859 S DANTE AVE, CHICAGO, IL, 60619",111775328,"L"
306909,"8859 UNIT M N SWAN ROAD","MILWAUKEE","WI",53224,NA,NA,409,"8859 UNIT M N SWAN ROAD, MILWAUKEE, WI, 53224","No_Match",NA,NA,NA,NA
306910,"886 A-1-A NORTH  SUITE 5","PONTE VEDRA BEACH","FL",32082,NA,NA,410,"886 A-1-A NORTH  SUITE 5, PONTE VEDRA BEACH, FL, 32082","No_Match",NA,NA,NA,NA
306911,"886 A-1-A NORTH SUITE 5","PONTE VEDRA BEACH","FL",32082,NA,NA,411,"886 A-1-A NORTH SUITE 5, PONTE VEDRA BEACH, FL, 32082","No_Match",NA,NA,NA,NA
306912,"886 E 220 N","SALEM","UT",84653,40.0578785700001,-111.655708657,412,"886 E 220 N, SALEM, UT, 84653","Match","Exact","886 220 N, SALEM, UT, 84653",601668461,"R"
306913,"886 ELM STREET","WINNETKA","IL",60093,42.105852398,-87.737930911,413,"886 ELM STREET, WINNETKA, IL, 60093","Match","Exact","886 ELM ST, WINNETKA, IL, 60093",111737811,"L"
306914,"886 GIRL SCOUT ROAD","DRUMMONDS","TN",38023,35.500289921,-89.878829034,414,"886 GIRL SCOUT ROAD, DRUMMONDS, TN, 38023","Match","Exact","886 GIRL SCOUT RD, DRUMMONDS, TN, 38023",635391274,"R"
306915,"886 GOUGH ROAD","RUSTBURG","VA",24588,37.245641117,-79.1700508229999,415,"886 GOUGH ROAD, RUSTBURG, VA, 24588","Match","Exact","886 GOUGH RD, RUSTBURG, VA, 24588",647656029,"R"
306916,"886 GREAT BEND ROAD","ALTAMONTE SPRINGS","FL",32714,28.679736792,-81.39912937,416,"886 GREAT BEND ROAD, ALTAMONTE SPRINGS, FL, 32714","Match","Exact","886 GREAT BEND RD, ALTAMONTE SPRINGS, FL, 32714",93736159,"L"
306917,"886 HALIFAX DRIVE","WARWICK","RI",2886,41.7193084790001,-71.458377919,417,"886 HALIFAX DRIVE, WARWICK, RI, 2886","Match","Exact","886 HALIFAX DR, WARWICK, RI, 02886",645268802,"L"
306918,"886 JACKSON ST","KETCHIKAN","AK",99901,55.3565352970001,-131.680477489,418,"886 JACKSON ST, KETCHIKAN, AK, 99901","Match","Exact","886 JACKSON ST, KETCHIKAN, AK, 99901",642323882,"L"
306919,"886 LINDA WAY","FOREST PARK","GA",30297,33.6125602920001,-84.361382788,419,"886 LINDA WAY, FOREST PARK, GA, 30297","Match","Exact","886 LINDA WAY, FOREST PARK, GA, 30297",23314870,"L"
306920,"886 PARK AVENUE STE 202","MARCO ISLAND","FL",34145,25.952038913,-81.726857439,420,"886 PARK AVENUE STE 202, MARCO ISLAND, FL, 34145","Match","Exact","886 PARK AVE, MARCO ISLAND, FL, 34145",115123049,"R"
306921,"886 PARK AVENUE SUITE 202","MARCO ISLAND","FL",34145,25.952038913,-81.726857439,421,"886 PARK AVENUE SUITE 202, MARCO ISLAND, FL, 34145","Match","Exact","886 PARK AVE, MARCO ISLAND, FL, 34145",115123049,"R"
306922,"886 PARKER RD","AURORA","OH",44202,41.3408002210001,-81.312443468,422,"886 PARKER RD, AURORA, OH, 44202","Match","Exact","886 PARKER RD, AURORA, OH, 44202",208682291,"R"
306923,"886 S MORGAN AVENUE","BLANCHARD","OK",73010,35.1296091020001,-97.688111226,423,"886 S MORGAN AVENUE, BLANCHARD, OK, 73010","Match","Exact","886 S MORGAN AVE, BLANCHARD, OK, 73010",15246521,"R"
306924,"886 SW BILTMORE ST","PORT SAINT LUCIE","FL",34983,27.309327818,-80.37222919,424,"886 SW BILTMORE ST, PORT SAINT LUCIE, FL, 34983","Match","Exact","886 SW BILTMORE ST, PORT ST LUCIE, FL, 34983",610718135,"R"
306925,"886 VALLEY DR","ELLIJAY","GA",30536,34.7052292070001,-84.450343995,425,"886 VALLEY DR, ELLIJAY, GA, 30536","Match","Exact","886 VALLEY DR, ELLIJAY, GA, 30536",628097011,"R"
306926,"886 WEST 2600 NORTH","PLEASANT GROVE","UT",84062,40.3920226970001,-111.753658569,426,"886 WEST 2600 NORTH, PLEASANT GROVE, UT, 84062","Match","Exact","886 W 2600 N, PLEASANT GROVE, UT, 84062",630397161,"R"
306927,"8860 CORBIN AVE STE 134","NORTHRIDGE","CA",91324,34.231599714,-118.56229619,427,"8860 CORBIN AVE STE 134, NORTHRIDGE, CA, 91324","Match","Exact","8860 CORBIN AVE, NORTHRIDGE, CA, 91324",141540233,"R"
306928,"8860 HWY 101","IRON","MN",55751,47.4627645790001,-92.620760273,428,"8860 HWY 101, IRON, MN, 55751","Match","Non_Exact","8860 CO HWY 101, IRON, MN, 55751",163171857,"L"
306929,"8860 MIDLAND WOODS DR","MIDLAND","GA",31820,32.5613480310001,-84.832185628,429,"8860 MIDLAND WOODS DR, MIDLAND, GA, 31820","Match","Exact","8860 MIDLAND WOODS DR, MIDLAND, GA, 31820",98946590,"L"
306930,"8860 NW 78TH COURT 368","TAMARAC","FL",33321,26.221594382,-80.275577189,430,"8860 NW 78TH COURT 368, TAMARAC, FL, 33321","Match","Non_Exact","8860 NW 78TH CT, TAMARAC, FL, 33321",114784964,"R"
306931,"8860 PINEY BRANCH RD APT 1404","SILVER SPRING","MD",20903,38.9999829000001,-76.990761085,431,"8860 PINEY BRANCH RD APT 1404, SILVER SPRING, MD, 20903","Match","Exact","8860 PINEY BRANCH RD, SILVER SPRING, MD, 20903",630443851,"L"
306932,"8860 SW 123 CT","MIAMI","FL",33186,25.6841168190001,-80.396023105,432,"8860 SW 123 CT, MIAMI, FL, 33186","Match","Exact","8860 SW 123RD CT, MIAMI, FL, 33186",116093619,"R"
306933,"8860 W CR 500 S","SHIRLEY","IN",47384,NA,NA,433,"8860 W CR 500 S, SHIRLEY, IN, 47384","No_Match",NA,NA,NA,NA
306934,"8861 BOEHNING LN","INDPLS","IN",46219,39.7995644050001,-86.0121574679999,434,"8861 BOEHNING LN, INDPLS, IN, 46219","Match","Exact","8861 BOEHNING LN, INDIANAPOLIS, IN, 46219",108035079,"R"
306935,"8861 COUNTY ROAD 3590","ADA","OK",74820,34.854843181,-96.6135611349999,435,"8861 COUNTY ROAD 3590, ADA, OK, 74820","Match","Exact","8861 CO RD 3590, ADA, OK, 74820",58490197,"L"
306936,"8861 CUSTER SCHOOL ROAD","CUSTER","WA",98240,48.96283471,-122.63797323,436,"8861 CUSTER SCHOOL ROAD, CUSTER, WA, 98240","Match","Exact","8861 CUSTER SCHOOL RD, CUSTER, WA, 98240",183791708,"L"
306937,"8861 GROVE AVE","CALIFORNIA CITY","CA",93505,35.102720721,-117.970361917,437,"8861 GROVE AVE, CALIFORNIA CITY, CA, 93505","Match","Exact","8861 GROVE AVE, CALIF CITY, CA, 93505",109023633,"L"
306938,"8861 MARTIN LANE","GILMER","TX",75645,32.6466101620001,-94.801504762,438,"8861 MARTIN LANE, GILMER, TX, 75645","Match","Exact","8861 MARTIN LN, GILMER, TX, 75645",147596001,"R"
306939,"8861 VILLA LA JOLLA DRIVE 12863","LA JOLLA","CA",92037,32.8680374950001,-117.233497858,439,"8861 VILLA LA JOLLA DRIVE 12863, LA JOLLA, CA, 92037","Match","Exact","8861 VILLA LA JOLLA DR, LA JOLLA, CA, 92037",195734311,"R"
306940,"8861 VILLA LA JOLLA DRIVE 13352","LA JOLLA","CA",92037,32.8680374950001,-117.233497858,440,"8861 VILLA LA JOLLA DRIVE 13352, LA JOLLA, CA, 92037","Match","Exact","8861 VILLA LA JOLLA DR, LA JOLLA, CA, 92037",195734311,"R"
306941,"8863 ANDERSON MILL RD STE 109","AUSTIN","TX",78729,30.454049404,-97.773608161,441,"8863 ANDERSON MILL RD STE 109, AUSTIN, TX, 78729","Match","Exact","8863 ANDERSON MILL RD, AUSTIN, TX, 78729",126431904,"L"
306942,"8863 CR 192","ANDERSON","TX",77830,30.5883955240001,-96.110935081,442,"8863 CR 192, ANDERSON, TX, 77830","Match","Exact","8863 CO RD 192, ANDERSON, TX, 77830",653223001,"R"
306943,"8863 GREENBACK LANE 108","ORANGEVALE","CA",95662,38.6784647480001,-121.227438954,443,"8863 GREENBACK LANE 108, ORANGEVALE, CA, 95662","Match","Exact","8863 GREENBACK LN, ORANGEVALE, CA, 95662",133356317,"L"
306944,"8863 GREENBACK LN STE 230","ORANGEVALE","CA",95662,38.6784647480001,-121.227438954,444,"8863 GREENBACK LN STE 230, ORANGEVALE, CA, 95662","Match","Exact","8863 GREENBACK LN, ORANGEVALE, CA, 95662",133356317,"L"
306945,"8863 GREENBACK LN STE 324","ORANGEVALE","CA",95662,38.6784647480001,-121.227438954,445,"8863 GREENBACK LN STE 324, ORANGEVALE, CA, 95662","Match","Exact","8863 GREENBACK LN, ORANGEVALE, CA, 95662",133356317,"L"
306946,"8863 ROSELAWN","DETROIT","MI",48204,42.3597248830001,-83.1496479739999,446,"8863 ROSELAWN, DETROIT, MI, 48204","Match","Non_Exact","8863 ROSELAWN ST, DETROIT, MI, 48204",95443458,"L"
306947,"8864 LA MANGA AVE","LAS VEGAS","NV",89147,36.1022889660001,-115.286823244,447,"8864 LA MANGA AVE, LAS VEGAS, NV, 89147","Match","Exact","8864 LA MANGA AVE, LAS VEGAS, NV, 89147",201932453,"R"
306948,"8864 PRAIRIE KNOLL DR","LONGMONT","CO",80503,40.206644607,-105.149043126,448,"8864 PRAIRIE KNOLL DR, LONGMONT, CO, 80503","Match","Exact","8864 PRAIRIE KNOLL DR, LONGMONT, CO, 80503",220753919,"R"
306949,"8865 COMMODITY CIRCLE 13-216","ORLANDO","FL",32839,NA,NA,449,"8865 COMMODITY CIRCLE 13-216, ORLANDO, FL, 32839","No_Match",NA,NA,NA,NA
306950,"8865 E ROSEMONT ST","INVERNESS","FL",34450,28.8091743200001,-82.287616799,450,"8865 E ROSEMONT ST, INVERNESS, FL, 34450","Match","Exact","8865 E ROSEMONT ST, INVERNESS, FL, 34450",86206072,"L"
306951,"8865 HAPPINESS ROAD","HARRISBURG","NC",28075,35.2917441060001,-80.654839303,451,"8865 HAPPINESS ROAD, HARRISBURG, NC, 28075","Match","Exact","8865 HAPPINESS RD, HARRISBURG, NC, 28075",648068556,"L"
306952,"8865 SW 132 STREET","MIAMI","FL",33176,25.6474820990001,-80.3373946039999,452,"8865 SW 132 STREET, MIAMI, FL, 33176","Match","Non_Exact","8865 SW 132ND ST, MIAMI, FL, 33176",115983204,"R"
306953,"8866 FOREST BREEZE DR","CORDOVA","TN",38018,35.110718938,-89.767112361,453,"8866 FOREST BREEZE DR, CORDOVA, TN, 38018","Match","Exact","8866 FOREST BREEZE DR, CORDOVA, TN, 38018",72954261,"L"
306954,"8866 GULF FREEWAY STE 401","HOUSTON","TX",77017,29.6614312240001,-95.2576962319999,454,"8866 GULF FREEWAY STE 401, HOUSTON, TX, 77017","Match","Exact","8866 GULF FWY, HOUSTON, TX, 77017",96600031,"R"
306955,"8866 GULF FREEWAY SUITE 320","HOUSTON","TX",77017,29.6614312240001,-95.2576962319999,455,"8866 GULF FREEWAY SUITE 320, HOUSTON, TX, 77017","Match","Exact","8866 GULF FWY, HOUSTON, TX, 77017",96600031,"R"
306956,"8867 CHESTNUT RD","HENRYETTA","OK",74437,NA,NA,456,"8867 CHESTNUT RD, HENRYETTA, OK, 74437","No_Match",NA,NA,NA,NA
306957,"88674 HIGHWAY 42 SO","BANDON","OR",7411,NA,NA,457,"88674 HIGHWAY 42 SO, BANDON, OR, 7411","No_Match",NA,NA,NA,NA
306958,"886795 HIGHWAY 9","LINEVILLE","AL",36266,NA,NA,458,"886795 HIGHWAY 9, LINEVILLE, AL, 36266","No_Match",NA,NA,NA,NA
306959,"8868 EAST 160 PL SOUTH","BIXBY","OK",74008,35.930628316,-95.878604547,459,"8868 EAST 160 PL SOUTH, BIXBY, OK, 74008","Match","Exact","8868 E 160TH PL S, BIXBY, OK, 74008",627424300,"R"
306960,"8868 STATE ROAD","GIRARD","PA",16417,41.9483630400001,-80.285285164,460,"8868 STATE ROAD, GIRARD, PA, 16417","Match","Exact","8868 STATE RD, GIRARD, PA, 16417",627067750,"L"
306961,"8868 SUNSTONE LN","MIDDLETON","WI",53562,43.103434427,-89.543038311,461,"8868 SUNSTONE LN, MIDDLETON, WI, 53562","Match","Exact","8868 SUNSTONE LN, MIDDLETON, WI, 53562",619767450,"R"
306962,"88680 HIGHWAY 3 NORTH","ST MARIES","ID",83861,NA,NA,462,"88680 HIGHWAY 3 NORTH, ST MARIES, ID, 83861","No_Match",NA,NA,NA,NA
306963,"8869 S 1125 W","OWENSVILLE","IN",47665,38.2238901920001,-87.776175385,463,"8869 S 1125 W, OWENSVILLE, IN, 47665","Match","Non_Exact","8869 CO RD 1125 W, OWENSVILLE, IN, 47665",647886112,"L"
306964,"887 BROOKLYN STREET","MORRISVILLE","VT",5661,44.574522791,-72.593328543,464,"887 BROOKLYN STREET, MORRISVILLE, VT, 5661","Match","Exact","887 BROOKLYN ST, MORRISVILLE, VT, 05661",136630242,"L"
306965,"887 CAMPBELL ROAD","CLARKTON","NC",28433,34.5376810710001,-78.658995779,465,"887 CAMPBELL ROAD, CLARKTON, NC, 28433","Match","Exact","887 CAMPBELL RD, CLARKTON, NC, 28433",629034868,"L"
306966,"887 FAIRFAX RD","DREXEL HILL","PA",19026,39.9598172020001,-75.29348586,466,"887 FAIRFAX RD, DREXEL HILL, PA, 19026","Match","Exact","887 FAIRFAX RD, DREXEL HILL, PA, 19026",652541924,"R"
306967,"887 GRANT PARK DRIVE","MOBILE","AL",36606,30.6732965940001,-88.1101273849999,467,"887 GRANT PARK DRIVE, MOBILE, AL, 36606","Match","Exact","887 GRANT PARK DR, MOBILE, AL, 36606",61984129,"R"
306968,"887 HARDCASTLE AVE","WOODBURN","OR",97071,45.145673018,-122.845460599,468,"887 HARDCASTLE AVE, WOODBURN, OR, 97071","Match","Exact","887 HARDCASTLE AVE, WOODBURN, OR, 97071",156262149,"R"
306969,"887 HARVEST POINTE DRIVE","FORT MILL","SC",29708,35.0167672260001,-80.990931651,469,"887 HARVEST POINTE DRIVE, FORT MILL, SC, 29708","Match","Exact","887 HARVEST POINTE DR, FORT MILL, SC, 29708",640463813,"L"
306970,"887 HIGHWAY 138 WEST","STOCKBRIDGE","GA",30281,33.550133762,-84.180373205,470,"887 HIGHWAY 138 WEST, STOCKBRIDGE, GA, 30281","Match","Non_Exact","887 HWY 138 E, STOCKBRIDGE, GA, 30281",648277098,"L"
306971,"887 JUMONVILLE ROAD","HOPWOOD","PA",15445,NA,NA,471,"887 JUMONVILLE ROAD, HOPWOOD, PA, 15445","No_Match",NA,NA,NA,NA
306972,"887 LEWIS CREEK RD","HINESBURG","VT",5461,44.28599108,-73.0912696349999,472,"887 LEWIS CREEK RD, HINESBURG, VT, 5461","Match","Exact","887 LEWIS CREEK RD, HINESBURG, VT, 05461",135848409,"R"
306973,"887 LORETTA DR","GOODLETTSVILLE","TN",37072,36.348757091,-86.708058427,473,"887 LORETTA DR, GOODLETTSVILLE, TN, 37072","Match","Exact","887 LORETTA DR, GOODLETTSVILLE, TN, 37072",635869590,"L"
306974,"887 MAIN ST","DARBY","PA",19023,39.9184474620001,-75.261757797,474,"887 MAIN ST, DARBY, PA, 19023","Match","Exact","887 MAIN ST, DARBY, PA, 19023",134886395,"R"
306975,"887 MERCER RD","BEAVER FALLS","PA",15010,40.7960268160001,-80.290207817,475,"887 MERCER RD, BEAVER FALLS, PA, 15010","Match","Exact","887 MERCER RD, BEAVER FALLS, PA, 15010",648209593,"L"
306976,"887 MOLLY CIR","SARASOTA","FL",34232,27.341681411,-82.456112095,476,"887 MOLLY CIR, SARASOTA, FL, 34232","Match","Exact","887 MOLLY CIR, SARASOTA, FL, 34232",646629638,"L"
306977,"887 N STATE ST","BATESVILLE","AR",72501,35.7753681450001,-91.6605036729999,477,"887 N STATE ST, BATESVILLE, AR, 72501","Match","Exact","887 N STATE ST, BATESVILLE, AR, 72501",41641242,"L"
306978,"887 PATRIOT DRIVE SUITE H","MOORPARK","CA",93021,34.2776455600001,-118.865101802,478,"887 PATRIOT DRIVE SUITE H, MOORPARK, CA, 93021","Match","Exact","887 PATRIOT DR, MOORPARK, CA, 93021",645825109,"L"
306979,"887 PITTS SCHOOL RD SW","CONCORD","NC",28027,35.3420955060001,-80.639254647,479,"887 PITTS SCHOOL RD SW, CONCORD, NC, 28027","Match","Exact","887 PITTS SCHOOL RD SW, CONCORD, NC, 28027",24928445,"R"
306980,"887 REMINGTON COVE","SOUTHAVEN","MS",38671,34.939752743,-90.006388036,480,"887 REMINGTON COVE, SOUTHAVEN, MS, 38671","Match","Exact","887 REMINGTON COVE, SOUTHAVEN, MS, 38671",91840309,"L"
306981,"887 ROSWELL CREEK LANE APT H","ROSWELL","GA",30076,NA,NA,481,"887 ROSWELL CREEK LANE APT H, ROSWELL, GA, 30076","No_Match",NA,NA,NA,NA
306982,"887 SUDBERRY LANE","EAGAN","MN",55123,44.7942986780001,-93.131041674,482,"887 SUDBERRY LANE, EAGAN, MN, 55123","Match","Exact","887 SUDBERRY LN, EAGAN, MN, 55123",639940661,"L"
306983,"8870 CHERRYGATE COURT","HUBER HEIGHTS","OH",45424,39.8811514060001,-84.133698387,483,"8870 CHERRYGATE COURT, HUBER HEIGHTS, OH, 45424","Match","Exact","8870 CHERRYGATE CT, HUBER HEIGHTS, OH, 45424",143572915,"R"
306984,"8870 EAST GARDEN VIEW DRIVE","ANAHEIM HILLS","CA",92808,NA,NA,484,"8870 EAST GARDEN VIEW DRIVE, ANAHEIM HILLS, CA, 92808","No_Match",NA,NA,NA,NA
306985,"8870 N HIMES AVE UNIT 138","TAMPA","FL",33614,28.0358684390001,-82.5006602719999,485,"8870 N HIMES AVE UNIT 138, TAMPA, FL, 33614","Match","Non_Exact","8870 N HIMES AVE, TAMPA, FL, 33614",104629944,"L"
306986,"8870 NW 36 ST  SUITE 3201","DORAL","FL",33178,25.8107305090001,-80.342863398,486,"8870 NW 36 ST  SUITE 3201, DORAL, FL, 33178","Match","Non_Exact","8870 NW 36TH ST, DORAL, FL, 33178",640561881,"L"
306987,"8870 SPRING LANE","WOODBURY","MN",55125,44.940781601,-92.9251203059999,487,"8870 SPRING LANE, WOODBURY, MN, 55125","Match","Exact","8870 SPRING LN, WOODBURY, MN, 55125",647238550,"L"
306988,"8870 WATERSIDE POINT","PARKLAND","FL",33076,26.3417583240001,-80.254307103,488,"8870 WATERSIDE POINT, PARKLAND, FL, 33076","Match","Exact","8870 WATERSIDE PT, PARKLAND, FL, 33076",648590545,"L"
306989,"8870 YOUREE DRIVE SUITE 207","SHREVEPORT","LA",71115,32.4177137520001,-93.703858005,489,"8870 YOUREE DRIVE SUITE 207, SHREVEPORT, LA, 71115","Match","Exact","8870 YOUREE DR, SHREVEPORT, LA, 71115",57484450,"R"
306990,"8871 GORMAN ROAD SUITE 100","LAUREL","MD",20723,39.1318821460001,-76.820977365,490,"8871 GORMAN ROAD SUITE 100, LAUREL, MD, 20723","Match","Exact","8871 GORMAN RD, LAUREL, MD, 20723",158959748,"R"
306991,"8871 HARVEY RD","CHURUBUSCO","IN",46723,41.198477634,-85.258672872,491,"8871 HARVEY RD, CHURUBUSCO, IN, 46723","Match","Exact","8871 HARVEY RD, CHURUBUSCO, IN, 46723",6369699,"L"
306992,"8871 NW 103RD PLACE","DORAL","FL",33178,25.854294624,-80.365670628,492,"8871 NW 103RD PLACE, DORAL, FL, 33178","Match","Exact","8871 NW 103RD PL, DORAL, FL, 33178",648133236,"L"
306993,"8871 SOUTH BECK PLACE","HOMETOWN","IL",60456,41.73106396,-87.729542765,493,"8871 SOUTH BECK PLACE, HOMETOWN, IL, 60456","Match","Exact","8871 S BECK PL, HOMETOWN, IL, 60456",111817181,"L"
306994,"8871 W FLAMINGO RD STE 202","LAS VEGAS","NV",89147,36.114903972,-115.285795889,494,"8871 W FLAMINGO RD STE 202, LAS VEGAS, NV, 89147","Match","Non_Exact","8871 W FLAMINGO RD, LAS VEGAS, NV, 89147",640229400,"L"
306995,"8871 W FLAMINGO ROAD 202","LAS VEGAS","NV",89147,36.114903972,-115.285795889,495,"8871 W FLAMINGO ROAD 202, LAS VEGAS, NV, 89147","Match","Non_Exact","8871 W FLAMINGO RD, LAS VEGAS, NV, 89147",640229400,"L"
306996,"8872 BURNET AVE","NORTH HILLS","CA",91343,34.2311835510001,-118.463257071,496,"8872 BURNET AVE, NORTH HILLS, CA, 91343","Match","Exact","8872 BURNET AVE, NORTH HILLS, CA, 91343",141549092,"R"
306997,"8872 JODY LN  APT 1C","DES PLAINES","IL",60016,42.055762896,-87.847129776,497,"8872 JODY LN  APT 1C, DES PLAINES, IL, 60016","Match","Exact","8872 JODY LN, DES PLAINES, IL, 60016",111730609,"L"
306998,"8872 MARYLEE DRIVE","GARDEN GROVE","CA",92841,33.78932948,-117.97765059,498,"8872 MARYLEE DRIVE, GARDEN GROVE, CA, 92841","Match","Exact","8872 MARYLEE DR, GARDEN GROVE, CA, 92841",144015888,"R"
306999,"8872 S SILVERSTONE WAY","SANDY","UT",84093,40.5900804030001,-111.830370979,499,"8872 S SILVERSTONE WAY, SANDY, UT, 84093","Match","Exact","8872 SILVERSTONE WAY, SANDY, UT, 84093",176124808,"L"
307000,"8872 SOUTH 2240 WEST","WEST JORDAN","UT",84088,40.5900338600001,-111.948927383,500,"8872 SOUTH 2240 WEST, WEST JORDAN, UT, 84088","Match","Exact","8872 S 2240 W, WEST JORDAN, UT, 84088",176127140,"L"
