"ID","Address","City","State","Zip","lat","long","id","input_address","match_indicator","match_type","matched_address","tiger_line_id","tiger_side"
133501,"2410 GROVE AVENUE","SAN DIEGO","CA",92154,32.572815318,-117.082019503,1,"2410 GROVE AVENUE, SAN DIEGO, CA, 92154","Match","Exact","2410 GROVE AVE, SAN DIEGO, CA, 92154",195686133,"L"
133502,"2410 HARRIET STREET","RACINE","WI",53404,42.735142797,-87.8104763759999,2,"2410 HARRIET STREET, RACINE, WI, 53404","Match","Exact","2410 HARRIET ST, RACINE, WI, 53404",77909076,"R"
133503,"2410 LA LUNA DR","HENDERSON","NV",89014,36.0650111480001,-115.089048,3,"2410 LA LUNA DR, HENDERSON, NV, 89014","Match","Exact","2410 LA LUNA DR, HENDERSON, NV, 89014",201879385,"R"
133504,"2410 LANGSTRATH LANE","CUMMING","GA",30041,34.1265620560001,-84.1980036639999,4,"2410 LANGSTRATH LANE, CUMMING, GA, 30041","Match","Exact","2410 LANGSTRATH LN, CUMMING, GA, 30041",653441674,"R"
133505,"2410 LONG MEADOW DR","MURFEESBORO","TN",37129,35.88967352,-86.3880230619999,5,"2410 LONG MEADOW DR, MURFEESBORO, TN, 37129","Match","Non_Exact","2410 LONG MEADOW DR, MURFREESBORO, TN, 37129",59025944,"L"
133506,"2410 MARTIN STREET","CROSS PLAINS","WI",53528,43.1132532870001,-89.643224751,6,"2410 MARTIN STREET, CROSS PLAINS, WI, 53528","Match","Exact","2410 MARTIN ST, CROSS PLAINS, WI, 53528",49461507,"R"
133507,"2410 N BOLTON AVE","INDIANAPOLIS","IN",46218,39.801215164,-86.066914767,7,"2410 N BOLTON AVE, INDIANAPOLIS, IN, 46218","Match","Exact","2410 N BOLTON AVE, INDIANAPOLIS, IN, 46218",108048131,"L"
133508,"2410 N FOREST ROAD THIRD FLOOR","GETZVILLE","NY",14068,43.0096292310001,-78.776843734,8,"2410 N FOREST ROAD THIRD FLOOR, GETZVILLE, NY, 14068","Match","Non_Exact","2410 N FOREST RD, GETZVILLE, NY, 14068",48323216,"L"
133509,"2410 N MISSISSIPPI AVE","PORTLAND","OR",97227,45.540212786,-122.675799812,9,"2410 N MISSISSIPPI AVE, PORTLAND, OR, 97227","Match","Exact","2410 N MISSISSIPPI AVE, PORTLAND, OR, 97227",157504294,"R"
133510,"2410 N PEORIA AVE","PEORIA","IL",61603,40.7164581260001,-89.591211304,10,"2410 N PEORIA AVE, PEORIA, IL, 61603","Match","Exact","2410 N PEORIA AVE, PEORIA, IL, 61603",8718992,"R"
133511,"2410 NORTHSIDE DR","CLEARWATER","FL",33761,28.0398053980001,-82.733129741,11,"2410 NORTHSIDE DR, CLEARWATER, FL, 33761","Match","Exact","2410 NORTHSIDE DR, CLEARWATER, FL, 33761",124680843,"R"
133512,"2410 NW 64TH PLACE","GAINESVILLE","FL",32653,29.7140351100001,-82.360766462,12,"2410 NW 64TH PLACE, GAINESVILLE, FL, 32653","Match","Exact","2410 NW 64TH PL, GAINESVILLE, FL, 32653",6821324,"R"
133513,"2410 ODESSA AVE","FREDERICKSBURG","IA",50630,42.9967104840001,-92.258642505,13,"2410 ODESSA AVE, FREDERICKSBURG, IA, 50630","Match","Exact","2410 ODESSA AVE, FREDERICKSBURG, IA, 50630",9744070,"R"
133514,"2410 OLD COACH TRL","CLEARWATER","FL",33765,27.978694057,-82.737992259,14,"2410 OLD COACH TRL, CLEARWATER, FL, 33765","Match","Exact","2410 OLD COACH TRL, CLEARWATER, FL, 33765",124683200,"R"
133515,"2410 QUINCY LOOP","FAIRBURN","GA",30213,33.54214398,-84.5274011239999,15,"2410 QUINCY LOOP, FAIRBURN, GA, 30213","Match","Exact","2410 QUINCY LOOP, FAIRBURN, GA, 30213",635810879,"R"
133516,"2410 RAMBLEWOOD DRIVE","DISTRICT HEIGHTS","MD",20747,38.856605358,-76.8890143409999,16,"2410 RAMBLEWOOD DRIVE, DISTRICT HEIGHTS, MD, 20747","Match","Exact","2410 RAMBLEWOOD DR, DISTRICT HEIGHTS, MD, 20747",76318687,"L"
133517,"2410 RIPPLEMEADE CT","HERNDON","VA",20171,38.942196391,-77.392858254,17,"2410 RIPPLEMEADE CT, HERNDON, VA, 20171","Match","Exact","2410 RIPPLEMEADE CT, HERNDON, VA, 20171",646747783,"R"
133518,"2410 S 9TH STREET","LAFAYETTE","IN",47909,40.392665918,-86.885901132,18,"2410 S 9TH STREET, LAFAYETTE, IN, 47909","Match","Exact","2410 S 9TH ST, LAFAYETTE, IN, 47909",639702732,"R"
133519,"2410 S GLENCOE ROAD","NEW SMYRNA BEACH","FL",32168,28.9821175450001,-80.9560917479999,19,"2410 S GLENCOE ROAD, NEW SMYRNA BEACH, FL, 32168","Match","Exact","2410 S GLENCOE RD, NEW SMYRNA BEACH, FL, 32168",649025796,"L"
133520,"2410 S KIRKWOOD APT 299","HOUSTON","TX",77077,NA,NA,20,"2410 S KIRKWOOD APT 299, HOUSTON, TX, 77077","No_Match",NA,NA,NA,NA
133521,"2410 S WHIPPLE ST","CHICAGO","IL",60623,41.847886246,-87.701468117,21,"2410 S WHIPPLE ST, CHICAGO, IL, 60623","Match","Exact","2410 S WHIPPLE ST, CHICAGO, IL, 60623",111801972,"R"
133522,"2410 SEMORAN DR","PENSACOLA","FL",32503,30.4433289350001,-87.175342744,22,"2410 SEMORAN DR, PENSACOLA, FL, 32503","Match","Exact","2410 SEMORAN DR, PENSACOLA, FL, 32503",93223449,"R"
133523,"2410 SHEA BLVD","MASSAPEQUA","NY",11758,40.6891555870001,-73.4279167239999,23,"2410 SHEA BLVD, MASSAPEQUA, NY, 11758","Match","Exact","2410 SHEA BLVD, MASSAPEQUA, NY, 11758",637907533,"L"
133524,"2410 SOUTH 4TH AVENUE","CHEYENNE","WY",82007,41.0961141020001,-104.816894755,24,"2410 SOUTH 4TH AVENUE, CHEYENNE, WY, 82007","Match","Exact","2410 S 4TH AVE, CHEYENNE, WY, 82007",640053862,"R"
133525,"2410 SOUTH KIRKWOOD ROAD SUITE 260","HOUSTON","TX",77077,29.7397753830001,-95.588669705,25,"2410 SOUTH KIRKWOOD ROAD SUITE 260, HOUSTON, TX, 77077","Match","Exact","2410 S KIRKWOOD RD, HOUSTON, TX, 77077",96619175,"L"
133526,"2410 STANTON DR","PIERRE","SD",57501,44.3691819220001,-100.316931256,26,"2410 STANTON DR, PIERRE, SD, 57501","Match","Non_Exact","2410 STANTON, PIERRE, SD, 57501",646166221,"R"
133527,"2410 STRAWBERRY ROAD","LONGS","SC",29568,33.852961334,-78.7561104869999,27,"2410 STRAWBERRY ROAD, LONGS, SC, 29568","Match","Exact","2410 STRAWBERRY RD, LONGS, SC, 29568",29051842,"L"
133528,"2410 SW 10TH AVENUE","TOPEKA","KS",66604,39.0513568960001,-95.707432582,28,"2410 SW 10TH AVENUE, TOPEKA, KS, 66604","Match","Exact","2410 SW 10TH AVE, TOPEKA, KS, 66604",17886961,"R"
133529,"2410 TUNNEL BLVD","CHATTANOOGA","TN",37406,35.0595782710001,-85.230000053,29,"2410 TUNNEL BLVD, CHATTANOOGA, TN, 37406","Match","Exact","2410 TUNNEL BLVD, CHATTANOOGA, TN, 37406",59310716,"R"
133530,"2410 W AZEELE ST UNIT 217","TAMPA","FL",33609,27.941091495,-82.4842000099999,30,"2410 W AZEELE ST UNIT 217, TAMPA, FL, 33609","Match","Non_Exact","2410 W AZEELE ST, TAMPA, FL, 33609",104526794,"L"
133531,"2410 W GROUSE AVE","NAMPA","ID",83651,43.5837209170001,-116.610454467,31,"2410 W GROUSE AVE, NAMPA, ID, 83651","Match","Exact","2410 W GROUSE AVE, NAMPA, ID, 83651",122834782,"L"
133532,"2410 W NIGHT OWL LN","PHOENIX","AZ",85085,33.795997958,-112.111981754,32,"2410 W NIGHT OWL LN, PHOENIX, AZ, 85085","Match","Exact","2410 W NIGHT OWL LN, PHOENIX, AZ, 85085",243972790,"L"
133533,"2410 W ROGERS AVE","BALTIMORE","MD",21209,39.3574821890001,-76.666782881,33,"2410 W ROGERS AVE, BALTIMORE, MD, 21209","Match","Exact","2410 W ROGERS AVE, BALTIMORE, MD, 21209",206465104,"R"
133534,"2410 W ROHMANN AVE","WEST PEORIA","IL",61604,40.6960027380001,-89.6312205959999,34,"2410 W ROHMANN AVE, WEST PEORIA, IL, 61604","Match","Exact","2410 W ROHMANN AVE, WEST PEORIA, IL, 61604",8715971,"L"
133535,"2410 WALHALA DRIVE","RICHMOND","VA",23236,37.463120157,-77.5640671739999,35,"2410 WALHALA DRIVE, RICHMOND, VA, 23236","Match","Exact","2410 WALHALA DR, RICHMOND, VA, 23236",201544057,"R"
133536,"2410 WALNUT ST","RENO","NV",89502,39.490982307,-119.744640064,36,"2410 WALNUT ST, RENO, NV, 89502","Match","Exact","2410 WALNUT ST, RENO, NV, 89502",107069741,"R"
133537,"2410 WARRIOR CRICLE 927","FORT WORTH","TX",76119,32.7051848020001,-97.291780579,37,"2410 WARRIOR CRICLE 927, FORT WORTH, TX, 76119","Match","Non_Exact","2410 WARRIOR CIR, FORT WORTH, TX, 76119",619874751,"R"
133538,"2410 WEST MARKS PLACE","DUNLAP","IL",61525,40.828360279,-89.628681049,38,"2410 WEST MARKS PLACE, DUNLAP, IL, 61525","Match","Exact","2410 W MARKS PL, DUNLAP, IL, 61525",8732328,"L"
133539,"2410 WSC BYU","PROVO","UT",84602,NA,NA,39,"2410 WSC BYU, PROVO, UT, 84602","No_Match",NA,NA,NA,NA
133540,"2410 YELLOW MAPLE LANE","FRESNO","TX",77545,29.549400441,-95.481992602,40,"2410 YELLOW MAPLE LANE, FRESNO, TX, 77545","Match","Exact","2410 YELLOW MAPLE LN, FRESNO, TX, 77545",641153783,"R"
133541,"24100 CALABASAS RD 100","CALABASAS","CA",91302,34.152322978,-118.651484317,41,"24100 CALABASAS RD 100, CALABASAS, CA, 91302","Match","Exact","24100 CALABASAS RD, CALABASAS, CA, 91302",241104580,"R"
133542,"24100 SOUTHFIELD RD SUITE 216","SOUTHFIELD","MI",48075,NA,NA,42,"24100 SOUTHFIELD RD SUITE 216, SOUTHFIELD, MI, 48075","No_Match",NA,NA,NA,NA
133543,"24100 SOUTHFIELD ROAD","SOUTHFIELD","MI",48207,NA,NA,43,"24100 SOUTHFIELD ROAD, SOUTHFIELD, MI, 48207","No_Match",NA,NA,NA,NA
133544,"24101 RIDGE ROAD","GERMANTOWN","MD",24101,39.2513020850001,-77.232202537,44,"24101 RIDGE ROAD, GERMANTOWN, MD, 24101","Match","Non_Exact","24101 RIDGE RD, GERMANTOWN, MD, 20876",62079708,"L"
133545,"24102 HOLLYOAK E","ALISO VIEJO","CA",92656,33.577004168,-117.70985922,45,"24102 HOLLYOAK E, ALISO VIEJO, CA, 92656","Match","Non_Exact","24102 HOLLYOAK, ALISO VIEJO, CA, 92656",647332123,"R"
133546,"24102 SPRING TOWNE DRIVE","SPRING","TX",77373,30.0602555,-95.390476064,46,"24102 SPRING TOWNE DRIVE, SPRING, TX, 77373","Match","Exact","24102 SPRING TOWNE DR, SPRING, TX, 77373",96041757,"R"
133547,"24103 BANKER STREET","STURGIS","MI",49091,41.868221308,-85.4855460589999,47,"24103 BANKER STREET, STURGIS, MI, 49091","Match","Exact","24103 BANKER ST, STURGIS, MI, 49091",15330606,"L"
133548,"24105 W HADLEY STREET","BUCKEYE","AZ",85326,33.437996685,-112.569540874,48,"24105 W HADLEY STREET, BUCKEYE, AZ, 85326","Match","Exact","24105 W HADLEY ST, BUCKEYE, AZ, 85326",244022174,"R"
133549,"241081 PO BOX","ANCHORAGE","AK",99524,NA,NA,49,"241081 PO BOX, ANCHORAGE, AK, 99524","No_Match",NA,NA,NA,NA
133550,"24109 RAVENNA AVE","CARSON","CA",90745,33.8061390020001,-118.268938335,50,"24109 RAVENNA AVE, CARSON, CA, 90745","Match","Exact","24109 RAVENNA AVE, CARSON, CA, 90745",141681709,"R"
133551,"2411 15TH AVE","MILTON","WA",98354,47.240143801,-122.315242189,51,"2411 15TH AVE, MILTON, WA, 98354","Match","Exact","2411 15TH AVE, MILTON, WA, 98354",184632523,"R"
133552,"2411 ACADEMY CIRCLE SUITE E","KISSIMMEE","FL",34744,28.2822250830001,-81.344395743,52,"2411 ACADEMY CIRCLE SUITE E, KISSIMMEE, FL, 34744","Match","Non_Exact","2411 ACADEMY CIR E, KISSIMMEE, FL, 34744",607071186,"L"
133553,"2411 ANDREWS BLVD","HAMPTON","VA",23663,37.05128632,-76.3029156109999,53,"2411 ANDREWS BLVD, HAMPTON, VA, 23663","Match","Exact","2411 ANDREWS BLVD, HAMPTON, VA, 23663",103810314,"L"
133554,"2411 ARROW STREET","RAPID CITY","SD",57702,44.068128395,-103.260282626,54,"2411 ARROW STREET, RAPID CITY, SD, 57702","Match","Exact","2411 ARROW ST, RAPID CITY, SD, 57702",205507952,"L"
133555,"2411 BLUEBONNET DRIVE","RICHARDSON","TX",75082,32.9953020830001,-96.678774402,55,"2411 BLUEBONNET DRIVE, RICHARDSON, TX, 75082","Match","Exact","2411 BLUEBONNET DR, RICHARDSON, TX, 75082",123490413,"L"
133556,"2411 BOSWELL ROAD","CHULA VISTA","CA",91914,32.6554546520001,-116.964648415,56,"2411 BOSWELL ROAD, CHULA VISTA, CA, 91914","Match","Exact","2411 BOSWELL RD, CHULA VISTA, CA, 91914",195671754,"L"
133557,"2411 BROOK MILLS CT","KATY","TX",77494,29.757085298,-95.8524404729999,57,"2411 BROOK MILLS CT, KATY, TX, 77494","Match","Non_Exact","2411 BROCK MILLS CT, KATY, TX, 77494",641047971,"R"
133558,"2411 CALCUTTA DR","SALINA","KS",67401,38.7971287300001,-97.589340658,58,"2411 CALCUTTA DR, SALINA, KS, 67401","Match","Exact","2411 CALCUTTA DR, SALINA, KS, 67401",196699702,"L"
133559,"2411 CEDAR STREET","EVERETT","WA",98201,47.985498631,-122.19363102,59,"2411 CEDAR STREET, EVERETT, WA, 98201","Match","Exact","2411 CEDAR ST, EVERETT, WA, 98201",187745527,"L"
133560,"2411 DE LEE ST 3","BRYAN","TX",77802,30.6583699980001,-96.345384752,60,"2411 DE LEE ST 3, BRYAN, TX, 77802","Match","Non_Exact","2411 DE LEE ST, BRYAN, TX, 77802",21815534,"L"
133561,"2411 DIVISION STREET UNIT A","HOUSTON","TX",77004,29.7324270710001,-95.365373345,61,"2411 DIVISION STREET UNIT A, HOUSTON, TX, 77004","Match","Exact","2411 DIVISION ST, HOUSTON, TX, 77004",96071972,"L"
133562,"2411 DUNCAN DRIVE","NICEVILLE","FL",32578,30.508957153,-86.4461423509999,62,"2411 DUNCAN DRIVE, NICEVILLE, FL, 32578","Match","Exact","2411 DUNCAN DR, NICEVILLE, FL, 32578",638631165,"L"
133563,"2411 DUNN AVE ROOM 135E","RALEIGH","NC",27695,NA,NA,63,"2411 DUNN AVE ROOM 135E, RALEIGH, NC, 27695","No_Match",NA,NA,NA,NA
133564,"2411 E 9TH STREET","DOUGLAS","AZ",85607,NA,NA,64,"2411 E 9TH STREET, DOUGLAS, AZ, 85607","Tie",NA,NA,NA,NA
133565,"2411 E RIVERSIDE DRIVE Q301","EAGLE","ID",83616,NA,NA,65,"2411 E RIVERSIDE DRIVE Q301, EAGLE, ID, 83616","No_Match",NA,NA,NA,NA
133566,"2411 FENTON STREET SUITE 102","CHULA VISTA","CA",91914,32.6524584640001,-116.961597386,66,"2411 FENTON STREET SUITE 102, CHULA VISTA, CA, 91914","Match","Exact","2411 FENTON ST, CHULA VISTA, CA, 91914",195667948,"L"
133567,"2411 FOXGLOVE","HIGHLANDS","TX",77562,29.815935118,-95.024064681,67,"2411 FOXGLOVE, HIGHLANDS, TX, 77562","Match","Non_Exact","2411 FOXGLOVE ST, HIGHLANDS, TX, 77562",96108095,"L"
133568,"2411 GARFIELD AVENUE","ALTOONA","WI",54720,44.8044807300001,-91.4482507559999,68,"2411 GARFIELD AVENUE, ALTOONA, WI, 54720","Match","Exact","2411 GARFIELD AVE, ALTOONA, WI, 54720",46068624,"L"
133569,"2411 GLOBE AVENUE","LUBBOCK","TX",79404,33.572618344,-101.828911356,69,"2411 GLOBE AVENUE, LUBBOCK, TX, 79404","Match","Exact","2411 GLOBE AVE, LUBBOCK, TX, 79404",185326586,"L"
133570,"2411 HOLLYOAK APT F","ALISO VIEJO","CA",92656,NA,NA,70,"2411 HOLLYOAK APT F, ALISO VIEJO, CA, 92656","No_Match",NA,NA,NA,NA
133571,"2411 KID CURRY DRIVE","BOZEMAN","MT",59718,45.762818603,-111.095691563,71,"2411 KID CURRY DRIVE, BOZEMAN, MT, 59718","Match","Exact","2411 KID CURRY DR, BOZEMAN, MT, 59718",163495656,"R"
133572,"2411 LINCOLN STREET","EVANSTON","IL",60201,42.0621620840001,-87.7068052659999,72,"2411 LINCOLN STREET, EVANSTON, IL, 60201","Match","Exact","2411 LINCOLN ST, EVANSTON, IL, 60201",111739915,"R"
133573,"2411 LINDEN AVE","LONG BEACH","CA",90806,33.8010485030001,-118.186104907,73,"2411 LINDEN AVE, LONG BEACH, CA, 90806","Match","Exact","2411 LINDEN AVE, LONG BEACH, CA, 90806",141686910,"L"
133574,"2411 MONTANA AVE APT 3","CINCINNATI","OH",45211,39.157146577,-84.574340779,74,"2411 MONTANA AVE APT 3, CINCINNATI, OH, 45211","Match","Exact","2411 MONTANA AVE, CINCINNATI, OH, 45211",103971501,"L"
133575,"2411 NW 7TH ST SUITE 613","FORT LAUDERDALE","FL",33311,26.1312587790001,-80.174477098,75,"2411 NW 7TH ST SUITE 613, FORT LAUDERDALE, FL, 33311","Match","Non_Exact","2411 NW 7TH ST, FORT LAUDERDALE, FL, 33311",638026121,"R"
133576,"2411 NW 98TH LANE","SUNRISE","FL",33322,26.1544315570001,-80.2803548909999,76,"2411 NW 98TH LANE, SUNRISE, FL, 33322","Match","Non_Exact","2411 NW 98TH AVE, SUNRISE, FL, 33322",114703313,"L"
133577,"2411 OLD CROW CANYON","SAN RAMON","CA",94583,NA,NA,77,"2411 OLD CROW CANYON, SAN RAMON, CA, 94583","Tie",NA,NA,NA,NA
133578,"2411 PARKLAND BLVD APT 11","SHILOH","IL",62269,38.567730397,-89.9079624839999,78,"2411 PARKLAND BLVD APT 11, SHILOH, IL, 62269","Match","Exact","2411 PARKLAND BLVD, SHILOH, IL, 62269",635625142,"L"
133579,"2411 POINCIANA PLACE","DALLAS","TX",75212,32.7922100420001,-96.861132933,79,"2411 POINCIANA PLACE, DALLAS, TX, 75212","Match","Exact","2411 POINCIANA PL, DALLAS, TX, 75212",632051289,"L"
133580,"2411 PRINCESS PLACE DR","WILMINGTON","NC",28405,34.243599692,-77.917094202,80,"2411 PRINCESS PLACE DR, WILMINGTON, NC, 28405","Match","Exact","2411 PRINCESS PLACE DR, WILMINGTON, NC, 28405",152732833,"L"
133581,"2411 S 12TH ST","MANITOWOC","WI",54220,44.0695202050001,-87.6634129189999,81,"2411 S 12TH ST, MANITOWOC, WI, 54220","Match","Exact","2411 S 12TH ST, MANITOWOC, WI, 54220",147950640,"L"
133582,"2411 S ATLANTIC STREET","BOISE","ID",83705,43.580922259,-116.226316257,82,"2411 S ATLANTIC STREET, BOISE, ID, 83705","Match","Exact","2411 S ATLANTIC ST, BOISE, ID, 83705",117863859,"R"
133583,"2411 S CAROL AVE","YUMA","AZ",85365,32.683773224,-114.607868429,83,"2411 S CAROL AVE, YUMA, AZ, 85365","Match","Exact","2411 CAROL AVE, YUMA, AZ, 85365",129626282,"L"
133584,"2411 S JENKINS ROAD","FORT PIERCE","FL",34947,27.4212491050001,-80.382765609,84,"2411 S JENKINS ROAD, FORT PIERCE, FL, 34947","Match","Exact","2411 S JENKINS RD, FORT PIERCE, FL, 34947",610737374,"L"
133585,"2411 SAHALEE DR E","SAMMAMISH","WA",98074,47.6310187180001,-122.048772564,85,"2411 SAHALEE DR E, SAMMAMISH, WA, 98074","Match","Exact","2411 SAHALEE DR E, SAMMAMISH, WA, 98074",187001263,"L"
133586,"2411 SHAWNEE DR","COLORADO SPRINGS","CO",80915,38.866976585,-104.694024007,86,"2411 SHAWNEE DR, COLORADO SPRINGS, CO, 80915","Match","Exact","2411 SHAWNEE DR, COLORADO SPRINGS, CO, 80915",610715077,"L"
133587,"2411 SOUTH CAROL AVE","YUMA","AZ",85364,NA,NA,87,"2411 SOUTH CAROL AVE, YUMA, AZ, 85364","No_Match",NA,NA,NA,NA
133588,"2411 SUTTON COURT","LAREDO","TX",78045,27.5795247560001,-99.459721756,88,"2411 SUTTON COURT, LAREDO, TX, 78045","Match","Exact","2411 SUTTON CT, LAREDO, TX, 78045",21694785,"L"
133589,"2411 TERMINAL AVE","GRANITE CITY","IL",62040,38.7101406830001,-90.105702906,89,"2411 TERMINAL AVE, GRANITE CITY, IL, 62040","Match","Exact","2411 TERMINAL AVE, GRANITE CITY, IL, 62040",107688443,"L"
133590,"2411 TULIP STREET","PHILADELPHIA","PA",19125,39.9799524360001,-75.125859197,90,"2411 TULIP STREET, PHILADELPHIA, PA, 19125","Match","Exact","2411 TULIP ST, PHILADELPHIA, PA, 19125",131425436,"R"
133591,"2411 W OKMULGEE","MUSKOGEE","OK",74401,35.755038589,-95.394912757,91,"2411 W OKMULGEE, MUSKOGEE, OK, 74401","Match","Non_Exact","2411 W OKMULGEE AVE, MUSKOGEE, OK, 74401",91958930,"R"
133592,"2411 W STREET","SACRAMENTO","CA",95818,38.560928668,-121.480504881,92,"2411 W STREET, SACRAMENTO, CA, 95818","Match","Exact","2411 W ST, SACRAMENTO, CA, 95818",133324461,"L"
133593,"2411 WASHINGTON AVE UNIT 419","HOUSTON","TX",77007,29.768310188,-95.382905592,93,"2411 WASHINGTON AVE UNIT 419, HOUSTON, TX, 77007","Match","Exact","2411 WASHINGTON AVE, HOUSTON, TX, 77007",96066467,"L"
133594,"2411 WEST 14TH","PINE BLUFF","AR",71603,34.2156238750001,-92.026725504,94,"2411 WEST 14TH, PINE BLUFF, AR, 71603","Match","Non_Exact","2411 W 14TH AVE, PINE BLUFF, AR, 71603",2581429,"R"
133595,"2411 WINEWOOD DR","ARLINGTON","TX",76013,NA,NA,95,"2411 WINEWOOD DR, ARLINGTON, TX, 76013","No_Match",NA,NA,NA,NA
133596,"2411 WYCKCHESTER DRIVE","PEARLAND","TX",77584,29.550434217,-95.356827548,96,"2411 WYCKCHESTER DRIVE, PEARLAND, TX, 77584","Match","Exact","2411 WYCKCHESTER DR, PEARLAND, TX, 77584",116648891,"L"
133597,"2411","MYRTLE BEACH","SC",29577,NA,NA,97,"2411, MYRTLE BEACH, SC, 29577","No_Match",NA,NA,NA,NA
133598,"24110 OUTER DRIVE","MELVIDALE","MI",48122,42.2741055290001,-83.196840212,98,"24110 OUTER DRIVE, MELVIDALE, MI, 48122","Match","Non_Exact","24110 OUTER DR, MELVINDALE, MI, 48122",95448735,"R"
133599,"24111 445TH PLACE","AITKIN","MN",56431,46.3618494930001,-93.779262664,99,"24111 445TH PLACE, AITKIN, MN, 56431","Match","Exact","24111 445TH PL, AITKIN, MN, 56431",162606479,"R"
133600,"24111 FORESTCREST DRIVE","SPRING","TX",77389,30.1120165140001,-95.5211241649999,100,"24111 FORESTCREST DRIVE, SPRING, TX, 77389","Match","Exact","24111 FORESTCREST DR, SPRING, TX, 77389",96001865,"L"
133601,"24111 PINHOOK ROAD","MENDON","MI",49072,42.0208380080001,-85.4877857659999,101,"24111 PINHOOK ROAD, MENDON, MI, 49072","Match","Exact","24111 PINHOOK RD, MENDON, MI, 49072",15329863,"L"
133602,"24112 GRASS LAKE ROAD","WINSTED","MN",55395,44.9655728600001,-94.059397265,102,"24112 GRASS LAKE ROAD, WINSTED, MN, 55395","Match","Exact","24112 GRASS LAKE RD, WINSTED, MN, 55395",36818284,"R"
133603,"24113 EAST SILSBY ROAD","BEACHWOOD","OH",44122,41.4979804130001,-81.5086954129999,103,"24113 EAST SILSBY ROAD, BEACHWOOD, OH, 44122","Match","Exact","24113 E SILSBY RD, BEACHWOOD, OH, 44122",61134030,"L"
133604,"24113 W 103RD ST","NAPERVILLE","IL",60564,41.6951879700001,-88.207386351,104,"24113 W 103RD ST, NAPERVILLE, IL, 60564","Match","Exact","24113 103RD ST, NAPERVILLE, IL, 60564",600654192,"R"
133605,"24114 VECCHIO","SAN ANTONIO","TN",78260,NA,NA,105,"24114 VECCHIO, SAN ANTONIO, TN, 78260","No_Match",NA,NA,NA,NA
133606,"24116 MEADOWCREEK CIR E","SOUTH LYON","MI",48178,42.4606459120001,-83.613413716,106,"24116 MEADOWCREEK CIR E, SOUTH LYON, MI, 48178","Match","Exact","24116 MEADOWCREEK CIR E, SOUTH LYON, MI, 48178",646427590,"L"
133607,"241163 JOANNE AVE","WARREN","MI",48091,NA,NA,107,"241163 JOANNE AVE, WARREN, MI, 48091","No_Match",NA,NA,NA,NA
133608,"24118 CEDAR CREEK LANE","PLAINFIELD","IL",60586,41.585538453,-88.205994151,108,"24118 CEDAR CREEK LANE, PLAINFIELD, IL, 60586","Match","Exact","24118 CEDAR CREEK LN, PLAINFIELD, IL, 60586",111637589,"L"
133609,"24119 LOTUS DRIVE","KANSASVILLE","WI",53139,42.71097038,-88.125904614,109,"24119 LOTUS DRIVE, KANSASVILLE, WI, 53139","Match","Exact","24119 LOTUS DR, KANSASVILLE, WI, 53139",77914240,"R"
133610,"2412 61ST STREET","GALVESTON","TX",77551,29.275384709,-94.831038011,110,"2412 61ST STREET, GALVESTON, TX, 77551","Match","Exact","2412 61ST ST, GALVESTON, TX, 77551",96729474,"L"
133611,"2412 AZALEA GARDEN RD APT 105","NORFOLK","VA",23513,36.872540606,-76.2310762719999,111,"2412 AZALEA GARDEN RD APT 105, NORFOLK, VA, 23513","Match","Exact","2412 AZALEA GARDEN RD, NORFOLK, VA, 23513",122141907,"R"
133612,"2412 BANDY ROAD","ASHLAND CITY","TN",37015,36.2801077440001,-86.9925623409999,112,"2412 BANDY ROAD, ASHLAND CITY, TN, 37015","Match","Exact","2412 BANDY RD, ASHLAND CITY, TN, 37015",72879347,"R"
133613,"2412 BLINK BONNIE ROAD","RIDGEWAY","SC",29130,34.331690301,-80.819274212,113,"2412 BLINK BONNIE ROAD, RIDGEWAY, SC, 29130","Match","Exact","2412 BLINK BONNIE RD, RIDGEWAY, SC, 29130",40619671,"R"
133614,"2412 BOOTH ROAD","HONOLULU","HI",96813,21.321882256,-157.842217524,114,"2412 BOOTH ROAD, HONOLULU, HI, 96813","Match","Exact","2412 BOOTH RD, HONOLULU, HI, 96813",203237000,"L"
133615,"2412 BRYAN GLEN ST","WICHITA FALLS","TX",76308,33.862187448,-98.520363779,115,"2412 BRYAN GLEN ST, WICHITA FALLS, TX, 76308","Match","Exact","2412 BRYAN GLEN ST, WICHITA FALLS, TX, 76308",169856339,"R"
133616,"2412 CHESTNUT STREET","HARRISBURG","PA",17104,40.2704849940001,-76.8499061759999,116,"2412 CHESTNUT STREET, HARRISBURG, PA, 17104","Match","Exact","2412 CHESTNUT ST, HARRISBURG, PA, 17104",70821019,"L"
133617,"2412 DALEFORD AVE NE","CANTON","OH",44705,40.8214851750001,-81.323328585,117,"2412 DALEFORD AVE NE, CANTON, OH, 44705","Match","Exact","2412 DALEFORD AVE NE, CANTON, OH, 44705",64685136,"R"
133618,"2412 DAMASCUS DR","MONROE","NC",28110,35.027981819,-80.6375942019999,118,"2412 DAMASCUS DR, MONROE, NC, 28110","Match","Exact","2412 DAMASCUS DR, MONROE, NC, 28110",216854267,"L"
133619,"2412 DANA LANE","MODESTO","CA",95350,37.6769798830001,-120.985878743,119,"2412 DANA LANE, MODESTO, CA, 95350","Match","Exact","2412 DANA LN, MODESTO, CA, 95350",102604008,"R"
133620,"2412 DEERFIELD RD","FAR ROCKAWAY","NY",11691,NA,NA,120,"2412 DEERFIELD RD, FAR ROCKAWAY, NY, 11691","No_Match",NA,NA,NA,NA
133621,"2412 DESERT WILLOW TERRACE","NORMAN","OK",73071,35.2482407460001,-97.426492057,121,"2412 DESERT WILLOW TERRACE, NORMAN, OK, 73071","Match","Exact","2412 DESERT WILLOW TER, NORMAN, OK, 73071",619683142,"L"
133622,"2412 DILLOWAY DR","MIDLAND","MI",48640,43.648966011,-84.2561768579999,122,"2412 DILLOWAY DR, MIDLAND, MI, 48640","Match","Exact","2412 DILLOWAY DR, MIDLAND, MI, 48640",81191661,"R"
133623,"2412 DOVE TERRACE","GREAT BEND","KS",67530,38.376908208,-98.7952363109999,123,"2412 DOVE TERRACE, GREAT BEND, KS, 67530","Match","Exact","2412 DOVE TER, GREAT BEND, KS, 67530",132555651,"R"
133624,"2412 E 32ND ST","LORAIN","OH",44055,41.4415837400001,-82.114579743,124,"2412 E 32ND ST, LORAIN, OH, 44055","Match","Exact","2412 E 32ND ST, LORAIN, OH, 44055",55408056,"R"
133625,"2412 FAWNLAKE TRAIL","ORLANDO","FL",32828,28.520597368,-81.172339564,125,"2412 FAWNLAKE TRAIL, ORLANDO, FL, 32828","Match","Exact","2412 FAWNLAKE TRL, ORLANDO, FL, 32828",606057253,"R"
133626,"2412 FORUM BLVD SUITE 101","COLUMBIA","MO",65203,38.929160387,-92.363537228,126,"2412 FORUM BLVD SUITE 101, COLUMBIA, MO, 65203","Match","Exact","2412 FORUM BLVD, COLUMBIA, MO, 65203",23494659,"R"
133627,"2412 HAMMOCK LAKE DRIVE","LITTLE ELM","TX",75068,33.189868973,-96.897388473,127,"2412 HAMMOCK LAKE DRIVE, LITTLE ELM, TX, 75068","Match","Exact","2412 HAMMOCK LAKE DR, LITTLE ELM, TX, 75068",639409382,"R"
133628,"2412 HASKELL BLVD","MUSKOGEE","OK",74403,35.7484539660001,-95.339974868,128,"2412 HASKELL BLVD, MUSKOGEE, OK, 74403","Match","Exact","2412 HASKELL BLVD, MUSKOGEE, OK, 74403",91934369,"L"
133629,"2412 IRIS AVE","BOULDER","CO",80304,40.0364248110001,-105.265847266,129,"2412 IRIS AVE, BOULDER, CO, 80304","Match","Exact","2412 IRIS AVE, BOULDER, CO, 80304",188159626,"R"
133630,"2412 IRWIN STREET","MELBOURNE","FL",32901,28.072989061,-80.600602012,130,"2412 IRWIN STREET, MELBOURNE, FL, 32901","Match","Exact","2412 IRWIN ST, MELBOURNE, FL, 32901",93905502,"R"
133631,"2412 KINGS RIVER ROAD","PAWLEYS ISLAND","SC",29585,33.450591095,-79.148562973,131,"2412 KINGS RIVER ROAD, PAWLEYS ISLAND, SC, 29585","Match","Exact","2412 KINGS RIVER RD, PAWLEYS ISLAND, SC, 29585",649775554,"R"
133632,"2412 LOW GROUND RD","GUYTON","GA",31312,32.2537993240001,-81.3326584289999,132,"2412 LOW GROUND RD, GUYTON, GA, 31312","Match","Exact","2412 LOW GROUND RD, GUYTON, GA, 31312",6273208,"L"
133633,"2412 N QUANTICO ST","ARLINGTON","VA",22207,38.893336725,-77.153626415,133,"2412 N QUANTICO ST, ARLINGTON, VA, 22207","Match","Exact","2412 N QUANTICO ST, ARLINGTON, VA, 22207",632520793,"L"
133634,"2412 NETTLETON CT","MATTHEWS","NC",28105,35.081011941,-80.719018171,134,"2412 NETTLETON CT, MATTHEWS, NC, 28105","Match","Exact","2412 NETTLETON CT, MATTHEWS, NC, 28105",616611378,"L"
133635,"2412 NORTH CEDAR ROAD","FOWLERVILLE","MI",48836,42.6341598400001,-84.130924996,135,"2412 NORTH CEDAR ROAD, FOWLERVILLE, MI, 48836","Match","Exact","2412 N CEDAR RD, FOWLERVILLE, MI, 48836",23570887,"L"
133636,"2412 REDWOOD CT","LONGMONT","CO",80503,40.202473954,-105.132809133,136,"2412 REDWOOD CT, LONGMONT, CO, 80503","Match","Exact","2412 REDWOOD CT, LONGMONT, CO, 80503",188182825,"L"
133637,"2412 RICHMOND DRIVE","PLANO","TX",75074,33.030526986,-96.685634543,137,"2412 RICHMOND DRIVE, PLANO, TX, 75074","Match","Exact","2412 RICHMOND DR, PLANO, TX, 75074",123489410,"R"
133638,"2412 S 8TH STREET","ROGERS","AR",72758,36.293784015,-94.127095292,138,"2412 S 8TH STREET, ROGERS, AR, 72758","Match","Exact","2412 S 8TH ST, ROGERS, AR, 72758",47893295,"R"
133639,"2412 S ANDOVER ST","WEST HAVEN","UT",84401,41.2225448740001,-112.030768957,139,"2412 S ANDOVER ST, WEST HAVEN, UT, 84401","Match","Exact","2412 ANDOVER ST, WEST HAVEN, UT, 84401",640973952,"R"
133640,"2412 SE 152ND AVE","PORTLAND","OR",97233,45.50478887,-122.506992782,140,"2412 SE 152ND AVE, PORTLAND, OR, 97233","Match","Exact","2412 SE 152ND AVE, PORTLAND, OR, 97233",157523512,"L"
133641,"2412 SE 7 TH CIR","LEES SUMMIT","MO",64063,38.905750982,-94.325764065,141,"2412 SE 7 TH CIR, LEES SUMMIT, MO, 64063","Match","Non_Exact","2412 SE 7TH CIR, LEES SUMMIT, MO, 64063",91513082,"R"
133642,"2412 SMYRNA CHURCH RD","CHATSWORTH","GA",30705,34.7284253060001,-84.7939317559999,142,"2412 SMYRNA CHURCH RD, CHATSWORTH, GA, 30705","Match","Exact","2412 SMYRNA CHURCH RD, CHATSWORTH, GA, 30705",57115284,"R"
133643,"2412 SPRING STREET","WEST LAWN","PA",19609,40.328895033,-75.996506037,143,"2412 SPRING STREET, WEST LAWN, PA, 19609","Match","Exact","2412 SPRING ST, WEST LAWN, PA, 19609",80441794,"R"
133644,"2412 SW WHISPERING CREEK CT","BLUE SPRINGS","MO",64015,38.9941886190001,-94.283044691,144,"2412 SW WHISPERING CREEK CT, BLUE SPRINGS, MO, 64015","Match","Exact","2412 SW WHISPERING CREEK CT, BLUE SPRINGS, MO, 64015",91497134,"R"
133645,"2412 TERESA CIRCLE APT H","TAMPA","FL",33629,27.929482476,-82.486545193,145,"2412 TERESA CIRCLE APT H, TAMPA, FL, 33629","Match","Exact","2412 TERESA CIR, TAMPA, FL, 33629",104526868,"L"
133646,"2412 TIOGA TRAIL","WINTER PARK","FL",32789,28.622810784,-81.3312627509999,146,"2412 TIOGA TRAIL, WINTER PARK, FL, 32789","Match","Exact","2412 TIOGA TRL, WINTER PARK, FL, 32789",94319203,"R"
133647,"2412 TOMOKA FARMS RD","PORT ORANGE","FL",32128,29.0920138860001,-81.0685973719999,147,"2412 TOMOKA FARMS RD, PORT ORANGE, FL, 32128","Match","Exact","2412 TOMOKA FARMS RD, PORT ORANGE, FL, 32128",94526190,"R"
133648,"2412 TRIVACA LANE","NOLENSVILLE","TN",37135,35.9469724240001,-86.6458439899999,148,"2412 TRIVACA LANE, NOLENSVILLE, TN, 37135","Match","Non_Exact","2412 TRIVACA CT, NOLENSVILLE, TN, 37135",624386947,"L"
133649,"2412 TRIVACA LN","NOLENSVILLE","TN",37135,35.9469724240001,-86.6458439899999,149,"2412 TRIVACA LN, NOLENSVILLE, TN, 37135","Match","Non_Exact","2412 TRIVACA CT, NOLENSVILLE, TN, 37135",624386947,"L"
133650,"2412 VILLAGE GREEN COURT","TOMS RIVER","NJ",8755,40.0493446400001,-74.247463379,150,"2412 VILLAGE GREEN COURT, TOMS RIVER, NJ, 8755","Match","Exact","2412 VILLAGE GREEN CT, TOMS RIVER, NJ, 08755",627539338,"R"
133651,"2412 VIOLET AVE","MCALLEN","TX",78504,26.2493375830001,-98.240009804,151,"2412 VIOLET AVE, MCALLEN, TX, 78504","Match","Exact","2412 VIOLET AVE, MCALLEN, TX, 78504",71560238,"L"
133652,"2412 W12TH ST","AUSTIN","TX",78703,NA,NA,152,"2412 W12TH ST, AUSTIN, TX, 78703","No_Match",NA,NA,NA,NA
133653,"2412 WATERS EDGE TRAIL","ROSWELL","GA",30075,34.060245884,-84.3897651949999,153,"2412 WATERS EDGE TRAIL, ROSWELL, GA, 30075","Match","Exact","2412 WATERS EDGE TRL, ROSWELL, GA, 30075",629918912,"R"
133654,"24120 COOLIDGE HWY","OAK PARK","MI",48237,42.4681788950001,-83.1823275949999,154,"24120 COOLIDGE HWY, OAK PARK, MI, 48237","Match","Exact","24120 COOLIDGE HWY, OAK PARK, MI, 48237",69741348,"R"
133655,"24120 N CHRYSLER DRIVE","HAZEL PARK","MI",48030,42.46956636,-83.109151512,155,"24120 N CHRYSLER DRIVE, HAZEL PARK, MI, 48030","Match","Exact","24120 N CHRYSLER DR, HAZEL PARK, MI, 48030",69747813,"R"
133656,"24120 W FORT BEGGS DRIVE","PLAINFIELD","IL",60544,41.601244443,-88.205599238,156,"24120 W FORT BEGGS DRIVE, PLAINFIELD, IL, 60544","Match","Exact","24120 FORT BEGGS DR, PLAINFIELD, IL, 60544",111575547,"L"
133657,"24121 NE 128TH ST","BRUSH PRAIRIE","WA",98606,45.7147652450001,-122.424733234,157,"24121 NE 128TH ST, BRUSH PRAIRIE, WA, 98606","Match","Exact","24121 NE 128TH ST, BRUSH PRAIRIE, WA, 98606",158354207,"R"
133658,"24121 NE 96TH PL","REDMOND","WA",98053,47.683827982,-122.015423782,158,"24121 NE 96TH PL, REDMOND, WA, 98053","Match","Exact","24121 NE 96TH PL, REDMOND, WA, 98053",648194116,"R"
133659,"24121 SE 21ST ST","SAMMAMISH","WA",98075,47.590608552,-122.017248073,159,"24121 SE 21ST ST, SAMMAMISH, WA, 98075","Match","Exact","24121 SE 21ST ST, SAMMAMISH, WA, 98075",186958201,"R"
133660,"24122 PALMEK CIRCLE","LAKE FOREST","CA",92630,33.612696054,-117.699091065,160,"24122 PALMEK CIRCLE, LAKE FOREST, CA, 92630","Match","Exact","24122 PALMEK CIR, LAKE FOREST, CA, 92630",144063954,"L"
133661,"24123 CONCORD POND ROAD","SEAFORD","DE",19973,38.6555632930001,-75.547060737,161,"24123 CONCORD POND ROAD, SEAFORD, DE, 19973","Match","Exact","24123 CONCORD POND RD, SEAFORD, DE, 19973",641071857,"R"
133662,"24123 PEACHLAND BLVD STE C-4  332","PORT CHARLOTTE","FL",33954,27.0174216070001,-82.055030815,162,"24123 PEACHLAND BLVD STE C-4  332, PORT CHARLOTTE, FL, 33954","Match","Exact","24123 PEACHLAND BLVD, PORT CHARLOTTE, FL, 33954",640798249,"R"
133663,"24124 BIG BASIN WAY","SARATOGA","CA",95070,37.247744396,-122.074945996,163,"24124 BIG BASIN WAY, SARATOGA, CA, 95070","Match","Exact","24124 BIG BASIN WAY, SARATOGA, CA, 95070",638185820,"L"
133664,"24125 26 MILE ROAD","RAY","MI",48096,42.7179339630001,-82.868707066,164,"24125 26 MILE ROAD, RAY, MI, 48096","Match","Exact","24125 26 MILE RD, RAY, MI, 48096",110662917,"L"
133665,"24125 MOBILE STREET","WEST HILLS","CA",91307,34.187163432,-118.650830576,165,"24125 MOBILE STREET, WEST HILLS, CA, 91307","Match","Exact","24125 MOBILE ST, WEST HILLS, CA, 91307",141722905,"R"
133666,"24127 CRYSTAL LAKE ROAD","WOODINVILLE","WA",98077,47.778245498,-122.109509806,166,"24127 CRYSTAL LAKE ROAD, WOODINVILLE, WA, 98077","Match","Exact","24127 CRYSTAL LAKE RD, WOODINVILLE, WA, 98077",645411342,"R"
133667,"24127 ROCKVIEW DR / P O BOX 4169","CRESTLINE","CA",92325,34.2320875180001,-117.276292734,167,"24127 ROCKVIEW DR / P O BOX 4169, CRESTLINE, CA, 92325","Match","Exact","24127 ROCKVIEW DR, CRESTLINE, CA, 92325",629779743,"L"
133668,"2413 14TH STREET NE 3","WASHINGTON","DC",20018,38.9215502860001,-76.98479672,168,"2413 14TH STREET NE 3, WASHINGTON, DC, 20018","Match","Exact","2413 14TH ST NE, WASHINGTON, DC, 20018",76228932,"R"
133669,"2413 14TH STREET NE STE 3","WASHINGTON","DC",20018,38.9215502860001,-76.98479672,169,"2413 14TH STREET NE STE 3, WASHINGTON, DC, 20018","Match","Exact","2413 14TH ST NE, WASHINGTON, DC, 20018",76228932,"R"
133670,"2413 1ST AVENUE NORTH","BIRMINGHAM","AL",35203,33.517182893,-86.799910707,170,"2413 1ST AVENUE NORTH, BIRMINGHAM, AL, 35203","Match","Exact","2413 1ST AVE N, BIRMINGHAM, AL, 35203",81575879,"R"
133671,"2413 ADDISON LANE","ALPHARETTA","GA",30005,34.0632667670001,-84.209016124,171,"2413 ADDISON LANE, ALPHARETTA, GA, 30005","Match","Exact","2413 ADDISON LN, ALPHARETTA, GA, 30005",17402620,"L"
133672,"2413 BAYSHORE BLVD UNIT 805","TAMPA","FL",33629,27.924559893,-82.483822416,172,"2413 BAYSHORE BLVD UNIT 805, TAMPA, FL, 33629","Match","Exact","2413 BAYSHORE BLVD, TAMPA, FL, 33629",104530369,"R"
133673,"2413 BERRY THICKET CT","WALDROF","MD",20603,38.6414967860001,-76.991179033,173,"2413 BERRY THICKET CT, WALDROF, MD, 20603","Match","Non_Exact","2413 BERRY THICKET CT, WALDORF, MD, 20603",25411266,"L"
133674,"2413 BLODGETT STREET","HOUSTON","TX",77004,29.724930065,-95.3722252649999,174,"2413 BLODGETT STREET, HOUSTON, TX, 77004","Match","Exact","2413 BLODGETT ST, HOUSTON, TX, 77004",96071914,"L"
133675,"2413 BLUE STONE COURT","VALRICO","FL",33594,27.963893226,-82.245627133,175,"2413 BLUE STONE COURT, VALRICO, FL, 33594","Match","Exact","2413 BLUE STONE CT, VALRICO, FL, 33594",651763743,"L"
133676,"2413 BOARDWALK PLACE","ST. LOUIS","MO",63129,38.4547948860001,-90.3016193349999,176,"2413 BOARDWALK PLACE, ST. LOUIS, MO, 63129","Match","Exact","2413 BOARDWALK PL, SAINT LOUIS, MO, 63129",100183034,"L"
133677,"2413 BODETTE AVE","TOLEDO","OH",43613,41.7183809900001,-83.603008156,177,"2413 BODETTE AVE, TOLEDO, OH, 43613","Match","Exact","2413 BODETTE AVE, TOLEDO, OH, 43613",33932754,"L"
133678,"2413 CAMRYNS XING","PANAMA CITY","FL",32405,30.221374321,-85.623938934,178,"2413 CAMRYNS XING, PANAMA CITY, FL, 32405","Match","Exact","2413 CAMRYNS CROSSING, PANAMA CITY, FL, 32405",647020950,"L"
133679,"2413 CHURCHILL ROAD","SILVER SPRING","MD",20902,39.021220326,-77.051736454,179,"2413 CHURCHILL ROAD, SILVER SPRING, MD, 20902","Match","Exact","2413 CHURCHILL RD, SILVER SPRING, MD, 20902",62064104,"R"
133680,"2413 CURDES AVE","FORT WAYNE","IN",46805,41.101735191,-85.108160474,180,"2413 CURDES AVE, FORT WAYNE, IN, 46805","Match","Exact","2413 CURDES AVE, FORT WAYNE, IN, 46805",6380240,"L"
133681,"2413 DUNBARTON DRIVE","CHESAPEAKE","VA",23325,36.8027521430001,-76.243492813,181,"2413 DUNBARTON DRIVE, CHESAPEAKE, VA, 23325","Match","Exact","2413 DUNBARTON DR, CHESAPEAKE, VA, 23325",121772196,"R"
133682,"2413 E 28TH ST","MISSION","TX",78574,26.2314526380001,-98.2798014159999,182,"2413 E 28TH ST, MISSION, TX, 78574","Match","Exact","2413 E 28TH ST, MISSION, TX, 78574",71558732,"L"
133683,"2413 EDGEMORE AVE","EASTON","PA",18045,40.6912904370001,-75.253440841,183,"2413 EDGEMORE AVE, EASTON, PA, 18045","Match","Exact","2413 EDGEMORE AVE, EASTON, PA, 18045",136881464,"R"
133684,"2413 ELLIS CT","PLANO","TX",75075,33.031993152,-96.769314853,184,"2413 ELLIS CT, PLANO, TX, 75075","Match","Exact","2413 ELLIS CT, PLANO, TX, 75075",123484126,"R"
133685,"2413 EVERGLADES ROAD","NORFOLK","VA",23518,36.908685845,-76.210920931,185,"2413 EVERGLADES ROAD, NORFOLK, VA, 23518","Match","Exact","2413 EVERGLADES RD, NORFOLK, VA, 23518",122126807,"R"
133686,"2413 GEORGIA AVE","DEER PARK","TX",77536,29.688471258,-95.1343790889999,186,"2413 GEORGIA AVE, DEER PARK, TX, 77536","Match","Exact","2413 GEORGIA AVE, DEER PARK, TX, 77536",96105703,"R"
133687,"2413 GROVEVIEW CT","RICHMOND","CA",94806,37.9779991560001,-122.339792899,187,"2413 GROVEVIEW CT, RICHMOND, CA, 94806","Match","Exact","2413 GROVEVIEW CT, RICHMOND, CA, 94806",192039258,"R"
133688,"2413 HOLMAN STREET","HOUSTON","TX",77004,29.7324645460001,-95.366367285,188,"2413 HOLMAN STREET, HOUSTON, TX, 77004","Match","Exact","2413 HOLMAN ST, HOUSTON, TX, 77004",96071974,"L"
133689,"2413 JAY AVE","SIOUX CITY","IA",51106,42.482587149,-96.378418927,189,"2413 JAY AVE, SIOUX CITY, IA, 51106","Match","Exact","2413 JAY AVE, SIOUX CITY, IA, 51106",93423987,"L"
133690,"2413 LANTER LANE","CHESTER","VA",23836,37.342945877,-77.4007452929999,190,"2413 LANTER LANE, CHESTER, VA, 23836","Match","Exact","2413 LANTER LN, CHESTER, VA, 23836",201577493,"L"
133691,"2413 MAGIC VALLEY LN","CEDAR HILL","TX",75104,32.5518197270001,-96.9969460469999,191,"2413 MAGIC VALLEY LN, CEDAR HILL, TX, 75104","Match","Exact","2413 MAGIC VALLEY LN, CEDAR HILL, TX, 75104",616775185,"L"
133692,"2413 MAIN STREET  224","MIRAMAR","FL",33025,25.9857725680001,-80.2997019269999,192,"2413 MAIN STREET  224, MIRAMAR, FL, 33025","Match","Exact","2413 MAIN ST, MIRAMAR, FL, 33025",640876298,"L"
133693,"2413 MAIN STREET 339","MIRAMAR","FL",33025,25.9857725680001,-80.2997019269999,193,"2413 MAIN STREET 339, MIRAMAR, FL, 33025","Match","Exact","2413 MAIN ST, MIRAMAR, FL, 33025",640876298,"L"
133694,"2413 MAIN STREET NO  294","MIRAMAR","FL",33025,25.9857725680001,-80.2997019269999,194,"2413 MAIN STREET NO  294, MIRAMAR, FL, 33025","Match","Non_Exact","2413 MAIN ST, MIRAMAR, FL, 33025",640876298,"L"
133695,"2413 MAIN STREET PMB 221","MIRAMAR","FL",33025,25.9857725680001,-80.2997019269999,195,"2413 MAIN STREET PMB 221, MIRAMAR, FL, 33025","Match","Exact","2413 MAIN ST, MIRAMAR, FL, 33025",640876298,"L"
133696,"2413 MAIN STREET SUITE 151","MIRAMAR","FL",33025,25.9857725680001,-80.2997019269999,196,"2413 MAIN STREET SUITE 151, MIRAMAR, FL, 33025","Match","Exact","2413 MAIN ST, MIRAMAR, FL, 33025",640876298,"L"
133697,"2413 MAIN STREET UNIT 162","MIRAMAR","FL",33025,25.9857725680001,-80.2997019269999,197,"2413 MAIN STREET UNIT 162, MIRAMAR, FL, 33025","Match","Exact","2413 MAIN ST, MIRAMAR, FL, 33025",640876298,"L"
133698,"2413 MAIN STREET UNIT 164","MIRAMAR","FL",33025,25.9857725680001,-80.2997019269999,198,"2413 MAIN STREET UNIT 164, MIRAMAR, FL, 33025","Match","Exact","2413 MAIN ST, MIRAMAR, FL, 33025",640876298,"L"
133699,"2413 MARTIN LUTHER KING JR BLVD","DALLAS","TX",75215,32.7653832870001,-96.772776703,199,"2413 MARTIN LUTHER KING JR BLVD, DALLAS, TX, 75215","Match","Exact","2413 MARTIN LUTHER KING JR BLVD, DALLAS, TX, 75215",102950516,"L"
133700,"2413 MARTIN LUTHER KING JR DRIVE","DALLAS","TX",75215,32.7653832870001,-96.772776703,200,"2413 MARTIN LUTHER KING JR DRIVE, DALLAS, TX, 75215","Match","Non_Exact","2413 MARTIN LUTHER KING JR BLVD, DALLAS, TX, 75215",102950516,"L"
133701,"2413 N UNIVERSITY AVE","LAFAYETTE","LA",70507,30.268151958,-92.045306261,201,"2413 N UNIVERSITY AVE, LAFAYETTE, LA, 70507","Match","Exact","2413 N UNIVERSITY AVE, LAFAYETTE, LA, 70507",85628717,"L"
133702,"2413 PEABODY AVE","DALLAS","TX",75215,32.76450227,-96.77187986,202,"2413 PEABODY AVE, DALLAS, TX, 75215","Match","Exact","2413 PEABODY AVE, DALLAS, TX, 75215",102950557,"L"
133703,"2413 PELITERE DRIVE","CHALMETTE","LA",70043,29.9391375640001,-89.960130167,203,"2413 PELITERE DRIVE, CHALMETTE, LA, 70043","Match","Exact","2413 PELITERE DR, CHALMETTE, LA, 70043",111199431,"R"
133704,"2413 PINEHURST DRIVE","FLOWER MOUND","TX",75028,33.0185769830001,-97.042172551,204,"2413 PINEHURST DRIVE, FLOWER MOUND, TX, 75028","Match","Exact","2413 PINEHURST DR, FLOWER MOUND, TX, 75028",103376496,"L"
133705,"2413 RING ROAD SUITE 117","ELIZABETHTOWN","KY",42701,37.7322735550001,-85.847439133,205,"2413 RING ROAD SUITE 117, ELIZABETHTOWN, KY, 42701","Match","Exact","2413 RING RD, ELIZABETHTOWN, KY, 42701",34634329,"R"
133706,"2413 ROSEWOOD LANE","EDMOND","OK",73013,35.6321820520001,-97.448817976,206,"2413 ROSEWOOD LANE, EDMOND, OK, 73013","Match","Exact","2413 ROSEWOOD LN, EDMOND, OK, 73013",100410626,"L"
133707,"2413 RYAN DR","COPPERAS COVE","TX",76522,31.1557774300001,-97.917990749,207,"2413 RYAN DR, COPPERAS COVE, TX, 76522","Match","Exact","2413 RYAN DR, COPPERAS COVE, TX, 76522",614901433,"L"
133708,"2413 S LILLIAN AVENUE","SIOUX FALLS","SD",57106,43.521346448,-96.8268277499999,208,"2413 S LILLIAN AVENUE, SIOUX FALLS, SD, 57106","Match","Exact","2413 S LILLIAN AVE, SIOUX FALLS, SD, 57106",640679222,"L"
133709,"2413 SAN GABRIEL DRIVE","PLANO","TX",75074,33.034487691,-96.655880686,209,"2413 SAN GABRIEL DRIVE, PLANO, TX, 75074","Match","Exact","2413 SAN GABRIEL DR, PLANO, TX, 75074",210523883,"R"
133710,"2413 SHENANDOAH TRAIL","DENTON","TX",76210,33.179504756,-97.106936538,210,"2413 SHENANDOAH TRAIL, DENTON, TX, 76210","Match","Exact","2413 SHENANDOAH TRL, DENTON, TX, 76210",640567380,"L"
133711,"2413 SUMMERWOOD DR","HENRICO","VA",23233,37.6278318500001,-77.6115263029999,211,"2413 SUMMERWOOD DR, HENRICO, VA, 23233","Match","Exact","2413 SUMMERWOOD DR, HENRICO, VA, 23233",106666604,"R"
133712,"2413 SW RUSTIC RD","LEES SUMMIT","MO",64082,38.8770286000001,-94.429894766,212,"2413 SW RUSTIC RD, LEES SUMMIT, MO, 64082","Match","Exact","2413 RUSTIC RD, LEES SUMMIT, MO, 64082",601258442,"L"
133713,"2413 TALBOT CREST DR S","RENTON","WA",98055,47.458164733,-122.213424878,213,"2413 TALBOT CREST DR S, RENTON, WA, 98055","Match","Exact","2413 TALBOT CREST DR S, RENTON, WA, 98055",239773749,"R"
133714,"2413 TALBOT CREST DR SO","RENTON","WA",98055,47.458164733,-122.213424878,214,"2413 TALBOT CREST DR SO, RENTON, WA, 98055","Match","Exact","2413 TALBOT CREST DR S, RENTON, WA, 98055",239773749,"R"
133715,"2413 TRANQUILITY LN","VIRGINIA BEACH","VA",23455,36.912389251,-76.132164597,215,"2413 TRANQUILITY LN, VIRGINIA BEACH, VA, 23455","Match","Exact","2413 TRANQUILITY LN, VIRGINIA BCH, VA, 23455",624540746,"R"
133716,"2413 VILLAGE GREEN PLACE","CHAMPAIGN","IL",61822,NA,NA,216,"2413 VILLAGE GREEN PLACE, CHAMPAIGN, IL, 61822","No_Match",NA,NA,NA,NA
133717,"2413 W ALGONQUIN RD SUITE 152","ALGONQUIN","IL",60102,NA,NA,217,"2413 W ALGONQUIN RD SUITE 152, ALGONQUIN, IL, 60102","No_Match",NA,NA,NA,NA
133718,"2413 W IMPERIAL HIGHWAY 5","INGLEWOOD","CA",90303,NA,NA,218,"2413 W IMPERIAL HIGHWAY 5, INGLEWOOD, CA, 90303","No_Match",NA,NA,NA,NA
133719,"2413 WELLS LN","MCKINNEY","TX",75072,33.179041216,-96.713566746,219,"2413 WELLS LN, MCKINNEY, TX, 75072","Match","Exact","2413 WELLS LN, MCKINNEY, TX, 75072",123563239,"R"
133720,"2413 WEST MAPLE AVENUE","FLINT","MI",48507,42.9589750810001,-83.7275587569999,220,"2413 WEST MAPLE AVENUE, FLINT, MI, 48507","Match","Exact","2413 W MAPLE AVE, FLINT, MI, 48507",69574131,"L"
133721,"2413 WINDMILL DR","MCKINNEY","TX",75071,33.223720799,-96.543522739,221,"2413 WINDMILL DR, MCKINNEY, TX, 75071","Match","Exact","2413 WINDMILL DR, MCKINNEY, TX, 75071",642473350,"L"
133722,"2413 WINNING COLORS WAY","OWENSBORO","KY",42301,37.7164009250001,-87.154541609,222,"2413 WINNING COLORS WAY, OWENSBORO, KY, 42301","Match","Exact","2413 WINNING COLORS WAY, OWENSBORO, KY, 42301",616675348,"L"
133723,"2413 WOODCREST DRIVE","EAST STROUDSBURG","PA",18302,41.0764739900001,-75.049135656,223,"2413 WOODCREST DRIVE, EAST STROUDSBURG, PA, 18302","Match","Non_Exact","2413 WOODCREST AVE, E STROUDSBURG, PA, 18302",636488644,"L"
133724,"2413 WYNCREEK DRIVE","ATLANTA","GA",30331,NA,NA,224,"2413 WYNCREEK DRIVE, ATLANTA, GA, 30331","No_Match",NA,NA,NA,NA
133725,"24130 E 145TH ST S","COWETA","OK",74429,35.953005767,-95.7073836009999,225,"24130 E 145TH ST S, COWETA, OK, 74429","Match","Exact","24130 E 145TH ST S, COWETA, OK, 74429",606254049,"R"
133726,"24130 MEADOWVIEW COURT","CLAREMORE","OK",74019,36.26227233,-95.702936629,226,"24130 MEADOWVIEW COURT, CLAREMORE, OK, 74019","Match","Exact","24130 MEADOWVIEW CT, CLAREMORE, OK, 74019",612085748,"R"
133727,"241301","LITTLE ROCK","AR",72223,NA,NA,227,"241301, LITTLE ROCK, AR, 72223","No_Match",NA,NA,NA,NA
133728,"24138 LAVENDAR DR","LAKE ELSINORE","CA",92532,33.6640781880001,-117.268139002,228,"24138 LAVENDAR DR, LAKE ELSINORE, CA, 92532","Match","Non_Exact","24138 LAVENDER DR, LAKE ELSINORE, CA, 92532",650859528,"L"
133729,"24139 210TH AVENUE","ELDRIDGE","IA",52748,41.657415095,-90.490686479,229,"24139 210TH AVENUE, ELDRIDGE, IA, 52748","Match","Exact","24139 210TH AVE, ELDRIDGE, IA, 52748",122733690,"R"
133730,"24139 SHERBECK","CLINTON TWP","MI",48036,42.579511826,-82.869406343,230,"24139 SHERBECK, CLINTON TWP, MI, 48036","Match","Non_Exact","24139 SHERBECK DR, CLINTON TOWNSHIP, MI, 48036",110682929,"L"
133731,"2414 117TH ST","BURNSVILLE","MN",55337,44.793981929,-93.2413946189999,231,"2414 117TH ST, BURNSVILLE, MN, 55337","Match","Non_Exact","2414 117TH ST E, BURNSVILLE, MN, 55337",642417999,"L"
133732,"2414 16TH ST STE 12","SACRAMENTO","CA",95818,38.5625820400001,-121.491945472,232,"2414 16TH ST STE 12, SACRAMENTO, CA, 95818","Match","Exact","2414 16TH ST, SACRAMENTO, CA, 95818",133419914,"R"
133733,"2414 1ST AVENUE NORTH","BILLINGS","MT",59101,45.78437309,-108.501101392,233,"2414 1ST AVENUE NORTH, BILLINGS, MT, 59101","Match","Exact","2414 1ST AVE N, BILLINGS, MT, 59101",181477777,"L"
133734,"2414 36TH PL","MERIDIAN","MS",39307,32.383350879,-88.714620677,234,"2414 36TH PL, MERIDIAN, MS, 39307","Match","Non_Exact","2414 36TH AVE, MERIDIAN, MS, 39307",189600,"R"
133735,"2414 51ST AVE","GREELEY","CO",80634,40.3990258380001,-104.762311955,235,"2414 51ST AVE, GREELEY, CO, 80634","Match","Exact","2414 51ST AVE, GREELEY, CO, 80634",188674158,"L"
133736,"2414 BALLENTINE BLVD","NORFOLK","VA",23509,36.8644788170001,-76.250801354,236,"2414 BALLENTINE BLVD, NORFOLK, VA, 23509","Match","Exact","2414 BALLENTINE BLVD, NORFOLK, VA, 23509",122124384,"R"
133737,"2414 BLUE RIDGE DRIVE","SODDY DAISY","TN",37379,35.2073587730001,-85.1289754859999,237,"2414 BLUE RIDGE DRIVE, SODDY DAISY, TN, 37379","Match","Exact","2414 BLUE RIDGE DR, SODDY DAISY, TN, 37379",59320767,"L"
133738,"2414 BONICA CIRCLE","ERIE","PA",16506,42.0789416920001,-80.118706306,238,"2414 BONICA CIRCLE, ERIE, PA, 16506","Match","Exact","2414 BONICA CIR, ERIE, PA, 16506",117514426,"L"
133739,"2414 BRIARHURST DRIVE","HIGHLANDS RANCH","CO",80126,39.5580742380001,-104.960435691,239,"2414 BRIARHURST DRIVE, HIGHLANDS RANCH, CO, 80126","Match","Exact","2414 BRIARHURST DR, HIGHLANDS RANCH, CO, 80126",130819287,"R"
133740,"2414 BRITTANY DR","ROWLETT","TX",75088,32.8834901760001,-96.5571821079999,240,"2414 BRITTANY DR, ROWLETT, TX, 75088","Match","Exact","2414 BRITTANY DR, ROWLETT, TX, 75088",103171581,"L"
133741,"2414 CENTERBROOK LN","KATY","TX",77450,29.750039744,-95.732191589,241,"2414 CENTERBROOK LN, KATY, TX, 77450","Match","Exact","2414 CENTERBROOK LN, KATY, TX, 77450",96298987,"L"
133742,"2414 CENTERBROOKE LN","KATY","TX",77450,29.750039744,-95.732191589,242,"2414 CENTERBROOKE LN, KATY, TX, 77450","Match","Non_Exact","2414 CENTERBROOK LN, KATY, TX, 77450",96298987,"L"
133743,"2414 DALLAS HIGHWAY SUITE 100","MARIETTA","GA",30064,NA,NA,243,"2414 DALLAS HIGHWAY SUITE 100, MARIETTA, GA, 30064","No_Match",NA,NA,NA,NA
133744,"2414 E 31ST AVE","TAMPA","FL",33610,27.978710365,-82.432901783,244,"2414 E 31ST AVE, TAMPA, FL, 33610","Match","Exact","2414 E 31ST AVE, TAMPA, FL, 33610",625385157,"L"
133745,"2414 E TYLER AVE","FRESNO","CA",93701,36.7554459850001,-119.782360432,245,"2414 E TYLER AVE, FRESNO, CA, 93701","Match","Exact","2414 E TYLER AVE, FRESNO, CA, 93701",197580064,"R"
133746,"2414 E US HIGHWAY 80 SUITE 200","MESQUITE","TX",75149,32.792075185,-96.634700199,246,"2414 E US HIGHWAY 80 SUITE 200, MESQUITE, TX, 75149","Match","Non_Exact","2414 US HWY 80 E, MESQUITE, TX, 75149",102932238,"L"
133747,"2414 FAIR DRIVE","KNOXVILLE","TN",37918,36.0302516990001,-83.936604457,247,"2414 FAIR DRIVE, KNOXVILLE, TN, 37918","Match","Exact","2414 FAIR DR, KNOXVILLE, TN, 37918",42617161,"R"
133748,"2414 HEMLOCK CT","LAKEWOOD","NJ",8701,NA,NA,248,"2414 HEMLOCK CT, LAKEWOOD, NJ, 8701","No_Match",NA,NA,NA,NA
133749,"2414 HENDOLA DRIVE NE","ALBUQUERQUE","NM",87110,35.1071556800001,-106.555512447,249,"2414 HENDOLA DRIVE NE, ALBUQUERQUE, NM, 87110","Match","Exact","2414 HENDOLA DR NE, ALBUQUERQUE, NM, 87110",206717362,"R"
133750,"2414 HERRING RD SW - UNIT 42366","ATLANTA","GA",30311,33.7241387110001,-84.4629962,250,"2414 HERRING RD SW - UNIT 42366, ATLANTA, GA, 30311","Match","Exact","2414 HERRING RD SW, ATLANTA, GA, 30311",17340773,"L"
133751,"2414 HIRST TERRACE","HAVETOWN","PA",19083,39.988820162,-75.3103280999999,251,"2414 HIRST TERRACE, HAVETOWN, PA, 19083","Match","Non_Exact","2414 HIRST TER, HAVERTOWN, PA, 19083",134898618,"L"
133752,"2414 JOHNSON ST 8","HOLLYWOOD","FL",33020,26.0186515090001,-80.1552321029999,252,"2414 JOHNSON ST 8, HOLLYWOOD, FL, 33020","Match","Exact","2414 JOHNSON ST, HOLLYWOOD, FL, 33020",114729710,"L"
133753,"2414 KILBURN AVE","DALLAS","TX",75216,32.69742182,-96.782698481,253,"2414 KILBURN AVE, DALLAS, TX, 75216","Match","Exact","2414 KILBURN AVE, DALLAS, TX, 75216",102952244,"R"
133754,"2414 LAKE PARK RD 2306","LEXINGTON","KY",40507,38.011318197,-84.4612962049999,254,"2414 LAKE PARK RD 2306, LEXINGTON, KY, 40507","Match","Non_Exact","2414 LAKE PARK RD, LEXINGTON, KY, 40502",31951351,"L"
133755,"2414 LANGSTON ST","HOUSTON","TX",77007,29.7805913620001,-95.428861034,255,"2414 LANGSTON ST, HOUSTON, TX, 77007","Match","Exact","2414 LANGSTON ST, HOUSTON, TX, 77007",96059853,"R"
133756,"2414 LEGION STREET","BELLMORE","NY",11710,40.6548321750001,-73.528718353,256,"2414 LEGION STREET, BELLMORE, NY, 11710","Match","Exact","2414 LEGION ST, BELLMORE, NY, 11710",147637364,"R"
133757,"2414 LESLIE BROOK DRIVE","DECATUR","GA",30035,33.72583805,-84.215932577,257,"2414 LESLIE BROOK DRIVE, DECATUR, GA, 30035","Match","Exact","2414 LESLIE BROOK DR, DECATUR, GA, 30035",23372656,"L"
133758,"2414 N MONTICELLO AVE","CHICAGO","IL",60647,41.925249303,-87.7182369349999,258,"2414 N MONTICELLO AVE, CHICAGO, IL, 60647","Match","Exact","2414 N MONTICELLO AVE, CHICAGO, IL, 60647",605188907,"L"
133759,"2414 N NEWCASTLE AVENUE","CHICAGO","IL",60707,41.924358946,-87.796492359,259,"2414 N NEWCASTLE AVENUE, CHICAGO, IL, 60707","Match","Exact","2414 N NEWCASTLE AVE, CHICAGO, IL, 60707",605158372,"L"
133760,"2414 NORTH L STREET","PENSACOLA","FL",32501,30.437008049,-87.236924718,260,"2414 NORTH L STREET, PENSACOLA, FL, 32501","Match","Exact","2414 N L ST, PENSACOLA, FL, 32501",93219452,"R"
133761,"2414 PALUMBO DRIVE SUITE 175","LEXINGTON","KY",40509,38.0200154360001,-84.448455136,261,"2414 PALUMBO DRIVE SUITE 175, LEXINGTON, KY, 40509","Match","Exact","2414 PALUMBO DR, LEXINGTON, KY, 40509",31941071,"R"
133762,"2414 PINE RUN ROAD","SIGEL","PA",15860,41.332804825,-79.04187501,262,"2414 PINE RUN ROAD, SIGEL, PA, 15860","Match","Exact","2414 PINE RUN RD, SIGEL, PA, 15860",66429621,"R"
133763,"2414 PINEFIELD ROAD","WALDORF","MD",20601,38.64715965,-76.858733447,263,"2414 PINEFIELD ROAD, WALDORF, MD, 20601","Match","Exact","2414 PINEFIELD RD, WALDORF, MD, 20601",25407841,"R"
133764,"2414 SAN GABRIEL ST 515","AUSTIN","TX",78705,30.288420183,-97.7478035679999,264,"2414 SAN GABRIEL ST 515, AUSTIN, TX, 78705","Match","Exact","2414 SAN GABRIEL ST, AUSTIN, TX, 78705",63942583,"L"
133765,"2414 SKYLINE MOUNTAIN RESORT","FAIRVIEW","UT",84629,NA,NA,265,"2414 SKYLINE MOUNTAIN RESORT, FAIRVIEW, UT, 84629","No_Match",NA,NA,NA,NA
133766,"2414 SOUTH WAYNE AVE","FORT WAYNE","IN",46807,41.0628941000001,-85.1475896859999,266,"2414 SOUTH WAYNE AVE, FORT WAYNE, IN, 46807","Match","Exact","2414 S WAYNE AVE, FORT WAYNE, IN, 46807",6378011,"R"
133767,"2414 SQUIRREL DRIVE","BEAR","DE",19701,39.6059473220001,-75.719200114,267,"2414 SQUIRREL DRIVE, BEAR, DE, 19701","Match","Exact","2414 SQUIRREL DR, BEAR, DE, 19701",187290065,"R"
133768,"2414 W 48TH STREET","LOS ANGELES","CA",90043,34.0000412370001,-118.319440835,268,"2414 W 48TH STREET, LOS ANGELES, CA, 90043","Match","Exact","2414 W 48TH ST, LOS ANGELES, CA, 90043",141606392,"L"
133769,"2414 W HOOD AVE","SANTA ANA","CA",92704,33.728028072,-117.901383533,269,"2414 W HOOD AVE, SANTA ANA, CA, 92704","Match","Exact","2414 W HOOD AVE, SANTA ANA, CA, 92704",144042365,"L"
133770,"2414 WHITE RIDGE LANE","WASHINGTON","IN",47501,38.6611952960001,-87.1401550479999,270,"2414 WHITE RIDGE LANE, WASHINGTON, IN, 47501","Match","Exact","2414 WHITE RIDGE LN, WASHINGTON, IN, 47501",32075769,"L"
133771,"24141 HIGHWAY 59 SUITE D","PORTER","TX",77365,30.093736006,-95.239284671,271,"24141 HIGHWAY 59 SUITE D, PORTER, TX, 77365","Match","Non_Exact","24141 US HWY 59, PORTER, TX, 77365",638590588,"R"
133772,"24142 S VOLBRECHT ROAD","CRETE","IL",60417,NA,NA,272,"24142 S VOLBRECHT ROAD, CRETE, IL, 60417","Tie",NA,NA,NA,NA
133773,"24144 POCKET RD","BATESVILLE","IN",47006,39.3231961750001,-85.2369391029999,273,"24144 POCKET RD, BATESVILLE, IN, 47006","Match","Exact","24144 POCKET RD, BATESVILLE, IN, 47006",33190271,"L"
133774,"24146 CORNELL ROAD","NOBLESVILLE","IN",46060,40.1405784900001,-85.9017197809999,274,"24146 CORNELL ROAD, NOBLESVILLE, IN, 46060","Match","Exact","24146 CORNELL RD, NOBLESVILLE, IN, 46060",29286777,"R"
133775,"24148 EAST GREYSTONE LANE","WOODWAY","WA",98020,47.7801604540001,-122.378234346,275,"24148 EAST GREYSTONE LANE, WOODWAY, WA, 98020","Match","Exact","24148 E GREYSTONE LN, WOODWAY, WA, 98020",625010274,"L"
133776,"24149 WILLOWBROOKE CT","VALENCIA","CA",91354,34.4416349480001,-118.557540268,276,"24149 WILLOWBROOKE CT, VALENCIA, CA, 91354","Match","Non_Exact","24149 W WILLOW BROOKE CT, VALENCIA, CA, 91354",627280598,"R"
133777,"2414A PAUL REVERE ST","TEMPLE","TX",76504,31.1122106610001,-97.3633539309999,277,"2414A PAUL REVERE ST, TEMPLE, TX, 76504","Match","Exact","2414 PAUL REVERE ST, TEMPLE, TX, 76504",146227563,"R"
133778,"2415 13TH AVENUE","FOREST GROVE","OR",97116,45.511558393,-123.104461881,278,"2415 13TH AVENUE, FOREST GROVE, OR, 97116","Match","Exact","2415 13TH AVE, FOREST GROVE, OR, 97116",158176216,"L"
133779,"2415 3RD ST STE 232","SAN FRANCISCO","CA",94107,37.7590642270001,-122.388281722,279,"2415 3RD ST STE 232, SAN FRANCISCO, CA, 94107","Match","Exact","2415 3RD ST, SAN FRANCISCO, CA, 94107",192289650,"L"
133780,"2415 62ND ST","DES MOINES","IA",50322,41.615877331,-93.7025752339999,280,"2415 62ND ST, DES MOINES, IA, 50322","Match","Exact","2415 62ND ST, DES MOINES, IA, 50322",65777093,"R"
133781,"2415 ALA WAI BOULEVARD APT 1901","HONOLULU","HI",96815,NA,NA,281,"2415 ALA WAI BOULEVARD APT 1901, HONOLULU, HI, 96815","No_Match",NA,NA,NA,NA
133782,"2415 ANNAPOLIS LANE SUITE 110","MINNEAPOLIS","MN",55451,NA,NA,282,"2415 ANNAPOLIS LANE SUITE 110, MINNEAPOLIS, MN, 55451","No_Match",NA,NA,NA,NA
133783,"2415 APPLEGROVE ST NE","CANTON","OH",44721,40.888499671,-81.33566258,283,"2415 APPLEGROVE ST NE, CANTON, OH, 44721","Match","Exact","2415 APPLEGROVE ST NE, CANTON, OH, 44721",64694330,"L"
133784,"2415 ASHBURY CIRCLE","CAPE CORAL","FL",33991,26.6216071650001,-82.025352219,284,"2415 ASHBURY CIRCLE, CAPE CORAL, FL, 33991","Match","Exact","2415 ASHBURY CIR, CAPE CORAL, FL, 33991",616712102,"L"
133785,"2415 AURELIUS RD   APT 34","HOLT","MI",48842,NA,NA,285,"2415 AURELIUS RD   APT 34, HOLT, MI, 48842","No_Match",NA,NA,NA,NA
133786,"2415 AVENUE U SUITE 2R","BROOKLYN","NY",11229,40.5998284240001,-73.947400019,286,"2415 AVENUE U SUITE 2R, BROOKLYN, NY, 11229","Match","Exact","2415 AVE U, BROOKLYN, NY, 11229",59091606,"L"
133787,"2415 BANKS AVENUE","COLUMBUS","GA",31903,32.4091503820001,-84.953717567,287,"2415 BANKS AVENUE, COLUMBUS, GA, 31903","Match","Exact","2415 BANKS AVE, COLUMBUS, GA, 31903",98942602,"R"
133788,"2415 BASSFORD LANE","ALBANY","GA",31707,31.618443267,-84.198630075,288,"2415 BASSFORD LANE, ALBANY, GA, 31707","Match","Exact","2415 BASSFORD LN, ALBANY, GA, 31707",84321802,"L"
133789,"2415 BIRCH ST","EASTON","PA",18042,40.6811541590001,-75.2450429469999,289,"2415 BIRCH ST, EASTON, PA, 18042","Match","Exact","2415 BIRCH ST, EASTON, PA, 18042",136881701,"R"
133790,"2415 BOULDER SPRINGS DR","ELLENWOOD","GA",30294,33.6500450240001,-84.28888359,290,"2415 BOULDER SPRINGS DR, ELLENWOOD, GA, 30294","Match","Exact","2415 BOULDER SPRINGS DR, ELLENWOOD, GA, 30294",23393494,"L"
133791,"2415 BRIDLE GATE TRL SW","ALBUQUERQUE","NM",87121,35.041428587,-106.741023353,291,"2415 BRIDLE GATE TRL SW, ALBUQUERQUE, NM, 87121","Match","Exact","2415 BRIDLE GATE TRL SW, ALBUQUERQUE, NM, 87121",614097148,"R"
133792,"2415 BUCKINGHAM AVENUE","HENRICO","VA",23228,37.601108589,-77.474569816,292,"2415 BUCKINGHAM AVENUE, HENRICO, VA, 23228","Match","Exact","2415 BUCKINGHAM AVE, HENRICO, VA, 23228",106648047,"L"
133793,"2415 CENTERGATE DRIVE 101","MIRAMAR","FL",33025,25.987437917,-80.310568743,293,"2415 CENTERGATE DRIVE 101, MIRAMAR, FL, 33025","Match","Exact","2415 CENTERGATE DR, MIRAMAR, FL, 33025",636367076,"L"
133794,"2415 CHERRY AVE NE","SALEM","OR",97301,44.9614290690001,-123.019396939,294,"2415 CHERRY AVE NE, SALEM, OR, 97301","Match","Exact","2415 CHERRY AVE NE, SALEM, OR, 97301",156246947,"L"
133795,"2415 CHERRY BLOSSOM DR","SUFFOLK","VA",23434,36.775207735,-76.5253534239999,295,"2415 CHERRY BLOSSOM DR, SUFFOLK, VA, 23434","Match","Exact","2415 CHERRY BLOSSOM DR, SUFFOLK, VA, 23434",122230904,"R"
133796,"2415 COUNTY ROAD Z","BLUE MOUNDS","WI",53517,NA,NA,296,"2415 COUNTY ROAD Z, BLUE MOUNDS, WI, 53517","No_Match",NA,NA,NA,NA
133797,"2415 CUMBERLAND STREET","KALAMAZOO","MI",49006,42.3151497010001,-85.642914186,297,"2415 CUMBERLAND STREET, KALAMAZOO, MI, 49006","Match","Exact","2415 CUMBERLAND ST, KALAMAZOO, MI, 49006",12223415,"L"
133798,"2415 DRAKE HILL ROAD","FORTUNA","CA",95540,40.564695041,-124.141137649,298,"2415 DRAKE HILL ROAD, FORTUNA, CA, 95540","Match","Exact","2415 DRAKE HILL RD, FORTUNA, CA, 95540",113011432,"L"
133799,"2415 E CAMELBACK RD STE 700","PHOENIX","AZ",85016,33.509337047,-112.029541339,299,"2415 E CAMELBACK RD STE 700, PHOENIX, AZ, 85016","Match","Non_Exact","2415 E CAMELBACK RD, PHOENIX, AZ, 85016",128601102,"R"
133800,"2415 E DECATUR ST","SPOKANE","WA",99205,NA,NA,300,"2415 E DECATUR ST, SPOKANE, WA, 99205","No_Match",NA,NA,NA,NA
133801,"2415 E SAN RAMON AVE M/S AS72","FRESNO","CA",93740,NA,NA,301,"2415 E SAN RAMON AVE M/S AS72, FRESNO, CA, 93740","No_Match",NA,NA,NA,NA
133802,"2415 E SOUTH BLVD STE E","MONTGOMERY","AL",36116,NA,NA,302,"2415 E SOUTH BLVD STE E, MONTGOMERY, AL, 36116","No_Match",NA,NA,NA,NA
133803,"2415 EAST DERENNE AVENUE","SAVANNAH","GA",31406,32.0177433540001,-81.069128948,303,"2415 EAST DERENNE AVENUE, SAVANNAH, GA, 31406","Match","Non_Exact","2415 E DE RENNE AVE, SAVANNAH, GA, 31406",6179827,"R"
133804,"2415 ESPANOLA ST NE SUITE B 87110","ALBUQUERQUE","NM",87110,35.107397087,-106.563954824,304,"2415 ESPANOLA ST NE SUITE B 87110, ALBUQUERQUE, NM, 87110","Match","Exact","2415 ESPANOLA ST NE, ALBUQUERQUE, NM, 87110",206795166,"L"
133805,"2415 FERRY PARK","DETROIT","MI",48208,42.3600833520001,-83.096660054,305,"2415 FERRY PARK, DETROIT, MI, 48208","Match","Non_Exact","2415 FERRY PARK ST, DETROIT, MI, 48208",95475664,"L"
133806,"2415 GELDING LN","FRISCO","TX",75036,33.1421779090001,-96.870732749,306,"2415 GELDING LN, FRISCO, TX, 75036","Match","Exact","2415 GELDING LN, FRISCO, TX, 75036",647150860,"R"
133807,"2415 HAMPTON TRAIL","CUMMING","GA",30041,34.130175142,-84.1535657209999,307,"2415 HAMPTON TRAIL, CUMMING, GA, 30041","Match","Exact","2415 HAMPTON TRL, CUMMING, GA, 30041",70186578,"L"
133808,"2415 HARTFORD DRIVE","JEFFERSON CITY","MO",65109,38.5578257830001,-92.2181184309999,308,"2415 HARTFORD DRIVE, JEFFERSON CITY, MO, 65109","Match","Exact","2415 HARTFORD DR, JEFFERSON CITY, MO, 65109",34421776,"L"
133809,"2415 HARTFORD DRIVE","JEFFERSON CTY","MO",65109,38.5578257830001,-92.2181184309999,309,"2415 HARTFORD DRIVE, JEFFERSON CTY, MO, 65109","Match","Exact","2415 HARTFORD DR, JEFFERSON CITY, MO, 65109",34421776,"L"
133810,"2415 INDEPENDENCE AVENUE","KANSAS CITY","MO",64124,39.106331288,-94.552033734,310,"2415 INDEPENDENCE AVENUE, KANSAS CITY, MO, 64124","Match","Exact","2415 INDEPENDENCE AVE, KANSAS CITY, MO, 64124",91483592,"R"
133811,"2415 LAWTON AVENUE","SAN LUIS OBISPO","CA",93401,35.267116781,-120.65692651,311,"2415 LAWTON AVENUE, SAN LUIS OBISPO, CA, 93401","Match","Exact","2415 LAWTON AVE, SAN LUIS OBISPO, CA, 93401",109732577,"L"
133812,"2415 LINCOLN ST","EVANSTON","IL",60201,42.062161395,-87.70685764,312,"2415 LINCOLN ST, EVANSTON, IL, 60201","Match","Exact","2415 LINCOLN ST, EVANSTON, IL, 60201",111739915,"R"
133813,"2415 MARSHALL DRIVE","QUAKERTOWN","PA",18951,40.41567085,-75.365041441,313,"2415 MARSHALL DRIVE, QUAKERTOWN, PA, 18951","Match","Exact","2415 MARSHALL DR, QUAKERTOWN, PA, 18951",134743597,"R"
133814,"2415 MCHENRY DRIVE","MOUNT AIRY","MD",21771,39.4345163670001,-77.0782658749999,314,"2415 MCHENRY DRIVE, MOUNT AIRY, MD, 21771","Match","Exact","2415 MCHENRY DR, MOUNT AIRY, MD, 21771",61791546,"L"
133815,"2415 MORNINGSIDE STREET","SAN DIEGO","CA",92139,32.674440981,-117.064958918,315,"2415 MORNINGSIDE STREET, SAN DIEGO, CA, 92139","Match","Exact","2415 MORNINGSIDE ST, SAN DIEGO, CA, 92139",195353656,"L"
133816,"2415 MT VERNON AVENUE","RIVERSIDE","CA",92507,33.9891819430001,-117.313733191,316,"2415 MT VERNON AVENUE, RIVERSIDE, CA, 92507","Match","Exact","2415 MOUNT VERNON AVE, RIVERSIDE, CA, 92507",618342831,"L"
133817,"2415 N BUTRICK","WAUKEGAN","IL",60087,42.396382067,-87.847849961,317,"2415 N BUTRICK, WAUKEGAN, IL, 60087","Match","Non_Exact","2415 N BUTRICK ST, WAUKEGAN, IL, 60087",119628933,"R"
133818,"2415 N MONROE ST","TALLAHASSEE","FM",32303,NA,NA,318,"2415 N MONROE ST, TALLAHASSEE, FM, 32303","No_Match",NA,NA,NA,NA
133819,"2415 N RIM DR","HOUSTON","TX",77067,29.9608066820001,-95.475673254,319,"2415 N RIM DR, HOUSTON, TX, 77067","Match","Exact","2415 N RIM DR, HOUSTON, TX, 77067",96011266,"L"
133820,"2415 N RIVERSIDE DRIVE","TAMPA","FL",33602,27.964652824,-82.472248377,320,"2415 N RIVERSIDE DRIVE, TAMPA, FL, 33602","Match","Exact","2415 N RIVERSIDE DR, TAMPA, FL, 33602",104521327,"R"
133821,"2415 NE 24TH AVE","PORTLAND","OR",97212,45.5398179910001,-122.641147381,321,"2415 NE 24TH AVE, PORTLAND, OR, 97212","Match","Exact","2415 NE 24TH AVE, PORTLAND, OR, 97212",157506721,"L"
133822,"2415 NISSI DRIVE","COLUMBUS","OH",43219,40.021935195,-82.9177374239999,322,"2415 NISSI DRIVE, COLUMBUS, OH, 43219","Match","Exact","2415 NISSI DR, COLUMBUS, OH, 43219",135707812,"L"
133823,"2415 NORTH CARLISLE STREET","PHILADELPHIA","PA",19132,39.9899255400001,-75.156334543,323,"2415 NORTH CARLISLE STREET, PHILADELPHIA, PA, 19132","Match","Exact","2415 N CARLISLE ST, PHILADELPHIA, PA, 19132",131418262,"R"
133824,"2415 NORTH MONROE STREET SUITE 2700","TALLAHASSEE","FL",32303,30.472317705,-84.291640966,324,"2415 NORTH MONROE STREET SUITE 2700, TALLAHASSEE, FL, 32303","Match","Exact","2415 N MONROE ST, TALLAHASSEE, FL, 32303",82849141,"R"
133825,"2415 OLAR CT","SPRING HILL","FL",34608,28.470646754,-82.5731827399999,325,"2415 OLAR CT, SPRING HILL, FL, 34608","Match","Exact","2415 OLAR CT, SPRING HILL, FL, 34608",85433489,"L"
133826,"2415 OVERBROOK DRIVE","ARLINGTON","TX",76014,32.6958270860001,-97.06704379,326,"2415 OVERBROOK DRIVE, ARLINGTON, TX, 76014","Match","Exact","2415 OVERBROOK DR, ARLINGTON, TX, 76014",101913889,"L"
133827,"2415 PLEASANT GROVE RD SW","MAUCKPORT","IN",47142,38.0564270140001,-86.1759241029999,327,"2415 PLEASANT GROVE RD SW, MAUCKPORT, IN, 47142","Match","Exact","2415 PLEASANT GROVE RD SW, MAUCKPORT, IN, 47142",34809931,"L"
133828,"2415 PORTLAND AVE","LOUISVILLE","KY",40212,38.2702309060001,-85.7876156579999,328,"2415 PORTLAND AVE, LOUISVILLE, KY, 40212","Match","Exact","2415 PORTLAND AVE, LOUISVILLE, KY, 40212",96841487,"R"
133829,"2415 ROUTE 89","SAVANNAH","NY",13146,43.09411872,-76.763256004,329,"2415 ROUTE 89, SAVANNAH, NY, 13146","Match","Non_Exact","2415 STATE RTE 89, SAVANNAH, NY, 13146",14919989,"L"
133830,"2415 SAN PABLO DAM ROAD STE 106 322","SAN PABLO","CA",94806,37.954463585,-122.33131721,330,"2415 SAN PABLO DAM ROAD STE 106 322, SAN PABLO, CA, 94806","Match","Exact","2415 SAN PABLO DAM RD, SAN PABLO, CA, 94806",639860726,"L"
133831,"2415 SAN RAMON BLVD STE 4416","SAN RAMON","CA",94583,NA,NA,331,"2415 SAN RAMON BLVD STE 4416, SAN RAMON, CA, 94583","No_Match",NA,NA,NA,NA
133832,"2415 SAN RAMON VALLEY BLVD 4188","SAN RAMON","CA",94583,NA,NA,332,"2415 SAN RAMON VALLEY BLVD 4188, SAN RAMON, CA, 94583","No_Match",NA,NA,NA,NA
133833,"2415 SAN RAMON VALLEY BLVD STE 4386","SAN RAMON","CA",94583,NA,NA,333,"2415 SAN RAMON VALLEY BLVD STE 4386, SAN RAMON, CA, 94583","No_Match",NA,NA,NA,NA
133834,"2415 SAND HILL ROAD","ELLICOTT CITY","MD",21042,39.3059194350001,-76.930618178,334,"2415 SAND HILL ROAD, ELLICOTT CITY, MD, 21042","Match","Exact","2415 SAND HILL RD, ELLICOTT CITY, MD, 21042",158969860,"L"
133835,"2415 SHAKESPEARE STREET 5","HOUSTON","TX",77030,29.714218379,-95.415298552,335,"2415 SHAKESPEARE STREET 5, HOUSTON, TX, 77030","Match","Exact","2415 SHAKESPEARE ST, HOUSTON, TX, 77030",637940076,"L"
133836,"2415 SPRINGMONTE PL","CUMMING","GA",30041,34.108366059,-84.1856536079999,336,"2415 SPRINGMONTE PL, CUMMING, GA, 30041","Match","Exact","2415 SPRINGMONTE PL, CUMMING, GA, 30041",635316491,"R"
133837,"2415 SPRINGWOOD GLEN LN","CONROE","TX",77304,30.3387357570001,-95.490617051,337,"2415 SPRINGWOOD GLEN LN, CONROE, TX, 77304","Match","Non_Exact","2415 SPRINGWOOD DR, CONROE, TX, 77304",624788456,"L"
133838,"2415 STATE ROUTE 603","ASHLAND","OH",44805,NA,NA,338,"2415 STATE ROUTE 603, ASHLAND, OH, 44805","No_Match",NA,NA,NA,NA
133839,"2415 W COLLEGE CT","VISALIA","CA",93277,36.3235360990001,-119.318744409,339,"2415 W COLLEGE CT, VISALIA, CA, 93277","Match","Exact","2415 W COLLEGE CT, VISALIA, CA, 93277",202780267,"L"
133840,"2415 W LINCOLN AVE SUITE B","ANAHEIM","CA",92801,33.8323520760001,-117.968636681,340,"2415 W LINCOLN AVE SUITE B, ANAHEIM, CA, 92801","Match","Non_Exact","2415 W LINCOLN AVE, ANAHEIM, CA, 92801",144011802,"R"
133841,"2415 WAKULLA WAY","ORLANDO","FL",32839,28.476111723,-81.41029479,341,"2415 WAKULLA WAY, ORLANDO, FL, 32839","Match","Exact","2415 WAKULLA WAY, ORLANDO, FL, 32839",94274999,"R"
133842,"2415 WEST 10TH STREET","OWENSBORO","KY",42301,37.7654380560001,-87.138080153,342,"2415 WEST 10TH STREET, OWENSBORO, KY, 42301","Match","Exact","2415 W 10TH ST, OWENSBORO, KY, 42301",37558135,"R"
133843,"2415 WESTDALE DR SW","CEDAR RAPIDS","IA",52404,41.9554489940001,-91.721987972,343,"2415 WESTDALE DR SW, CEDAR RAPIDS, IA, 52404","Match","Exact","2415 WESTDALE DR SW, CEDAR RAPIDS, IA, 52404",17051043,"R"
133844,"2415 WOODSTREAM BLVD","SUGAR LAND","TX",77479,29.5802842890001,-95.619173619,344,"2415 WOODSTREAM BLVD, SUGAR LAND, TX, 77479","Match","Exact","2415 WOODSTREAM BLVD, SUGAR LAND, TX, 77479",78268617,"R"
133845,"24150 WILLOWBROOK STREET","NOVI","MI",48375,42.467007747,-83.445559702,345,"24150 WILLOWBROOK STREET, NOVI, MI, 48375","Match","Non_Exact","24150 WILLOWBROOK, NOVI, MI, 48375",69723693,"R"
133846,"24151 BELLA DOLCE LANE APT 23008","KATY","TX",77494,29.782524166,-95.7872973889999,346,"24151 BELLA DOLCE LANE APT 23008, KATY, TX, 77494","Match","Exact","24151 BELLA DOLCE LN, KATY, TX, 77494",646711489,"L"
133847,"24155 THOMAS DR","WARREN","MI",48091,42.4711364890001,-83.069814363,347,"24155 THOMAS DR, WARREN, MI, 48091","Match","Non_Exact","24155 THOMAS ST, WARREN, MI, 48091",110670068,"L"
133848,"24159 EAGLES ROOST RD","LAKEHEAD","CA",96051,NA,NA,348,"24159 EAGLES ROOST RD, LAKEHEAD, CA, 96051","No_Match",NA,NA,NA,NA
133849,"2416 11TH AVE EAST","NORTH ST. PAUL","MN",55109,45.0155817670001,-92.9971951269999,349,"2416 11TH AVE EAST, NORTH ST. PAUL, MN, 55109","Match","Non_Exact","2416 11TH AVE, N SAINT PAUL, MN, 55109",97652751,"R"
133850,"2416 1ST AVE N UNIT 3","BIRMINGHAM","AL",35203,33.517214617,-86.799870342,350,"2416 1ST AVE N UNIT 3, BIRMINGHAM, AL, 35203","Match","Exact","2416 1ST AVE N, BIRMINGHAM, AL, 35203",81575879,"L"
133851,"2416 201ST AVE SE","SAMMAMISH","WA",98075,47.588433944,-122.071900217,351,"2416 201ST AVE SE, SAMMAMISH, WA, 98075","Match","Exact","2416 201ST AVE SE, SAMMAMISH, WA, 98075",186676774,"L"
133852,"2416 38TH AVENUE APT NO 5I","LONG ISLAND CITY","NY",11101,NA,NA,352,"2416 38TH AVENUE APT NO 5I, LONG ISLAND CITY, NY, 11101","No_Match",NA,NA,NA,NA
133853,"2416 6TH ST","CUYAHOGA FALLS","OH",44221,41.1404785030001,-81.4902338429999,353,"2416 6TH ST, CUYAHOGA FALLS, OH, 44221","Match","Exact","2416 6TH ST, CUYAHOGA FALLS, OH, 44221",61347811,"L"
133854,"2416 ADIRONDACK ROW UNIT 3","SAN DIEGO","CA",92139,32.6800771540001,-117.04580737,354,"2416 ADIRONDACK ROW UNIT 3, SAN DIEGO, CA, 92139","Match","Exact","2416 ADIRONDACK ROW, SAN DIEGO, CA, 92139",195353862,"R"
133855,"2416 ARROWWOOD TRAIL","ANN ARBOR","MI",48105,42.3080347000001,-83.7331324419999,355,"2416 ARROWWOOD TRAIL, ANN ARBOR, MI, 48105","Match","Exact","2416 ARROWWOOD TRL, ANN ARBOR, MI, 48105",648231313,"R"
133856,"2416 BANNER STREET","DEARBORN","MI",48124,42.294427779,-83.274043573,356,"2416 BANNER STREET, DEARBORN, MI, 48124","Match","Exact","2416 BANNER ST, DEARBORN, MI, 48124",95433640,"R"
133857,"2416 BUR OAK ST NE","CANTON","OH",44705,40.852775491,-81.340191255,357,"2416 BUR OAK ST NE, CANTON, OH, 44705","Match","Exact","2416 BUR OAK ST NE, CANTON, OH, 44705",64683923,"L"
133858,"2416 C AVE NE","CEDAR RAPIDS","IA",52402,42.001784098,-91.640012181,358,"2416 C AVE NE, CEDAR RAPIDS, IA, 52402","Match","Exact","2416 C AVE NE, CEDAR RAPIDS, IA, 52402",17022062,"L"
133859,"2416 CEDAR CREEK DRIVE","CHATTANOOGA","TN",37421,35.0239887490001,-85.108792076,359,"2416 CEDAR CREEK DRIVE, CHATTANOOGA, TN, 37421","Match","Exact","2416 CEDAR CREEK DR, CHATTANOOGA, TN, 37421",59329984,"L"
133860,"2416 CLYDESDALE RD","FINKSBURG","MD",21048,39.523449552,-76.9148075689999,360,"2416 CLYDESDALE RD, FINKSBURG, MD, 21048","Match","Exact","2416 CLYDESDALE RD, FINKSBURG, MD, 21048",61755375,"L"
133861,"2416 COLONIAL AVE STE 14","WACO","TX",76707,31.549461335,-97.158586255,361,"2416 COLONIAL AVE STE 14, WACO, TX, 76707","Match","Exact","2416 COLONIAL AVE, WACO, TX, 76707",146735155,"L"
133862,"2416 DOTY LANE","BALCH SPRINGS","TX",75180,32.735214066,-96.636018109,362,"2416 DOTY LANE, BALCH SPRINGS, TX, 75180","Match","Exact","2416 DOTY LN, BALCH SPRINGS, TX, 75180",102962251,"L"
133863,"2416 E WASHINGTON SUITE B-2","BLOOMINGTON","IL",61704,NA,NA,363,"2416 E WASHINGTON SUITE B-2, BLOOMINGTON, IL, 61704","No_Match",NA,NA,NA,NA
133864,"2416 KENTUCKY AVE","BALTIMORE","MD",21213,39.3279468700001,-76.5773757059999,364,"2416 KENTUCKY AVE, BALTIMORE, MD, 21213","Match","Exact","2416 KENTUCKY AVE, BALTIMORE, MD, 21213",206439610,"L"
133865,"2416 LIPSCOMB STREET","MELBOURNE","FL",32901,28.072329385,-80.604705627,365,"2416 LIPSCOMB STREET, MELBOURNE, FL, 32901","Match","Non_Exact","2416 LIPSCOMB ST NE, MELBOURNE, FL, 32901",93905345,"R"
133866,"2416 MANOR WAY","LOGANVILLE","GA",30052,33.7991369430001,-83.9618622419999,366,"2416 MANOR WAY, LOGANVILLE, GA, 30052","Match","Exact","2416 MANOR WAY, LOGANVILLE, GA, 30052",632096009,"L"
133867,"2416 MUSIC VALLEY DR SUITE 134","NASHVILLE","TN",37214,36.2183208110001,-86.695827018,367,"2416 MUSIC VALLEY DR SUITE 134, NASHVILLE, TN, 37214","Match","Exact","2416 MUSIC VALLEY DR, NASHVILLE, TN, 37214",97213817,"L"
133868,"2416 N DIAMOND LAKE DRIVE","TUCSON","AZ",85749,32.2511115070001,-110.792837159,368,"2416 N DIAMOND LAKE DRIVE, TUCSON, AZ, 85749","Match","Exact","2416 N DIAMOND LAKE DR, TUCSON, AZ, 85749",121408444,"R"
133869,"2416 N STREET","BAKERSFIELD","CA",93301,35.381199366,-119.014050165,369,"2416 N STREET, BAKERSFIELD, CA, 93301","Match","Exact","2416 N ST, BAKERSFIELD, CA, 93301",109087871,"R"
133870,"2416 N THOROUGHBRED DR","VINCENNES","IN",47591,38.7175683450001,-87.488494009,370,"2416 N THOROUGHBRED DR, VINCENNES, IN, 47591","Match","Exact","2416 THOROUGHBRED DR, VINCENNES, IN, 47591",30071022,"R"
133871,"2416 NE 130TH AVE","VANCOUVER","WA",98684,NA,NA,371,"2416 NE 130TH AVE, VANCOUVER, WA, 98684","No_Match",NA,NA,NA,NA
133872,"2416 NEWKIRK AVENUE   SUITE 5F","BROOKLYN","NY",11226,40.6396419870001,-73.953963855,372,"2416 NEWKIRK AVENUE   SUITE 5F, BROOKLYN, NY, 11226","Match","Exact","2416 NEWKIRK AVE, BROOKLYN, NY, 11226",59081618,"R"
133873,"2416 NW 100 ST","MIAMI","FL",33147,25.865967332,-80.238786529,373,"2416 NW 100 ST, MIAMI, FL, 33147","Match","Exact","2416 NW 100TH ST, MIAMI, FL, 33147",115998712,"L"
133874,"2416 OUR COUNTRY ROAD","SAN DIEGO","CA",92029,33.08928246,-117.086732604,374,"2416 OUR COUNTRY ROAD, SAN DIEGO, CA, 92029","Match","Non_Exact","2416 OUR COUNTRY RD, ESCONDIDO, CA, 92029",195376342,"L"
133875,"2416 PALMDALE STREET","JACKSONVILLE","FL",32208,30.3891152910001,-81.6940598319999,375,"2416 PALMDALE STREET, JACKSONVILLE, FL, 32208","Match","Exact","2416 PALMDALE ST, JACKSONVILLE, FL, 32208",83937406,"L"
133876,"2416 PLENTYWOOD DR","PLANO","TX",75025,33.089846284,-96.7440996879999,376,"2416 PLENTYWOOD DR, PLANO, TX, 75025","Match","Exact","2416 PLENTYWOOD DR, PLANO, TX, 75025",123533345,"R"
133877,"2416 QUILTING BEE RD","CATONSVILLE","MD",21228,39.286536395,-76.770488643,377,"2416 QUILTING BEE RD, CATONSVILLE, MD, 21228","Match","Exact","2416 QUILTING BEE RD, CATONSVILLE, MD, 21228",191504369,"R"
133878,"2416 RIVIERA DR","SAN DIEGO","CA",91915,32.6357565910001,-116.955251326,378,"2416 RIVIERA DR, SAN DIEGO, CA, 91915","Match","Non_Exact","2416 RIVIERA DR, CHULA VISTA, CA, 91915",612893647,"R"
133879,"2416 ROSECREST ST","GROVE CITY","OH",43123,39.9031045930001,-83.114720798,379,"2416 ROSECREST ST, GROVE CITY, OH, 43123","Match","Exact","2416 ROSECREST ST, GROVE CITY, OH, 43123",135635600,"R"
133880,"2416 SCHLEY AVE","ALBANY","GA",31701,31.6189515720001,-84.200273674,380,"2416 SCHLEY AVE, ALBANY, GA, 31701","Match","Non_Exact","2416 SCHLEY AVE, ALBANY, GA, 31707",84322954,"R"
133881,"2416 SEWELL STREET","LINCOLN","NE",68502,40.7898899800001,-96.686879575,381,"2416 SEWELL STREET, LINCOLN, NE, 68502","Match","Exact","2416 SEWELL ST, LINCOLN, NE, 68502",28255663,"L"
133882,"2416 SHADOW LANE APT 75","ANTIOCH","CA",94509,38.0020042730001,-121.828060953,382,"2416 SHADOW LANE APT 75, ANTIOCH, CA, 94509","Match","Exact","2416 SHADOW LN, ANTIOCH, CA, 94509",607734894,"R"
133883,"2416 SOUTH DERBIGNY STREET","NEW ORLEANS","LA",70125,29.9451965320001,-90.0921332189999,383,"2416 SOUTH DERBIGNY STREET, NEW ORLEANS, LA, 70125","Match","Exact","2416 S DERBIGNY ST, NEW ORLEANS, LA, 70125",191712238,"L"
133884,"2416 SOUTH MEMPHIS WAY","AURORA","CO",80013,39.6723620920001,-104.796599853,384,"2416 SOUTH MEMPHIS WAY, AURORA, CO, 80013","Match","Exact","2416 S MEMPHIS WAY, AURORA, CO, 80013",177357182,"L"
133885,"2416 SOUTH MYRTLE AVE","SANFORD","FL",32771,28.7890621380001,-81.269931061,385,"2416 SOUTH MYRTLE AVE, SANFORD, FL, 32771","Match","Exact","2416 S MYRTLE AVE, SANFORD, FL, 32771",93750387,"R"
133886,"2416 STATE ROUTE 243","IRONTON","OH",45638,38.495802686,-82.615324159,386,"2416 STATE ROUTE 243, IRONTON, OH, 45638","Match","Exact","2416 STATE RTE 243, IRONTON, OH, 45638",55014034,"L"
133887,"2416 SUMMIT DR","HILLSBOROUGH","NC",27278,36.0489810810001,-79.084761138,387,"2416 SUMMIT DR, HILLSBOROUGH, NC, 27278","Match","Exact","2416 SUMMIT DR, HILLSBOROUGH, NC, 27278",72416474,"R"
133888,"2416 W SHAW AVE STE 106","FRESNO","CA",93711,36.8083053060001,-119.835862146,388,"2416 W SHAW AVE STE 106, FRESNO, CA, 93711","Match","Non_Exact","2416 W SHAW AVE, FRESNO, CA, 93711",197613009,"R"
133889,"2416 WEST CLOVERDALE PARK","MONTGOMERY","AL",36106,32.3563858100001,-86.2922367309999,389,"2416 WEST CLOVERDALE PARK, MONTGOMERY, AL, 36106","Match","Exact","2416 W CLOVERDALE PARK, MONTGOMERY, AL, 36106",1475439,"R"
133890,"2416 WEST VICTORY BLVD SUITE 618","BURBANK","CA",91506,34.184566472,-118.337384007,390,"2416 WEST VICTORY BLVD SUITE 618, BURBANK, CA, 91506","Match","Exact","2416 W VICTORY BLVD, BURBANK, CA, 91506",141592492,"L"
133891,"2416 WOODROW DR","TOLEDO","OH",43611,NA,NA,391,"2416 WOODROW DR, TOLEDO, OH, 43611","No_Match",NA,NA,NA,NA
133892,"2416 XAVIER","MCALLEN","TX",78504,26.296947819,-98.2303660379999,392,"2416 XAVIER, MCALLEN, TX, 78504","Match","Non_Exact","2416 XAVIER AVE, MCALLEN, TX, 78504",627323872,"R"
133893,"2416 YORKTOWN ST APT454","HOUSTON","TX",77056,29.74409676,-95.470759075,393,"2416 YORKTOWN ST APT454, HOUSTON, TX, 77056","Match","Exact","2416 YORKTOWN ST, HOUSTON, TX, 77056",96033138,"R"
133894,"2416 YOSEMITE AVE","ESCALON","CA",95320,37.7987311000001,-120.982306099,394,"2416 YOSEMITE AVE, ESCALON, CA, 95320","Match","Exact","2416 YOSEMITE AVE, ESCALON, CA, 95320",133876404,"L"
133895,"2416","BLOOMFIELD","NM",87413,NA,NA,395,"2416, BLOOMFIELD, NM, 87413","No_Match",NA,NA,NA,NA
133896,"24161 BRIAR BERRY LN","PORTER","TX",77365,30.0966039890001,-95.253246629,396,"24161 BRIAR BERRY LN, PORTER, TX, 77365","Match","Exact","24161 BRIAR BERRY LN, PORTER, TX, 77365",79286831,"R"
133897,"24165 IH10 W SUITE 217 286","SAN ANTONIO","TX",78257,NA,NA,397,"24165 IH10 W SUITE 217 286, SAN ANTONIO, TX, 78257","No_Match",NA,NA,NA,NA
133898,"24165 PLEASANT RUN ROAD","MORENO VALLEY","CA",92557,33.9617236710001,-117.241028068,398,"24165 PLEASANT RUN ROAD, MORENO VALLEY, CA, 92557","Match","Exact","24165 PLEASANT RUN RD, MORENO VALLEY, CA, 92557",194814556,"L"
133899,"24165 W IH 10 STE 217-202","SAN ANTONIO","TX",78257,NA,NA,399,"24165 W IH 10 STE 217-202, SAN ANTONIO, TX, 78257","No_Match",NA,NA,NA,NA
133900,"24168 BAY SHORE DRIVE","DAPHNE","AL",36526,30.5773056790001,-87.9099999699999,400,"24168 BAY SHORE DRIVE, DAPHNE, AL, 36526","Match","Exact","24168 BAY SHORE DR, DAPHNE, AL, 36526",131719778,"L"
133901,"2417 21ST ST","SACRAMENTO","CA",95818,38.5607890740001,-121.485284147,401,"2417 21ST ST, SACRAMENTO, CA, 95818","Match","Exact","2417 21ST ST, SACRAMENTO, CA, 95818",133324421,"L"
133902,"2417 BRISTOW AVE","ST LOUIS","MO",63114,38.699156363,-90.339071417,402,"2417 BRISTOW AVE, ST LOUIS, MO, 63114","Match","Exact","2417 BRISTOW AVE, SAINT LOUIS, MO, 63114",100133378,"L"
133903,"2417 CALLE LINARES","SANTA BARBARA","CA",93109,34.4057775100001,-119.730163082,403,"2417 CALLE LINARES, SANTA BARBARA, CA, 93109","Match","Non_Exact","2417 CLL LINARES, SANTA BARBARA, CA, 93109",108607172,"L"
133904,"2417 CANTON ROAD","MARIETTA","GA",30066,34.010843778,-84.5275403479999,404,"2417 CANTON ROAD, MARIETTA, GA, 30066","Match","Exact","2417 CANTON RD, MARIETTA, GA, 30066",17168968,"L"
133905,"2417 CINDY LN","DENISON","TX",75020,33.754690338,-96.5704450759999,405,"2417 CINDY LN, DENISON, TX, 75020","Match","Exact","2417 CINDY LN, DENISON, TX, 75020",63352818,"R"
133906,"2417 E SANTO STEFANO DR","MERIDIAN","ID",83642,43.565940176,-116.36331945,406,"2417 E SANTO STEFANO DR, MERIDIAN, ID, 83642","Match","Exact","2417 E SANTO STEFANO DR, MERIDIAN, ID, 83642",619863187,"L"
133907,"2417 ESTHER AVE","HUNTSVILLE","AL",35816,34.7844446620001,-86.595552524,407,"2417 ESTHER AVE, HUNTSVILLE, AL, 35816","Match","Non_Exact","2417 ESTHER AVE, HUNTSVILLE, AL, 35810",58165267,"L"
133908,"2417 GENEVA LN","MONTGOMERY","IL",60538,41.7137029940001,-88.3927735509999,408,"2417 GENEVA LN, MONTGOMERY, IL, 60538","Match","Exact","2417 GENEVA LN, MONTGOMERY, IL, 60538",54495701,"R"
133909,"2417 GRANT STREET","OMAHA","NE",68111,41.2801135070001,-95.947357037,409,"2417 GRANT STREET, OMAHA, NE, 68111","Match","Exact","2417 GRANT ST, OMAHA, NE, 68111",116987320,"L"
133910,"2417 HIAWATHA DR NE","ALBUQUERQUE","NM",87112,35.110465973,-106.509884712,410,"2417 HIAWATHA DR NE, ALBUQUERQUE, NM, 87112","Match","Exact","2417 HIAWATHA DR NE, ALBUQUERQUE, NM, 87112",206720269,"L"
133911,"2417 HIGHWAY 32","OAKLAND","NE",68045,41.828954364,-96.5715326339999,411,"2417 HIGHWAY 32, OAKLAND, NE, 68045","Match","Non_Exact","2417 STATE HWY 32, OAKLAND, NE, 68045",136143405,"L"
133912,"2417 HUNTINGTON ROAD","CHARLOTTESVILLE","VA",22901,38.0722294030001,-78.4645907249999,412,"2417 HUNTINGTON ROAD, CHARLOTTESVILLE, VA, 22901","Match","Exact","2417 HUNTINGTON RD, CHARLOTTESVILLE, VA, 22901",221726032,"L"
133913,"2417 JERICHO TURNPIKE 115","NEW HYDE PARK","NY",11040,NA,NA,413,"2417 JERICHO TURNPIKE 115, NEW HYDE PARK, NY, 11040","No_Match",NA,NA,NA,NA
133914,"2417 LA BRUCHERIE ROAD- SUITE C","IMPERIAL","CA",92251,NA,NA,414,"2417 LA BRUCHERIE ROAD- SUITE C, IMPERIAL, CA, 92251","No_Match",NA,NA,NA,NA
133915,"2417 LILY LOCH COURT","VIRGINIA BEACH","VA",23456,36.7568558630001,-76.118956952,415,"2417 LILY LOCH COURT, VIRGINIA BEACH, VA, 23456","Match","Exact","2417 LILY LOCH CT, VA BCH, VA, 23456",643376653,"L"
133916,"2417 MARY JEWETT CIRCLE","WINTER HAVEN","FL",33881,28.0510569630001,-81.715498638,416,"2417 MARY JEWETT CIRCLE, WINTER HAVEN, FL, 33881","Match","Exact","2417 MARY JEWETT CIR, WINTER HAVEN, FL, 33881",104855730,"L"
133917,"2417 MEDLIN DR SUITE 19","ARLINGTON","TX",76015,32.705080503,-97.127896671,417,"2417 MEDLIN DR SUITE 19, ARLINGTON, TX, 76015","Match","Exact","2417 MEDLIN DR, ARLINGTON, TX, 76015",101906831,"L"
133918,"2417 MT VERNON AVENUE","ALEXANDRIA","VA",22301,38.8274231840001,-77.058877744,418,"2417 MT VERNON AVENUE, ALEXANDRIA, VA, 22301","Match","Exact","2417 MOUNT VERNON AVE, ALEXANDRIA, VA, 22301",75987864,"R"
133919,"2417 N 11TH AVE","HANFORD","CA",93230,36.3559253270001,-119.654996989,419,"2417 N 11TH AVE, HANFORD, CA, 93230","Match","Exact","2417 N 11TH AVE, HANFORD, CA, 93230",629696311,"R"
133920,"2417 NW 159TH TERRACE","EDMOND","OK",73013,35.632350591,-97.55696672,420,"2417 NW 159TH TERRACE, EDMOND, OK, 73013","Match","Exact","2417 NW 159TH TER, EDMOND, OK, 73013",646676238,"R"
133921,"2417 OAKFORD STREET","PHILADELPHIA","PA",19146,39.937439549,-75.184259228,421,"2417 OAKFORD STREET, PHILADELPHIA, PA, 19146","Match","Exact","2417 OAKFORD ST, PHILADELPHIA, PA, 19146",131406952,"R"
133922,"2417 PLEASANT VALLEY DR","ST. CHARLES","MO",63303,38.7671998690001,-90.5202819679999,422,"2417 PLEASANT VALLEY DR, ST. CHARLES, MO, 63303","Match","Exact","2417 PLEASANT VALLEY DR, SAINT CHARLES, MO, 63303",100024684,"R"
133923,"2417 PORTER AVE","SUITLAND","MD",20746,38.856857285,-76.9244525089999,423,"2417 PORTER AVE, SUITLAND, MD, 20746","Match","Exact","2417 PORTER AVE, SUITLAND, MD, 20746",76314420,"R"
133924,"2417 RAINBOW DR","CEDAR FALLS","IA",50613,42.5173821860001,-92.414869983,424,"2417 RAINBOW DR, CEDAR FALLS, IA, 50613","Match","Exact","2417 RAINBOW DR, CEDAR FALLS, IA, 50613",77249442,"R"
133925,"2417 ROOSEVELT AVENUE","FORT WORTH","TX",76164,32.7885854680001,-97.368407932,425,"2417 ROOSEVELT AVENUE, FORT WORTH, TX, 76164","Match","Exact","2417 ROOSEVELT AVE, FORT WORTH, TX, 76164",101855657,"L"
133926,"2417 RUTH LANE","KISSIMMEE","FL",34744,28.315222256,-81.3333739409999,426,"2417 RUTH LANE, KISSIMMEE, FL, 34744","Match","Exact","2417 RUTH LN, KISSIMMEE, FL, 34744",176669681,"L"
133927,"2417 S GRAHAM STREET STE 1","SEATTLE","WA",98108,47.546407817,-122.301966579,427,"2417 S GRAHAM STREET STE 1, SEATTLE, WA, 98108","Match","Non_Exact","2417 S GRAHAM ST, SEATTLE, WA, 98108",186595527,"R"
133928,"2417 S SAGINAW ST","FLINT","MI",48503,43.000069077,-83.67773199,428,"2417 S SAGINAW ST, FLINT, MI, 48503","Match","Exact","2417 S SAGINAW ST, FLINT, MI, 48503",69575383,"L"
133929,"2417 SARBONNE DRIVE","OCEANSIDE","CA",92054,33.196719977,-117.342915042,429,"2417 SARBONNE DRIVE, OCEANSIDE, CA, 92054","Match","Exact","2417 SARBONNE DR, OCEANSIDE, CA, 92054",640049430,"R"
133930,"2417 SW WARWICK ST","PORT SAINT LUCIE","FL",34984,27.270736804,-80.3450105429999,430,"2417 SW WARWICK ST, PORT SAINT LUCIE, FL, 34984","Match","Exact","2417 SW WARWICK ST, PORT ST LUCIE, FL, 34984",120153160,"L"
133931,"2417 SYMONDS DR  5376","PINE MOUNTAIN CLUB","CA",93222,34.849660462,-119.170298442,431,"2417 SYMONDS DR  5376, PINE MOUNTAIN CLUB, CA, 93222","Match","Exact","2417 SYMONDS DR, PINE MOUNTAIN CLUB, CA, 93222",109078976,"L"
133932,"2417 W BANK DRIVE","BOISE","ID",83705,43.5910462470001,-116.211491099,432,"2417 W BANK DRIVE, BOISE, ID, 83705","Match","Exact","2417 BANK DR, BOISE, ID, 83705",117865134,"L"
133933,"2417 W LAWRENCE","CHICAGO","IL",60625,41.968604751,-87.689637367,433,"2417 W LAWRENCE, CHICAGO, IL, 60625","Match","Non_Exact","2417 W LAWRENCE AVE, CHICAGO, IL, 60625",605184549,"L"
133934,"2417 WINWOOD STREET","LAS VEGAS","NV",89108,36.203875849,-115.219327547,434,"2417 WINWOOD STREET, LAS VEGAS, NV, 89108","Match","Exact","2417 WINWOOD ST, LAS VEGAS, NV, 89108",201859410,"R"
133935,"2417 WOODMERE DR","VESTAVIA HILLS","AL",35226,33.4309086800001,-86.812654534,435,"2417 WOODMERE DR, VESTAVIA HILLS, AL, 35226","Match","Exact","2417 WOODMERE DR, VESTAVIA HILLS, AL, 35226",81582515,"L"
133936,"2417 WOOLERY MILL DR","BLOOMINGTON","IN",47403,39.1417435430001,-86.550312404,436,"2417 WOOLERY MILL DR, BLOOMINGTON, IN, 47403","Match","Non_Exact","2417 S WOOLERY MILL DR, BLOOMINGTON, IN, 47403",647308696,"L"
133937,"24170 DENISE BLVD  APT 53C","CLINTON TWP","MI",48036,42.572666709,-82.869641411,437,"24170 DENISE BLVD  APT 53C, CLINTON TWP, MI, 48036","Match","Exact","24170 DENISE BLVD, CLINTON TOWNSHIP, MI, 48036",110701098,"R"
133938,"24179 AMBOUR DRIVE","NORTH OLMSTED","OH",44070,41.4420466290001,-81.887665179,438,"24179 AMBOUR DRIVE, NORTH OLMSTED, OH, 44070","Match","Exact","24179 AMBOUR DR, NORTH OLMSTED, OH, 44070",61139441,"L"
133939,"2418 23","WYANDOTTE","MI",48192,42.208552782,-83.1792566029999,439,"2418 23, WYANDOTTE, MI, 48192","Match","Non_Exact","2418 23RD ST, WYANDOTTE, MI, 48192",95451930,"R"
133940,"2418 44TH AVE","MERIDIAN","MS",39307,32.3829454,-88.72236308,440,"2418 44TH AVE, MERIDIAN, MS, 39307","Match","Exact","2418 44TH AVE, MERIDIAN, MS, 39307",189624,"R"
133941,"2418 94TH STREET 2ND FL","EAST EMHURST","NY",11369,NA,NA,441,"2418 94TH STREET 2ND FL, EAST EMHURST, NY, 11369","No_Match",NA,NA,NA,NA
133942,"2418 BROOKDALE","KINGWOOD","TX",77339,30.063222981,-95.1998493359999,442,"2418 BROOKDALE, KINGWOOD, TX, 77339","Match","Non_Exact","2418 BROOKDALE DR, KINGWOOD, TX, 77339",96048348,"R"
133943,"2418 CR 220","DURANGO","CO",81303,37.214970265,-107.802274668,443,"2418 CR 220, DURANGO, CO, 81303","Match","Exact","2418 CO RD 220, DURANGO, CO, 81303",645922023,"L"
133944,"2418 E 9TH ST N","WICHITA","KS",67214,37.7009191810001,-97.3079016949999,444,"2418 E 9TH ST N, WICHITA, KS, 67214","Match","Exact","2418 E 9TH ST N, WICHITA, KS, 67214",115637012,"L"
133945,"2418 E HWY 66 PMB 190","GALLUP","NM",87301,NA,NA,445,"2418 E HWY 66 PMB 190, GALLUP, NM, 87301","No_Match",NA,NA,NA,NA
133946,"2418 EAST NINTH STREET SUITE 13","WICHITA","KS",67214,37.7009191550001,-97.307905429,446,"2418 EAST NINTH STREET SUITE 13, WICHITA, KS, 67214","Match","Non_Exact","2418 E 9TH ST N, WICHITA, KS, 67214",115637012,"L"
133947,"2418 FAIRWINDS DR","HOUSTON","TX",77062,NA,NA,447,"2418 FAIRWINDS DR, HOUSTON, TX, 77062","No_Match",NA,NA,NA,NA
133948,"2418 FM 895","COOPER","TX",75432,33.3912006320001,-95.564014387,448,"2418 FM 895, COOPER, TX, 75432","Match","Exact","2418 FM 895, COOPER, TX, 75432",70342121,"L"
133949,"2418 GLENBROOK DRIVE","DURHAM","NC",27704,36.0248655780001,-78.876622609,449,"2418 GLENBROOK DRIVE, DURHAM, NC, 27704","Match","Exact","2418 GLENBROOK DR, DURHAM, NC, 27704",71775596,"R"
133950,"2418 GRAND PRIZE AVE","NORTH LAS VEGAS","NV",89032,36.202426803,-115.173455805,450,"2418 GRAND PRIZE AVE, NORTH LAS VEGAS, NV, 89032","Match","Exact","2418 GRAND PRIZE AVE, N LAS VEGAS, NV, 89032",201930416,"R"
133951,"2418 HENDERSON MILL CT NE","ATLANTA","GA",30345,NA,NA,451,"2418 HENDERSON MILL CT NE, ATLANTA, GA, 30345","Tie",NA,NA,NA,NA
133952,"2418 HIGHWAY 441 SOUTH","DUBLIN","GA",31040,NA,NA,452,"2418 HIGHWAY 441 SOUTH, DUBLIN, GA, 31040","No_Match",NA,NA,NA,NA
133953,"2418 HUNTINGTON GLEN DRIVE","BIRMINGHAM","AL",35226,33.4360608110001,-86.8343228479999,453,"2418 HUNTINGTON GLEN DRIVE, BIRMINGHAM, AL, 35226","Match","Exact","2418 HUNTINGTON GLEN DR, BIRMINGHAM, AL, 35226",81771114,"R"
133954,"2418 KEN OAK ROAD","BALTIMORE","MD",21209,39.358897606,-76.667381516,454,"2418 KEN OAK ROAD, BALTIMORE, MD, 21209","Match","Exact","2418 KEN OAK RD, BALTIMORE, MD, 21209",206464896,"R"
133955,"2418 LAKELAND DRIVE","ALMA","AR",72921,35.43530215,-94.182298524,455,"2418 LAKELAND DRIVE, ALMA, AR, 72921","Match","Exact","2418 LAKELAND DR, ALMA, AR, 72921",53495471,"L"
133956,"2418 N WHEELER ST","JASPER","TX",75951,30.9416414780001,-93.996699343,456,"2418 N WHEELER ST, JASPER, TX, 75951","Match","Exact","2418 N WHEELER ST, JASPER, TX, 75951",32386589,"R"
133957,"2418 NORTH FRAZIER STE 108","CONROE","TX",77303,30.3413627850001,-95.4691323489999,457,"2418 NORTH FRAZIER STE 108, CONROE, TX, 77303","Match","Non_Exact","2418 N FRAZIER ST, CONROE, TX, 77303",79330822,"R"
133958,"2418 NW 11TH ST","OKLAHOMA CITY","OK",73107,35.4807443500001,-97.555286883,458,"2418 NW 11TH ST, OKLAHOMA CITY, OK, 73107","Match","Non_Exact","2418 NW 11TH ST, OKLAHOMA CITY, OK, 73107",100398629,"L"
133959,"2418 O STREET","SACRAMENTO","CA",95816,38.5696370150001,-121.476634912,459,"2418 O STREET, SACRAMENTO, CA, 95816","Match","Exact","2418 O ST, SACRAMENTO, CA, 95816",133324366,"R"
133960,"2418 OAKLAND BLVD NW","ROANOKE","VA",24012,37.299699419,-79.9509628329999,460,"2418 OAKLAND BLVD NW, ROANOKE, VA, 24012","Match","Exact","2418 OAKLAND BLVD NW, ROANOKE, VA, 24012",62904095,"L"
133961,"2418 PENDLETON STREET","BOISE","ID",83705,43.59256142,-116.211527526,461,"2418 PENDLETON STREET, BOISE, ID, 83705","Match","Exact","2418 PENDLETON ST, BOISE, ID, 83705",117865123,"R"
133962,"2418 PROFESSOR AVE","CLEVELAND","OH",44113,41.47963917,-81.6847125369999,462,"2418 PROFESSOR AVE, CLEVELAND, OH, 44113","Match","Exact","2418 PROFESSOR AVE, CLEVELAND, OH, 44113",61111449,"R"
133963,"2418 RAVENWOOD CT","MANSFIELD","TX",76063,32.5969116700001,-97.166241117,463,"2418 RAVENWOOD CT, MANSFIELD, TX, 76063","Match","Exact","2418 RAVENWOOD CT, MANSFIELD, TX, 76063",618507335,"R"
133964,"2418 RICHFIELD DRIVE","GARLAND","TX",75040,32.9423508260001,-96.5950538769999,464,"2418 RICHFIELD DRIVE, GARLAND, TX, 75040","Match","Exact","2418 RICHFIELD DR, GARLAND, TX, 75040",103164283,"L"
133965,"2418 ROCKY SHORES DR","NICEVILLE","FL",32578,30.511224548,-86.438751639,465,"2418 ROCKY SHORES DR, NICEVILLE, FL, 32578","Match","Exact","2418 ROCKY SHORES DR, NICEVILLE, FL, 32578",646269751,"R"
133966,"2418 S GRIFFITH AVENUE","OWENSBORO","KY",42301,NA,NA,466,"2418 S GRIFFITH AVENUE, OWENSBORO, KY, 42301","Tie",NA,NA,NA,NA
133967,"2418 SANDLEWOOD TRAIL LN","HOUSTON","TX",77014,29.976657028,-95.456363112,467,"2418 SANDLEWOOD TRAIL LN, HOUSTON, TX, 77014","Match","Exact","2418 SANDLEWOOD TRAIL LN, HOUSTON, TX, 77014",624597563,"L"
133968,"2418 SAWGRASS CT","LEAGUE CITY","TX",77573,29.5347689640001,-95.060972406,468,"2418 SAWGRASS CT, LEAGUE CITY, TX, 77573","Match","Exact","2418 SAWGRASS CT, LEAGUE CITY, TX, 77573",96724597,"R"
133969,"2418 VESTA DRIVE","JOLIET","IL",60431,41.5668190480001,-88.169519566,469,"2418 VESTA DRIVE, JOLIET, IL, 60431","Match","Exact","2418 VESTA DR, JOLIET, IL, 60431",635073836,"R"
133970,"2418 WEST BANK EXPRESSWAY","HARVEY","LA",70058,29.899272771,-90.074371134,470,"2418 WEST BANK EXPRESSWAY, HARVEY, LA, 70058","Match","Non_Exact","2418 WESTBANK EXPY, HARVEY, LA, 70058",93550626,"L"
133971,"2418 WOOD TRAIL LANE","DECATUR","GA",30033,33.801822825,-84.289732062,471,"2418 WOOD TRAIL LANE, DECATUR, GA, 30033","Match","Exact","2418 WOOD TRAIL LN, DECATUR, GA, 30033",23360473,"L"
133972,"24180 WINTERGREEN CIRCLE","NOVI","MI",48374,42.465571078,-83.504976802,472,"24180 WINTERGREEN CIRCLE, NOVI, MI, 48374","Match","Exact","24180 WINTERGREEN CIR, NOVI, MI, 48374",69782047,"L"
133973,"24186 SW 113TH PASSAGE","HOMESTEAD","FL",33032,25.5427399010001,-80.3757707189999,473,"24186 SW 113TH PASSAGE, HOMESTEAD, FL, 33032","Match","Exact","24186 SW 113TH PSGE, HOMESTEAD, FL, 33032",627972088,"L"
133974,"24189 AVIATION AVENUE","DAVIS","CA",95616,NA,NA,474,"24189 AVIATION AVENUE, DAVIS, CA, 95616","No_Match",NA,NA,NA,NA
133975,"2419 12TH AVENUE SOUTH SUITE 4","MOORHEAD","MN",56560,46.86216124,-96.743158589,475,"2419 12TH AVENUE SOUTH SUITE 4, MOORHEAD, MN, 56560","Match","Exact","2419 12TH AVE S, MOORHEAD, MN, 56560",168030527,"R"
133976,"2419 ALLUVIAL AVENUE STE 170","CLOVIS","CA",93611,36.8446993520001,-119.670221111,476,"2419 ALLUVIAL AVENUE STE 170, CLOVIS, CA, 93611","Match","Exact","2419 ALLUVIAL AVE, CLOVIS, CA, 93611",617776999,"L"
133977,"2419 BOSTON AVE","NEDERLAND","TX",77627,29.966883825,-93.99923276,477,"2419 BOSTON AVE, NEDERLAND, TX, 77627","Match","Exact","2419 BOSTON AVE, NEDERLAND, TX, 77627",73883471,"L"
133978,"2419 BROOK DR SE","KENTWOOD","MI",49512,42.900092967,-85.607067311,478,"2419 BROOK DR SE, KENTWOOD, MI, 49512","Match","Exact","2419 BROOK DR SE, KENTWOOD, MI, 49512",636531846,"L"
133979,"2419 COIT RD SUITE B","PLANO","TX",75075,33.0310811530001,-96.770164229,479,"2419 COIT RD SUITE B, PLANO, TX, 75075","Match","Exact","2419 COIT RD, PLANO, TX, 75075",624405824,"R"
133980,"2419 COUNTRY PLACE","MARYLAND HEIGHTS","MO",63043,38.7246522390001,-90.465701241,480,"2419 COUNTRY PLACE, MARYLAND HEIGHTS, MO, 63043","Match","Non_Exact","2419 COUNTRY PLACE DR, MARYLAND HEIGHTS, MO, 63043",100114764,"L"
133981,"2419 DENNYWOOD DR","NASHVILLE","TN",37214,36.178956639,-86.682264484,481,"2419 DENNYWOOD DR, NASHVILLE, TN, 37214","Match","Exact","2419 DENNYWOOD DR, NASHVILLE, TN, 37214",97195216,"R"
133982,"2419 ELKHORN DRIVE","DECATUR","GA",30034,33.700168696,-84.289712602,482,"2419 ELKHORN DRIVE, DECATUR, GA, 30034","Match","Exact","2419 ELKHORN DR, DECATUR, GA, 30034",23368701,"R"
133983,"2419 GARDEN FARMS","LATHROP","CA",95330,NA,NA,483,"2419 GARDEN FARMS, LATHROP, CA, 95330","No_Match",NA,NA,NA,NA
133984,"2419 HOLLYWOOD BLVD","HOLLYWOOD","FL",33020,26.011287103,-80.155028457,484,"2419 HOLLYWOOD BLVD, HOLLYWOOD, FL, 33020","Match","Exact","2419 HOLLYWOOD BLVD, HOLLYWOOD, FL, 33020",114729739,"R"
133985,"2419 HONEY HAVEN FARM RD","SHELBY","NC",28056,35.2006329540001,-81.631675855,485,"2419 HONEY HAVEN FARM RD, SHELBY, NC, 28056","Match","Non_Exact","2419 HONEY HAVEN FARM RD, SHELBY, NC, 28152",19344865,"L"
133986,"2419 JEFFERSON AVENUE","BERKELEY","CA",94703,37.8640306790001,-122.277947221,486,"2419 JEFFERSON AVENUE, BERKELEY, CA, 94703","Match","Exact","2419 JEFFERSON AVE, BERKELEY, CA, 94703",124993968,"L"
133987,"2419 LAGUNA LANE","ARLINGTON","TX",76012,32.7780802570001,-97.132753948,487,"2419 LAGUNA LANE, ARLINGTON, TX, 76012","Match","Exact","2419 LAGUNA LN, ARLINGTON, TX, 76012",618452878,"R"
133988,"2419 LITTLE CURRENT DR  APT 1911","HERNDON","VA",20171,38.9560658,-77.4208759699999,488,"2419 LITTLE CURRENT DR  APT 1911, HERNDON, VA, 20171","Match","Exact","2419 LITTLE CURRENT DR, HERNDON, VA, 20171",76043838,"L"
133989,"2419 N 52ND ST APT 3","MILWAUKEE","WI",53210,43.062730737,-87.978733502,489,"2419 N 52ND ST APT 3, MILWAUKEE, WI, 53210","Match","Non_Exact","2419 N 52ND ST, MILWAUKEE, WI, 53210",77732049,"L"
133990,"2419 N DIXIE HWY","WILTON MANORS","FL",33305,26.157694183,-80.1320336539999,490,"2419 N DIXIE HWY, WILTON MANORS, FL, 33305","Match","Exact","2419 N DIXIE HWY, WILTON MANORS, FL, 33305",114722099,"L"
133991,"2419 NORTH 73 STREET","KANSAS CITY","KS",66109,39.1335260050001,-94.748192364,491,"2419 NORTH 73 STREET, KANSAS CITY, KS, 66109","Match","Exact","2419 N 73RD ST, KANSAS CITY, KS, 66109",91133109,"R"
133992,"2419 OLD THOMPSON BRIDGE RD APT L3","GAINESVILLE","GA",30501,NA,NA,492,"2419 OLD THOMPSON BRIDGE RD APT L3, GAINESVILLE, GA, 30501","No_Match",NA,NA,NA,NA
133993,"2419 RANCH HOLLOW","KATY","TX",77494,29.7498553390001,-95.7829169139999,493,"2419 RANCH HOLLOW, KATY, TX, 77494","Match","Non_Exact","2419 RANCH HOLLOW CT, KATY, TX, 77494",630483202,"R"
133994,"2419 S ROSELLA ST","PHILADELPHIA","PA",19153,39.910400843,-75.248796098,494,"2419 S ROSELLA ST, PHILADELPHIA, PA, 19153","Match","Exact","2419 S ROSELLA ST, PHILADELPHIA, PA, 19153",131408722,"L"
133995,"2419 SHARON OAKS DR","MENLO PARK","CA",94025,37.4248231290001,-122.194768131,495,"2419 SHARON OAKS DR, MENLO PARK, CA, 94025","Match","Exact","2419 SHARON OAKS DR, MENLO PARK, CA, 94025",192413090,"L"
133996,"2419 SMALLMAN ST","PITTSBURGH","PA",15222,40.4541999240001,-79.9812984449999,496,"2419 SMALLMAN ST, PITTSBURGH, PA, 15222","Match","Exact","2419 SMALLMAN ST, PITTSBURGH, PA, 15222",51628515,"L"
133997,"2419 TOTTINGHAM RD","HENDERSON","NV",89074,36.025869916,-115.094161397,497,"2419 TOTTINGHAM RD, HENDERSON, NV, 89074","Match","Exact","2419 TOTTINGHAM RD, HENDERSON, NV, 89074",201916033,"L"
133998,"2419 W LELAND AVE","CHICAGO","IL",60625,41.9667718160001,-87.689708809,498,"2419 W LELAND AVE, CHICAGO, IL, 60625","Match","Exact","2419 W LELAND AVE, CHICAGO, IL, 60625",605184697,"L"
133999,"2419 WAR ADMIRAL DRIVE","STAFFORD","TX",77496,29.6079676030001,-95.544368101,499,"2419 WAR ADMIRAL DRIVE, STAFFORD, TX, 77496","Match","Non_Exact","2419 WAR ADMIRAL DR, STAFFORD, TX, 77477",78268413,"L"
134000,"2419","FORT KNOX","KY",40121,NA,NA,500,"2419, FORT KNOX, KY, 40121","No_Match",NA,NA,NA,NA
