"ID","Address","City","State","Zip","lat","long","id","input_address","match_indicator","match_type","matched_address","tiger_line_id","tiger_side"
103501,"1201 W VIRGINIA AVENUE NE","WASHINGTON","DC",20002,38.90483671,-76.9921431559999,1,"1201 W VIRGINIA AVENUE NE, WASHINGTON, DC, 20002","Match","Exact","1201 WEST VIRGINIA AVE NE, WASHINGTON, DC, 20002",76230119,"R"
103502,"1201 WALNUT","GOLDEN CITY","MO",64748,37.3882539800001,-94.0989715709999,2,"1201 WALNUT, GOLDEN CITY, MO, 64748","Match","Non_Exact","1201 WALNUT ST, GOLDEN CITY, MO, 64748",99045706,"R"
103503,"1201 WALTHAM ST","METAIRIE","LA",70001,29.983849036,-90.1652470559999,3,"1201 WALTHAM ST, METAIRIE, LA, 70001","Match","Exact","1201 WALTHAM ST, METAIRIE, LA, 70001",93500849,"R"
103504,"1201 WATERSIDE DR","NORTH LITTLE ROCK","AR",72116,34.7875643880001,-92.25378776,4,"1201 WATERSIDE DR, NORTH LITTLE ROCK, AR, 72116","Match","Exact","1201 WATERSIDE DR, N LITTLE ROCK, AR, 72116",83514426,"L"
103505,"1201 WELCH ROAD","STANFORD","CA",94305,37.433697608,-122.179537001,5,"1201 WELCH ROAD, STANFORD, CA, 94305","Match","Exact","1201 WELCH RD, STANFORD, CA, 94305",614023041,"L"
103506,"1201 WEST 18TH ST","BRYAN","TX",77803,30.684460775,-96.3822990369999,6,"1201 WEST 18TH ST, BRYAN, TX, 77803","Match","Exact","1201 W 18TH ST, BRYAN, TX, 77803",21812507,"L"
103507,"1201 WEST 6TH ST","FRIONA","TX",NA,34.636131489,-102.731263594,7,"1201 WEST 6TH ST, FRIONA, TX, ","Match","Exact","1201 W 6TH ST, FRIONA, TX, 79035",164049347,"L"
103508,"1201 WEST 6TH STREET","PINE BLUFF","AR",71601,34.223828236,-92.014766664,8,"1201 WEST 6TH STREET, PINE BLUFF, AR, 71601","Match","Non_Exact","1201 W 6TH AVE, PINE BLUFF, AR, 71601",2550940,"R"
103509,"1201 WEST AUSTIN PLACE","BROKEN ARROW","OK",74011,36.0066150330001,-95.804053315,9,"1201 WEST AUSTIN PLACE, BROKEN ARROW, OK, 74011","Match","Exact","1201 W AUSTIN PL, BROKEN ARROW, OK, 74011",166464537,"R"
103510,"1201 WEST BRANCH ST","PRINCETON","MN",55371,45.5763954450001,-93.5909535059999,10,"1201 WEST BRANCH ST, PRINCETON, MN, 55371","Match","Exact","1201 W BRANCH ST, PRINCETON, MN, 55371",163074048,"L"
103511,"1201 WEST BROADWAY","MINNEAPOLIS","MN",55411,44.999136729,-93.29574937,11,"1201 WEST BROADWAY, MINNEAPOLIS, MN, 55411","Match","Non_Exact","1201 W BROADWAY AVE, MINNEAPOLIS, MN, 55411",43623785,"L"
103512,"1201 WEST DRIVE","MENOMINEE","MI",49858,45.109782866,-87.632427795,12,"1201 WEST DRIVE, MENOMINEE, MI, 49858","Match","Exact","1201 WEST DR, MENOMINEE, MI, 49858",170210670,"L"
103513,"1201 WEST FARGO LANE","BROKEN ARROW","OK",74012,36.0822685740001,-95.802776226,13,"1201 WEST FARGO LANE, BROKEN ARROW, OK, 74012","Match","Exact","1201 W FARGO LN, BROKEN ARROW, OK, 74012",617314179,"R"
103514,"1201 WEST MOUNT ROYAL UNIT 649","BALTIMORE","MD",21217,39.307036012,-76.620154366,14,"1201 WEST MOUNT ROYAL UNIT 649, BALTIMORE, MD, 21217","Match","Non_Exact","1201 W MOUNT ROYAL AVE, BALTIMORE, MD, 21217",206417283,"R"
103515,"1201 WEST NORTH AVENUE","PITTSBURGH","PA",15233,40.4528145570001,-80.022427004,15,"1201 WEST NORTH AVENUE, PITTSBURGH, PA, 15233","Match","Exact","1201 W NORTH AVE, PITTSBURGH, PA, 15233",51626028,"L"
103516,"1201 WEST PEACHTREE ST NW STE 3000","ATLANTA","GA",30309,33.787232605,-84.3877938479999,16,"1201 WEST PEACHTREE ST NW STE 3000, ATLANTA, GA, 30309","Match","Exact","1201 W PEACHTREE ST NW, ATLANTA, GA, 30309",17343433,"R"
103517,"1201 WEST PEACHTREE ST NW","ATLANTA","GA",30309,33.787232605,-84.3877938479999,17,"1201 WEST PEACHTREE ST NW, ATLANTA, GA, 30309","Match","Exact","1201 W PEACHTREE ST NW, ATLANTA, GA, 30309",17343433,"R"
103518,"1201 WEST WHITNEY AVENUE","ALBANY","GA",31707,31.5722291800001,-84.179539039,18,"1201 WEST WHITNEY AVENUE, ALBANY, GA, 31707","Match","Exact","1201 W WHITNEY AVE, ALBANY, GA, 31707",84313759,"R"
103519,"1201 WESTCREEK DRIVE","N. CHESTERFIELD","VA",23236,NA,NA,19,"1201 WESTCREEK DRIVE, N. CHESTERFIELD, VA, 23236","No_Match",NA,NA,NA,NA
103520,"1201 WHEELER ST","ASHLAND","KY",41139,38.528722477,-82.709585669,20,"1201 WHEELER ST, ASHLAND, KY, 41139","Match","Non_Exact","1201 WHEELER ST, RUSSELL, KY, 41139",151397618,"R"
103521,"1201 WHEELER ST","FLATWOODS","KY",41139,38.528722477,-82.709585669,21,"1201 WHEELER ST, FLATWOODS, KY, 41139","Match","Exact","1201 WHEELER ST, FLATWOODS, KY, 41139",151397618,"R"
103522,"1201 WHISPERING LAKES TRAIL","MADISON","GA",30650,33.5818397950001,-83.357471897,22,"1201 WHISPERING LAKES TRAIL, MADISON, GA, 30650","Match","Exact","1201 WHISPERING LAKES TRL, MADISON, GA, 30650",77606464,"L"
103523,"1201 WILCOX ST","MARYVILLE","TN",37804,35.7573294100001,-83.9469851819999,23,"1201 WILCOX ST, MARYVILLE, TN, 37804","Match","Exact","1201 WILCOX ST, MARYVILLE, TN, 37804",89850785,"L"
103524,"1201 WILCREST DR APT 137","HOUSTON","TX",77042,29.7543327430001,-95.574172013,24,"1201 WILCREST DR APT 137, HOUSTON, TX, 77042","Match","Exact","1201 WILCREST DR, HOUSTON, TX, 77042",96619110,"L"
103525,"1201 WILDER AVE","HONOLULU","HI",96822,21.3062891920001,-157.839441352,25,"1201 WILDER AVE, HONOLULU, HI, 96822","Match","Exact","1201 WILDER AVE, HONOLULU, HI, 96822",203237410,"R"
103526,"1201 WILLOWCREST ROAD","DURHAM","NC",27703,35.962616225,-78.8271542319999,26,"1201 WILLOWCREST ROAD, DURHAM, NC, 27703","Match","Exact","1201 WILLOWCREST RD, DURHAM, NC, 27703",648139253,"L"
103527,"1201 WILMAR CIRCLE","JONESBORO","AR",72401,35.830718748,-90.71932255,27,"1201 WILMAR CIRCLE, JONESBORO, AR, 72401","Match","Exact","1201 WILMAR CIR, JONESBORO, AR, 72401",46909663,"L"
103528,"1201 WINDEMERE ROAD","LATROBE","PA",15650,40.310325558,-79.458220475,28,"1201 WINDEMERE ROAD, LATROBE, PA, 15650","Match","Non_Exact","1201 WINDEMERE DR, LATROBE, PA, 15650",627074275,"L"
103529,"1201 WINONA AVENUE","GRIFFIN","GA",30223,33.2528503340001,-84.2824199139999,29,"1201 WINONA AVENUE, GRIFFIN, GA, 30223","Match","Exact","1201 WINONA AVE, GRIFFIN, GA, 30223",23771669,"L"
103530,"1201 WISCONSIN AVE","BOSCOBEL","WI",53805,43.13284802,-90.7057566889999,30,"1201 WISCONSIN AVE, BOSCOBEL, WI, 53805","Match","Exact","1201 WISCONSIN AVE, BOSCOBEL, WI, 53805",32741541,"R"
103531,"1201 WOLLOWWOOD DRIVE","JACKSON","MS",39204,NA,NA,31,"1201 WOLLOWWOOD DRIVE, JACKSON, MS, 39204","No_Match",NA,NA,NA,NA
103532,"1201 WOODBRIDGE COMMONS WAY","ISELIN","NJ",8830,40.5582663860001,-74.314806693,32,"1201 WOODBRIDGE COMMONS WAY, ISELIN, NJ, 8830","Match","Exact","1201 WOODBRIDGE COMMONS WAY, ISELIN, NJ, 08830",60274253,"R"
103533,"1201 WOODLAWN DRIVE","CAMDEN","SC",29020,34.2515677170001,-80.56785811,33,"1201 WOODLAWN DRIVE, CAMDEN, SC, 29020","Match","Exact","1201 WOODLAWN DR, CAMDEN, SC, 29020",78484617,"L"
103534,"1201 WOODLYNNE","LINWOOD","NJ",8221,39.34513514,-74.5689317809999,34,"1201 WOODLYNNE, LINWOOD, NJ, 8221","Match","Non_Exact","1201 WOODLYNNE BLVD, LINWOOD, NJ, 08221",202484225,"R"
103535,"1201 WOODSIDE DRIVE","ROCKY RIVER","OH",44116,41.477287447,-81.8496786329999,35,"1201 WOODSIDE DRIVE, ROCKY RIVER, OH, 44116","Match","Exact","1201 WOODSIDE DR, ROCKY RIVER, OH, 44116",61097438,"L"
103536,"1201 YAGER CREEK DRIVE","CHARLOTTE","NC",28273,NA,NA,36,"1201 YAGER CREEK DRIVE, CHARLOTTE, NC, 28273","No_Match",NA,NA,NA,NA
103537,"1201 YALE PLACE UNIT 1908","MINNEAPOLIS","MN",55403,44.9728678020001,-93.278934186,37,"1201 YALE PLACE UNIT 1908, MINNEAPOLIS, MN, 55403","Match","Exact","1201 YALE PL, MINNEAPOLIS, MN, 55403",650121113,"L"
103538,"1201-J EAST OCEAN AVENUE","LOMPOC","CA",93436,34.6388986440001,-120.443991384,38,"1201-J EAST OCEAN AVENUE, LOMPOC, CA, 93436","Match","Exact","1201 E OCEAN AVE, LOMPOC, CA, 93436",108599637,"L"
103539,"1201","SAN DIEGO","CA",92109,NA,NA,39,"1201, SAN DIEGO, CA, 92109","No_Match",NA,NA,NA,NA
103540,"12010 4TH AVE NW","SEATTLE","WA",98177,47.7163064970001,-122.362253411,40,"12010 4TH AVE NW, SEATTLE, WA, 98177","Match","Exact","12010 4TH AVE NW, SEATTLE, WA, 98177",186578345,"R"
103541,"12010 77TH AVE S","SEATTLE","WA",98178,47.495261209,-122.236982681,41,"12010 77TH AVE S, SEATTLE, WA, 98178","Match","Exact","12010 77TH AVE S, SEATTLE, WA, 98178",186630347,"L"
103542,"12010 ARROWHEAD GLEN DRIVE","HOUSTON","TX",77071,29.6476167210001,-95.528483578,42,"12010 ARROWHEAD GLEN DRIVE, HOUSTON, TX, 77071","Match","Exact","12010 ARROWHEAD GLEN DR, HOUSTON, TX, 77071",96037284,"L"
103543,"12010 ASHLEIGH PARK BLVD","FREDERICKSBURG","VA",22407,38.287030649,-77.5938719389999,43,"12010 ASHLEIGH PARK BLVD, FREDERICKSBURG, VA, 22407","Match","Exact","12010 ASHLEIGH PARK BLVD, FREDERICKSBURG, VA, 22407",85019525,"L"
103544,"12010 CHARLESTON DR","MARYLAND HEIGHTS","MO",63043,38.7361877930001,-90.437631261,44,"12010 CHARLESTON DR, MARYLAND HEIGHTS, MO, 63043","Match","Exact","12010 CHARLESTON DR, MARYLAND HEIGHTS, MO, 63043",100115214,"L"
103545,"12010 CHRISTOPHERS WALK CT","HOUSTON","TX",77089,29.57656761,-95.217353294,45,"12010 CHRISTOPHERS WALK CT, HOUSTON, TX, 77089","Match","Exact","12010 CHRISTOPHERS WALK CT, HOUSTON, TX, 77089",624632912,"L"
103546,"12010 CITRUS LEAF DR","GIBSONTON","FL",33534,27.8242016780001,-82.374420342,46,"12010 CITRUS LEAF DR, GIBSONTON, FL, 33534","Match","Exact","12010 CITRUS LEAF DR, GIBSONTON, FL, 33534",635369101,"L"
103547,"12010 COSTA DEL REY CT","HOUSTON","TX",77041,29.8577871250001,-95.587482896,47,"12010 COSTA DEL REY CT, HOUSTON, TX, 77041","Match","Exact","12010 COSTA DEL REY CT, HOUSTON, TX, 77041",96557053,"R"
103548,"12010 DERBY AVE","CLEVELAND","OH",44125,41.4069592160001,-81.600394519,48,"12010 DERBY AVE, CLEVELAND, OH, 44125","Match","Non_Exact","12010 DERBY RD, CLEVELAND, OH, 44125",61128157,"R"
103549,"12010 FAWN LAKE PKWY","SPOTSYLVANIA","VA",22551,38.269155181,-77.736016719,49,"12010 FAWN LAKE PKWY, SPOTSYLVANIA, VA, 22551","Match","Exact","12010 FAWN LAKE PKWY, SPOTSYLVANIA, VA, 22551",632067835,"L"
103550,"12010 GLENFIELD ST","DETROIT","MI",48213,42.411070108,-82.99170807,50,"12010 GLENFIELD ST, DETROIT, MI, 48213","Match","Non_Exact","12010 GLENFIELD, DETROIT, MI, 48213",95468304,"R"
103551,"12010 GREENVILLE ST MARYS RD","VERSAILLES","OH",45380,40.266807156,-84.558708377,51,"12010 GREENVILLE ST MARYS RD, VERSAILLES, OH, 45380","Match","Exact","12010 GREENVILLE SAINT MARYS RD, VERSAILLES, OH, 45380",54542749,"L"
103552,"12010 LAKE NEWPORT ROAD","RESTON","VA",20194,38.980860201,-77.363666715,52,"12010 LAKE NEWPORT ROAD, RESTON, VA, 20194","Match","Exact","12010 LAKE NEWPORT RD, RESTON, VA, 20194",215924378,"R"
103553,"12010 LAKEVIEW TRAIL","HOMER GLEN","IL",60491,41.6061956570001,-87.9111140959999,53,"12010 LAKEVIEW TRAIL, HOMER GLEN, IL, 60491","Match","Exact","12010 LAKEVIEW TRL, HOMER GLEN, IL, 60491",111564005,"R"
103554,"12010 LITTLEFIELD","DETROIT","MI",48227,42.375704845,-83.175641435,54,"12010 LITTLEFIELD, DETROIT, MI, 48227","Match","Non_Exact","12010 LITTLEFIELD ST, DETROIT, MI, 48227",95441849,"R"
103555,"12010 MARTINIQUE COURT","ATLANTA","GA",30331,NA,NA,55,"12010 MARTINIQUE COURT, ATLANTA, GA, 30331","No_Match",NA,NA,NA,NA
103556,"12010 N RIDGE DRIVE","SENECA","SC",29672,34.773430057,-82.949874259,56,"12010 N RIDGE DRIVE, SENECA, SC, 29672","Match","Exact","12010 N RIDGE DR, SENECA, SC, 29672",25643439,"R"
103557,"12010 PENDER LANE","MEADOWS PLACE","TX",77477,29.6520986310001,-95.59239142,57,"12010 PENDER LANE, MEADOWS PLACE, TX, 77477","Match","Exact","12010 PENDER LN, MEADOWS PLACE, TX, 77477",78340660,"L"
103558,"12010 PLUMBROOK DR","HOUSTON","TX",77099,29.6688356380001,-95.591186748,58,"12010 PLUMBROOK DR, HOUSTON, TX, 77099","Match","Exact","12010 PLUMBROOK DR, HOUSTON, TX, 77099",96036043,"R"
103559,"12010 RADCLIFFE CIRCLE","N.HUNTINGDON","PA",15642,40.2955536160001,-79.725727407,59,"12010 RADCLIFFE CIRCLE, N.HUNTINGDON, PA, 15642","Match","Exact","12010 RADCLIFFE CIR, N HUNTINGDON, PA, 15642",613042192,"R"
103560,"12010 ROYAL DRIVE","BROOKSVILLE","FL",34601,28.5976995520001,-82.385928382,60,"12010 ROYAL DRIVE, BROOKSVILLE, FL, 34601","Match","Exact","12010 ROYAL DR, BROOKSVILLE, FL, 34601",85427477,"L"
103561,"12010 S PAULINA ST","CALUMET PARK","IL",60827,41.675433276,-87.663752878,61,"12010 S PAULINA ST, CALUMET PARK, IL, 60827","Match","Exact","12010 S PAULINA ST, CALUMET PARK, IL, 60827",112222633,"R"
103562,"12010 S VERMONT AVE","LOS ANGELES","CA",90044,33.923413463,-118.29155678,62,"12010 S VERMONT AVE, LOS ANGELES, CA, 90044","Match","Non_Exact","12010 S VERMONT AVE, LOS ANGELES, CA, 90044",653232564,"L"
103563,"12010 SHORE CIRCLE","ANCHORAGE","AK",99515,61.1118042950001,-149.92011809,63,"12010 SHORE CIRCLE, ANCHORAGE, AK, 99515","Match","Exact","12010 SHORE CIR, ANCHORAGE, AK, 99515",190796057,"L"
103564,"12010 SNOW RD","BURTON","OH",44021,41.429397211,-81.207284365,64,"12010 SNOW RD, BURTON, OH, 44021","Match","Exact","12010 SNOW RD, BURTON, OH, 44021",137435573,"R"
103565,"12010 SOUTH TAMARACK","JENKS","OK",74037,NA,NA,65,"12010 SOUTH TAMARACK, JENKS, OK, 74037","No_Match",NA,NA,NA,NA
103566,"12010 SOUTH WEST 216TH STREET","MIAMI","FL",33170,NA,NA,66,"12010 SOUTH WEST 216TH STREET, MIAMI, FL, 33170","No_Match",NA,NA,NA,NA
103567,"12010 SUSAN DRIVE","GRANADA HILLS","CA",91344,34.288240773,-118.497409582,67,"12010 SUSAN DRIVE, GRANADA HILLS, CA, 91344","Match","Exact","12010 SUSAN DR, GRANADA HILLS, CA, 91344",141542684,"R"
103568,"12010 SW 268TH ST UNIT 41","HOMESTEAD","FL",33032,25.5183188130001,-80.385839077,68,"12010 SW 268TH ST UNIT 41, HOMESTEAD, FL, 33032","Match","Non_Exact","12010 SW 268TH ST, HOMESTEAD, FL, 33032",638637584,"L"
103569,"12010 SW 268TH STREET UNIT 41","HOMESTEAD","FL",33032,25.5183188130001,-80.385839077,69,"12010 SW 268TH STREET UNIT 41, HOMESTEAD, FL, 33032","Match","Non_Exact","12010 SW 268TH ST, HOMESTEAD, FL, 33032",638637584,"L"
103570,"12010 W BERRY AVE","LITTLETON","CO",80127,39.6166117080001,-105.133665648,70,"12010 W BERRY AVE, LITTLETON, CO, 80127","Match","Exact","12010 W BERRY AVE, LITTLETON, CO, 80127",177801806,"L"
103571,"12011 14TH RD","COLLEGE POINT","NY",11358,NA,NA,71,"12011 14TH RD, COLLEGE POINT, NY, 11358","No_Match",NA,NA,NA,NA
103572,"12011 AUDREY CT","PINEHURST","TX",77362,30.136519594,-95.653030718,72,"12011 AUDREY CT, PINEHURST, TX, 77362","Match","Exact","12011 AUDREY CT, PINEHURST, TX, 77362",79317485,"L"
103573,"12011 AUTUMNWOOD LANE","FORT WASHINGTON","MD",20744,38.729258304,-77.015377149,73,"12011 AUTUMNWOOD LANE, FORT WASHINGTON, MD, 20744","Match","Exact","12011 AUTUMNWOOD LN, FT WASHINGTON, MD, 20744",76302377,"R"
103574,"12011 BAMBERG LN","FRISCO","TX",75035,33.1773832860001,-96.794750199,74,"12011 BAMBERG LN, FRISCO, TX, 75035","Match","Exact","12011 BAMBERG LN, FRISCO, TX, 75035",210527407,"R"
103575,"12011 COVE HILL LANE","CYPRESS","TX",77433,NA,NA,75,"12011 COVE HILL LANE, CYPRESS, TX, 77433","No_Match",NA,NA,NA,NA
103576,"12011 EAST BARRINGTON DRIVE","NEW ORLEANS","LA",70128,NA,NA,76,"12011 EAST BARRINGTON DRIVE, NEW ORLEANS, LA, 70128","No_Match",NA,NA,NA,NA
103577,"12011 ELM DRIVE","CYPRESS","TX",77429,29.974528654,-95.609884949,77,"12011 ELM DRIVE, CYPRESS, TX, 77429","Match","Exact","12011 ELM DR, CYPRESS, TX, 77429",96004357,"L"
103578,"12011 FAWNWOOD PLACE","WELLINGTON","FL",33414,26.664163043,-80.23507798,78,"12011 FAWNWOOD PLACE, WELLINGTON, FL, 33414","Match","Exact","12011 FAWNWOOD PL, WELLINGTON, FL, 33414",115265307,"L"
103579,"12011 LIVINGSTON WAY","FORNEY","TX",75126,32.6874237580001,-96.42242165,79,"12011 LIVINGSTON WAY, FORNEY, TX, 75126","Match","Exact","12011 LIVINGSTON WAY, FORNEY, TX, 75126",614182406,"R"
103580,"12011 MALLORY DR","KLAMATH FALLS","OR",97603,42.191937824,-121.642013674,80,"12011 MALLORY DR, KLAMATH FALLS, OR, 97603","Match","Exact","12011 MALLORY DR, KLAMATH FALLS, OR, 97603",615399733,"R"
103581,"12011 NEW PERRY LANE","SELLERSBURG","IN",47172,38.4410277330001,-85.771999108,81,"12011 NEW PERRY LANE, SELLERSBURG, IN, 47172","Match","Exact","12011 NEW PERRY LN, SELLERSBURG, IN, 47172",624987344,"R"
103582,"12011 NW 31 DRIVE","CORAL SPRINGS","FL",33065,26.2691738560001,-80.2868401869999,82,"12011 NW 31 DRIVE, CORAL SPRINGS, FL, 33065","Match","Exact","12011 NW 31ST DR, CORAL SPRINGS, FL, 33065",114689319,"R"
103583,"12011 ROCKROOT","SCHERTZ","TX",78154,29.5185282050001,-98.244976111,83,"12011 ROCKROOT, SCHERTZ, TX, 78154","Match","Exact","12011 ROCKROOT, SCHERTZ, TX, 78154",649122722,"L"
103584,"12011 S PARKER","DELTON","MI",49046,42.479933503,-85.444890091,84,"12011 S PARKER, DELTON, MI, 49046","Match","Non_Exact","12011 PARKER RD, DELTON, MI, 49046",647575339,"L"
103585,"12011 SOUTH 51ST STREET","PAPILLION","NE",68133,41.127633517,-95.989711485,85,"12011 SOUTH 51ST STREET, PAPILLION, NE, 68133","Match","Exact","12011 S 51ST ST, PAPILLION, NE, 68133",624362295,"R"
103586,"12011 SUNSET HILL ROAD","RESTON","VA",20190,38.955199205,-77.356476383,86,"12011 SUNSET HILL ROAD, RESTON, VA, 20190","Match","Non_Exact","12011 SUNSET HILLS RD, RESTON, VA, 20190",642593071,"L"
103587,"12011 TUSCANY BAY DRIVE","TAMPA","FL",33618,28.0684123550001,-82.625435639,87,"12011 TUSCANY BAY DRIVE, TAMPA, FL, 33618","Match","Non_Exact","12011 TUSCANY BAY DR, TAMPA, FL, 33626",640440078,"R"
103588,"12011 TUSCANY BAY DRIVE","TAMPA","FL",33626,28.0684123550001,-82.625435639,88,"12011 TUSCANY BAY DRIVE, TAMPA, FL, 33626","Match","Exact","12011 TUSCANY BAY DR, TAMPA, FL, 33626",640440078,"R"
103589,"12011 W LAKEFIELD DRIVE","WEST ALLIS","WI",53227,42.98752561,-88.06323674,89,"12011 W LAKEFIELD DRIVE, WEST ALLIS, WI, 53227","Match","Exact","12011 W LAKEFIELD DR, WEST ALLIS, WI, 53227",77723764,"L"
103590,"12011 W NORTH AVE","WAUWATOSA","WI",53226,43.0599684370001,-88.063246665,90,"12011 W NORTH AVE, WAUWATOSA, WI, 53226","Match","Exact","12011 W NORTH AVE, WAUWATOSA, WI, 53226",77723604,"L"
103591,"12011 WINDING WOODS WAY","LAKEWOOD RANCH","FL",34202,27.430526238,-82.4235444719999,91,"12011 WINDING WOODS WAY, LAKEWOOD RANCH, FL, 34202","Match","Exact","12011 WINDING WOODS WAY, LAKEWOOD RCH, FL, 34202",16269845,"R"
103592,"12012 ASPEN CIRCLE - 13","GRAND TERRACE","CA",92313,34.0350661360001,-117.316482555,92,"12012 ASPEN CIRCLE - 13, GRAND TERRACE, CA, 92313","Match","Exact","12012 ASPEN CIR, GRAND TERRACE, CA, 92313",144991454,"L"
103593,"12012 BROOKSHIRE PARKWAY","CARMEL","IN",46033,39.9630312960001,-86.0945967179999,93,"12012 BROOKSHIRE PARKWAY, CARMEL, IN, 46033","Match","Exact","12012 BROOKSHIRE PKWY, CARMEL, IN, 46033",29295401,"R"
103594,"12012 CAMINITO RYONE","SAN DIEGO","CA",92128,NA,NA,94,"12012 CAMINITO RYONE, SAN DIEGO, CA, 92128","No_Match",NA,NA,NA,NA
103595,"12012 COUNTRY RIVER DR","RIVES JUNCTION","MI",49277,42.409985884,-84.4386544609999,95,"12012 COUNTRY RIVER DR, RIVES JUNCTION, MI, 49277","Match","Exact","12012 COUNTRY RIVER DR, RIVES JUNCTION, MI, 49277",17628965,"R"
103596,"12012 EUGENE TOBIAS DR","GARDEN GROVE","CA",92840,33.7882988920001,-117.937215802,96,"12012 EUGENE TOBIAS DR, GARDEN GROVE, CA, 92840","Match","Exact","12012 EUGENE TOBIAS DR, GARDEN GROVE, CA, 92840",144263107,"R"
103597,"12012 GARFIELD AVE","TRINIDAD","CO",81082,37.15180457,-104.504297055,97,"12012 GARFIELD AVE, TRINIDAD, CO, 81082","Match","Exact","12012 GARFIELD AVE, TRINIDAD, CO, 81082",636503677,"R"
103598,"12012 GREENVALLEY DRIVE","LOUISVILLE","KY",40243,38.2299756950001,-85.53576527,98,"12012 GREENVALLEY DRIVE, LOUISVILLE, KY, 40243","Match","Exact","12012 GREENVALLEY DR, LOUISVILLE, KY, 40243",96894073,"R"
103599,"12012 MARGARET COURT","MARRIOTTSVILLE","MD",21104,39.3082621340001,-76.930093998,99,"12012 MARGARET COURT, MARRIOTTSVILLE, MD, 21104","Match","Exact","12012 MARGARET CT, MARRIOTTSVILLE, MD, 21104",619758867,"R"
103600,"12012 MENTZER GAP ROAD","WAYNESBORO","PA",17268,39.7544200990001,-77.5124975749999,100,"12012 MENTZER GAP ROAD, WAYNESBORO, PA, 17268","Match","Exact","12012 MENTZER GAP RD, WAYNESBORO, PA, 17268",648358987,"L"
103601,"12012 MONTROSE PARK PLACE","ROCKVILLE","MD",20852,39.05217171,-77.128845928,101,"12012 MONTROSE PARK PLACE, ROCKVILLE, MD, 20852","Match","Exact","12012 MONTROSE PARK, ROCKVILLE, MD, 20852",618601183,"L"
103602,"12012 OLMSTEAD DR","FAYETTEVILLE","GA",30215,33.4271513140001,-84.399291869,102,"12012 OLMSTEAD DR, FAYETTEVILLE, GA, 30215","Match","Exact","12012 OLMSTEAD DR, FAYETTEVILLE, GA, 30215",23327207,"L"
103603,"12012 S LOCKWOOD","ALSIP","IL",60453,NA,NA,103,"12012 S LOCKWOOD, ALSIP, IL, 60453","No_Match",NA,NA,NA,NA
103604,"12012 SE 260 PL","KENT","WA",98030,47.3684850560001,-122.181827943,104,"12012 SE 260 PL, KENT, WA, 98030","Match","Exact","12012 SE 260TH PL, KENT, WA, 98030",637635177,"L"
103605,"12012 STARBOARD DR NO 305","RESTON","VA",20194,38.9668616170001,-77.3627698339999,105,"12012 STARBOARD DR NO 305, RESTON, VA, 20194","Match","Non_Exact","12012 STARBOARD DR, RESTON, VA, 20194",618456801,"L"
103606,"12012 WENONGA LANE","LEAWOOD","KS",66209,38.911149374,-94.625950685,106,"12012 WENONGA LANE, LEAWOOD, KS, 66209","Match","Exact","12012 WENONGA LN, LEAWOOD, KS, 66209",91280725,"R"
103607,"12012 WESTGATE","OVERLAND PARD","KS",66213,38.910243988,-94.732558352,107,"12012 WESTGATE, OVERLAND PARD, KS, 66213","Match","Non_Exact","12012 WESTGATE ST, OVERLAND PARK, KS, 66213",91307292,"L"
103608,"120121 HESBY STREET","VALLEY VILLAGE","CA",91607,NA,NA,108,"120121 HESBY STREET, VALLEY VILLAGE, CA, 91607","No_Match",NA,NA,NA,NA
103609,"12013 119TH ST E","PUYALLUP","WA",98374,47.148191667,-122.268852971,109,"12013 119TH ST E, PUYALLUP, WA, 98374","Match","Exact","12013 119TH ST E, PUYALLUP, WA, 98374",184694505,"L"
103610,"12013 BOBCAT TRAIL","AUSTIN","TX",78750,30.458898752,-97.8188530579999,110,"12013 BOBCAT TRAIL, AUSTIN, TX, 78750","Match","Exact","12013 BOBCAT TRL, AUSTIN, TX, 78750",647896150,"R"
103611,"12013 BROOKLAWN AVE","CLEVELAND","OH",44111,41.4476391950001,-81.772387236,111,"12013 BROOKLAWN AVE, CLEVELAND, OH, 44111","Match","Exact","12013 BROOKLAWN AVE, CLEVELAND, OH, 44111",638871261,"L"
103612,"12013 CITRUS GROVE RD","NORTH POTOMAC","MD",20878,39.113088926,-77.2493223609999,112,"12013 CITRUS GROVE RD, NORTH POTOMAC, MD, 20878","Match","Exact","12013 CITRUS GROVE RD, N POTOMAC, MD, 20878",62092894,"L"
103613,"12013 E WELSH TRAIL","SCOTTSDALE","AZ",85259,33.578945978,-111.82113454,113,"12013 E WELSH TRAIL, SCOTTSDALE, AZ, 85259","Match","Exact","12013 E WELSH TRL, SCOTTSDALE, AZ, 85259",128364142,"R"
103614,"12013 GARDEN COURT","OKLAHOMA CITY","OK",73170,35.348219957,-97.521419867,114,"12013 GARDEN COURT, OKLAHOMA CITY, OK, 73170","Match","Exact","12013 GARDEN CT, OKLAHOMA CITY, OK, 73170",631776492,"L"
103615,"12013 HIGHLAND DRIVE","TIPTON","MI",49287,NA,NA,115,"12013 HIGHLAND DRIVE, TIPTON, MI, 49287","No_Match",NA,NA,NA,NA
103616,"12013 NEW PERRY LN","SELLERSBURG","IN",47172,38.4410481250001,-85.7720167539999,116,"12013 NEW PERRY LN, SELLERSBURG, IN, 47172","Match","Exact","12013 NEW PERRY LN, SELLERSBURG, IN, 47172",624987344,"R"
103617,"12013 NORTH FOX DEN DRIVE","FARRAGUT","TN",37934,35.8789914290001,-84.190395651,117,"12013 NORTH FOX DEN DRIVE, FARRAGUT, TN, 37934","Match","Exact","12013 N FOX DEN DR, FARRAGUT, TN, 37934",42609426,"R"
103618,"12013 PANHANDLE ROAD","HAMPTON","GA",30228,33.428119829,-84.369467613,118,"12013 PANHANDLE ROAD, HAMPTON, GA, 30228","Match","Exact","12013 PANHANDLE RD, HAMPTON, GA, 30228",637331908,"L"
103619,"12013 RUNNING FOX CIRCLE","RIVERVIEW","FL",33569,27.861597783,-82.298866464,119,"12013 RUNNING FOX CIRCLE, RIVERVIEW, FL, 33569","Match","Exact","12013 RUNNING FOX CIR, RIVERVIEW, FL, 33569",104600651,"R"
103620,"12013 SCHOOL STREET","LYNWOOD","CA",90262,33.9187495940001,-118.207996129,120,"12013 SCHOOL STREET, LYNWOOD, CA, 90262","Match","Exact","12013 SCHOOL ST, LYNWOOD, CA, 90262",141678451,"R"
103621,"12013 SE 116TH CT","HAPPY VALLEY","OR",97086,45.435680151,-122.543801072,121,"12013 SE 116TH CT, HAPPY VALLEY, OR, 97086","Match","Exact","12013 SE 116TH CT, HAPPY VALLEY, OR, 97086",157920398,"L"
103622,"12013 SKIPJACK COURT","WOODBRIDGE","VA",22192,38.6923286740001,-77.2780823149999,122,"12013 SKIPJACK COURT, WOODBRIDGE, VA, 22192","Match","Exact","12013 SKIPJACK CT, WOODBRIDGE, VA, 22192",76510813,"L"
103623,"12013 SW 31ST COURT","MIRAMAR","FL",33025,25.97996289,-80.306505589,123,"12013 SW 31ST COURT, MIRAMAR, FL, 33025","Match","Exact","12013 SW 31ST CT, MIRAMAR, FL, 33025",640876892,"R"
103624,"12013 TOBOSA CIRCLE","MCKINNEY","TX",75071,33.2133765350001,-96.762153079,124,"12013 TOBOSA CIRCLE, MCKINNEY, TX, 75071","Match","Exact","12013 TOBOSA CIR, MCKINNEY, TX, 75071",646744895,"R"
103625,"12013 TRAMONTO AVE","LAS VEGAS","NV",89138,36.1740298080001,-115.35934842,125,"12013 TRAMONTO AVE, LAS VEGAS, NV, 89138","Match","Exact","12013 TRAMONTO AVE, LAS VEGAS, NV, 89138",650621465,"R"
103626,"12013 WALDEMIRE DR","PHILADELPHIA","PA",19154,40.0896618800001,-74.979035785,126,"12013 WALDEMIRE DR, PHILADELPHIA, PA, 19154","Match","Exact","12013 WALDEMIRE DR, PHILADELPHIA, PA, 19154",131433683,"R"
103627,"12013 WATERFORD RUN WAY","MANOR","TX",78653,30.3664840160001,-97.524481056,127,"12013 WATERFORD RUN WAY, MANOR, TX, 78653","Match","Exact","12013 WATERFORD RUN WAY, MANOR, TX, 78653",649002506,"R"
103628,"12013 WIMBLETON STREET","UPPER MARLBORO","MD",20774,38.89391928,-76.7975040709999,128,"12013 WIMBLETON STREET, UPPER MARLBORO, MD, 20774","Match","Exact","12013 WIMBLETON ST, UPPER MARLBORO, MD, 20774",76354291,"R"
103629,"12013 WOLFSON STREET","CROWLEY","TX",76036,32.583245059,-97.3298554,129,"12013 WOLFSON STREET, CROWLEY, TX, 76036","Match","Exact","12013 WOLFSON ST, CROWLEY, TX, 76036",619864890,"L"
103630,"12014 58TH AVE SW","LAKEWOOD","WA",98499,47.14866686,-122.511718897,130,"12014 58TH AVE SW, LAKEWOOD, WA, 98499","Match","Exact","12014 58TH AVE SW, LAKEWOOD, WA, 98499",184623869,"R"
103631,"12014 ENGLISH MAPLE LANE","FAIRFAX","VA",22030,38.8513920350001,-77.361173131,131,"12014 ENGLISH MAPLE LANE, FAIRFAX, VA, 22030","Match","Exact","12014 ENGLISH MAPLE LN, FAIRFAX, VA, 22030",618971216,"R"
103632,"12014 IRIS CANYON DR","TOMBALL","TX",77377,30.03404547,-95.613939036,132,"12014 IRIS CANYON DR, TOMBALL, TX, 77377","Match","Exact","12014 IRIS CANYON DR, TOMBALL, TX, 77377",627680642,"L"
103633,"12014 LEYDEN ST","BRIGHTON","CO",80602,39.914431404,-104.914617325,133,"12014 LEYDEN ST, BRIGHTON, CO, 80602","Match","Exact","12014 LEYDEN ST, BRIGHTON, CO, 80602",627411116,"R"
103634,"12014 MORGANFIELD AVE","BATON ROUGE","LA",70818,30.5523569650001,-91.056788242,134,"12014 MORGANFIELD AVE, BATON ROUGE, LA, 70818","Match","Exact","12014 MORGANFIELD AVE, BATON ROUGE, LA, 70818",92187039,"L"
103635,"12014 NATURAL BRIDGES CT","SUGAR LAND","TX",77498,29.6399878180001,-95.6548806389999,135,"12014 NATURAL BRIDGES CT, SUGAR LAND, TX, 77498","Match","Exact","12014 NATURAL BRIDGES CT, SUGAR LAND, TX, 77498",78292227,"R"
103636,"12014 NW 19TH CT","VANCOUVER","WA",98685,45.7077581300001,-122.690988538,136,"12014 NW 19TH CT, VANCOUVER, WA, 98685","Match","Exact","12014 NW 19TH CT, VANCOUVER, WA, 98685",158347606,"L"
103637,"12014 S STATE ST","CHICAGO","IL",60628,41.675716649,-87.622595022,137,"12014 S STATE ST, CHICAGO, IL, 60628","Match","Exact","12014 S STATE ST, CHICAGO, IL, 60628",111777637,"R"
103638,"12014 SARAH LAKE DR","HOUSTON","TX",77099,29.6731944320001,-95.588191809,138,"12014 SARAH LAKE DR, HOUSTON, TX, 77099","Match","Exact","12014 SARAH LAKE DR, HOUSTON, TX, 77099",638924037,"R"
103639,"12014 SOUTH BROADWAY","LOS ANGELES","CA",90061,33.9235771290001,-118.278229309,139,"12014 SOUTH BROADWAY, LOS ANGELES, CA, 90061","Match","Exact","12014 S BROADWAY, LOS ANGELES, CA, 90061",142754733,"L"
103640,"12014 SOUTH EAST 219TH COURT","KENT","WA",98031,NA,NA,140,"12014 SOUTH EAST 219TH COURT, KENT, WA, 98031","No_Match",NA,NA,NA,NA
103641,"12014 WILLOW TRAIL CT","HOUSTON","TX",77035,29.6479656870001,-95.499480439,141,"12014 WILLOW TRAIL CT, HOUSTON, TX, 77035","Match","Exact","12014 WILLOW TRL, HOUSTON, TX, 77035",96595480,"R"
103642,"12015  67TH AVE NE","ARLINGTON","WA",98223,48.102362993,-122.140672334,142,"12015  67TH AVE NE, ARLINGTON, WA, 98223","Match","Exact","12015 67TH AVE NE, ARLINGTON, WA, 98223",635745737,"R"
103643,"12015 - 130TH AVE CT E","PUYALLUP","WA",98374,NA,NA,143,"12015 - 130TH AVE CT E, PUYALLUP, WA, 98374","No_Match",NA,NA,NA,NA
103644,"12015 ARNHAMN LANE","MANOR","TX",78653,30.380823075,-97.518880544,144,"12015 ARNHAMN LANE, MANOR, TX, 78653","Match","Exact","12015 ARNHAMN LN, MANOR, TX, 78653",63966106,"R"
103645,"12015 BUCKNER RD","AUSTIN","TX",78726,30.4444156180001,-97.837219134,145,"12015 BUCKNER RD, AUSTIN, TX, 78726","Match","Exact","12015 BUCKNER RD, AUSTIN, TX, 78726",642470419,"L"
103646,"12015 BULL SLOUGH RD","NORTHPORT","AL",35475,33.3957087960001,-87.5943425579999,146,"12015 BULL SLOUGH RD, NORTHPORT, AL, 35475","Match","Exact","12015 BULL SLOUGH RD, NORTHPORT, AL, 35475",619851732,"L"
103647,"12015 CHESSINGTON","HOUSTON","TX",77031,29.649097763,-95.5477099299999,147,"12015 CHESSINGTON, HOUSTON, TX, 77031","Match","Non_Exact","12015 CHESSINGTON DR, HOUSTON, TX, 77031",96036714,"L"
103648,"12015 E MAIN AVENUE","SPOKANE VALLEY","WA",99206,47.658912259,-117.243053552,148,"12015 E MAIN AVENUE, SPOKANE VALLEY, WA, 99206","Match","Exact","12015 E MAIN AVE, SPOKANE VALLEY, WA, 99206",189902745,"L"
103649,"12015 FONDREN BEND DR","HOUSTON","TX",77071,29.6478818420001,-95.535517059,149,"12015 FONDREN BEND DR, HOUSTON, TX, 77071","Match","Exact","12015 FONDREN BEND DR, HOUSTON, TX, 77071",96161131,"L"
103650,"12015 GREGORY CROSSING WAY","HOUSTON","TX",77067,29.960587445,-95.438638788,150,"12015 GREGORY CROSSING WAY, HOUSTON, TX, 77067","Match","Exact","12015 GREGORY CROSSING WAY, HOUSTON, TX, 77067",625089680,"L"
103651,"12015 GRIFFING BLVD","BISCAYNE PARK","FL",33161,25.8857036370001,-80.1897267529999,151,"12015 GRIFFING BLVD, BISCAYNE PARK, FL, 33161","Match","Exact","12015 GRIFFING BLVD, BISCAYNE PARK, FL, 33161",116034448,"R"
103652,"12015 HAAS RD","ATLANTA","MI",49709,45.016954664,-84.073571366,152,"12015 HAAS RD, ATLANTA, MI, 49709","Match","Exact","12015 HAAS RD, ATLANTA, MI, 49709",643730726,"R"
103653,"12015 HENDERSON HILL ROAD","HUNTERSVILLE","NC",28078,35.3899872900001,-80.8812914279999,153,"12015 HENDERSON HILL ROAD, HUNTERSVILLE, NC, 28078","Match","Exact","12015 HENDERSON HILL RD, HUNTERSVILLE, NC, 28078",70520000,"R"
103654,"12015 HIRA LAKE DRIVE","HOUSTON","TX",77099,29.672673021,-95.588773292,154,"12015 HIRA LAKE DRIVE, HOUSTON, TX, 77099","Match","Exact","12015 HIRA LAKE DR, HOUSTON, TX, 77099",624939749,"R"
103655,"12015 JANERO AVENUE NORTH","HUGO","MN",55038,45.1236507180001,-92.923043505,155,"12015 JANERO AVENUE NORTH, HUGO, MN, 55038","Match","Exact","12015 JANERO AVE N, HUGO, MN, 55038",638891333,"L"
103656,"12015 LAKELAND RD 103","SANTA FE SPRINGS","CA",90670,33.931694018,-118.076794495,156,"12015 LAKELAND RD 103, SANTA FE SPRINGS, CA, 90670","Match","Exact","12015 LAKELAND RD, SANTA FE SPRINGS, CA, 90670",142809402,"L"
103657,"12015 LEMON CREST DR","LAKESIDE","CA",92040,32.8491864060001,-116.932667092,157,"12015 LEMON CREST DR, LAKESIDE, CA, 92040","Match","Exact","12015 LEMON CREST DR, LAKESIDE, CA, 92040",195332484,"R"
103658,"12015 NEW BRUNSWICK DR","HOUSTON","TX",77089,29.588345888,-95.197333413,158,"12015 NEW BRUNSWICK DR, HOUSTON, TX, 77089","Match","Exact","12015 NEW BRUNSWICK DR, HOUSTON, TX, 77089",96114080,"L"
103659,"12015 PAUL EELLS DR APT 101","NORTH LITTLE ROCK","AR",72113,34.833609698,-92.387215883,159,"12015 PAUL EELLS DR APT 101, NORTH LITTLE ROCK, AR, 72113","Match","Exact","12015 PAUL EELLS DR, N LITTLE ROCK, AR, 72113",627051694,"R"
103660,"12015 QUARTERSAWN LN","PINEHURST","TX",77362,30.1414345540001,-95.652195623,160,"12015 QUARTERSAWN LN, PINEHURST, TX, 77362","Match","Exact","12015 QUARTERSAWN LN, PINEHURST, TX, 77362",651822311,"L"
103661,"12015 S PLAYER DR","SPOKANE","WA",99223,47.543694767,-117.376526236,161,"12015 S PLAYER DR, SPOKANE, WA, 99223","Match","Exact","12015 S PLAYER DR, SPOKANE, WA, 99223",189859142,"L"
103662,"12015 S WESTERN AVE","BLUE ISLAND","IL",60406,41.6748226720001,-87.680617335,162,"12015 S WESTERN AVE, BLUE ISLAND, IL, 60406","Match","Exact","12015 WESTERN AVE, BLUE ISLAND, IL, 60406",111825500,"L"
103663,"12015 STONEHOUSE VIEW COURT","LOVETTSVILLE","VA",20180,39.2854878420001,-77.644761708,163,"12015 STONEHOUSE VIEW COURT, LOVETTSVILLE, VA, 20180","Match","Exact","12015 STONEHOUSE VIEW CT, LOVETTSVILLE, VA, 20180",641046573,"R"
103664,"12015 SW 18TH STREET APT 9","MIAMI","FL",33175,NA,NA,164,"12015 SW 18TH STREET APT 9, MIAMI, FL, 33175","No_Match",NA,NA,NA,NA
103665,"12015 TIMPNOGOS DRIVE","TOMBALL","TX",77377,30.0425025600001,-95.618560469,165,"12015 TIMPNOGOS DRIVE, TOMBALL, TX, 77377","Match","Exact","12015 TIMPNOGOS DR, TOMBALL, TX, 77377",628029952,"L"
103666,"12015 WATERFRONT DR","PLAYA VISTA","CA",90094,33.982805107,-118.403846364,166,"12015 WATERFRONT DR, PLAYA VISTA, CA, 90094","Match","Non_Exact","12015 W WATERFRONT DR, PLAYA VISTA, CA, 90094",241170053,"R"
103667,"12015 WENONGA LN","LEAWOOD","KS",66209,38.911119774,-94.6259424249999,167,"12015 WENONGA LN, LEAWOOD, KS, 66209","Match","Exact","12015 WENONGA LN, LEAWOOD, KS, 66209",91280725,"L"
103668,"120154 NW 19TH CT","VANCOUVER","WA",98685,NA,NA,168,"120154 NW 19TH CT, VANCOUVER, WA, 98685","No_Match",NA,NA,NA,NA
103669,"12016  SETTER DRIVE","FREDERICKSBURG","VA",22407,38.287243233,-77.595042282,169,"12016  SETTER DRIVE, FREDERICKSBURG, VA, 22407","Match","Exact","12016 SETTER DR, FREDERICKSBURG, VA, 22407",85024232,"L"
103670,"12016 14TH RD FL 1","QUEENS","NY",11356,NA,NA,170,"12016 14TH RD FL 1, QUEENS, NY, 11356","No_Match",NA,NA,NA,NA
103671,"12016 ARLINGTON DRIVE","NORTHPORT","AL",35475,33.304151376,-87.598430401,171,"12016 ARLINGTON DRIVE, NORTHPORT, AL, 35475","Match","Non_Exact","12016 ARLINGTON AVE, NORTHPORT, AL, 35475",82144766,"L"
103672,"12016 BOWLING STREET","CUMBERLAND","MD",21502,39.6305292590001,-78.80294536,172,"12016 BOWLING STREET, CUMBERLAND, MD, 21502","Match","Non_Exact","12016 BOWLING ST SW, CUMBERLAND, MD, 21502",123311584,"L"
103673,"12016 CHARLOCK CT","PROSPECT","KY",40059,38.350192092,-85.586437858,173,"12016 CHARLOCK CT, PROSPECT, KY, 40059","Match","Exact","12016 CHARLOCK CT, PROSPECT, KY, 40059",96989133,"R"
103674,"12016 CHERRYWOOD DR","FONTANA","CA",92337,34.034805971,-117.50184091,174,"12016 CHERRYWOOD DR, FONTANA, CA, 92337","Match","Exact","12016 CHERRYWOOD DR, FONTANA, CA, 92337",144690728,"R"
103675,"12016 CHERRYWOOD DRIVE","FONTANA","CA",92337,34.034805971,-117.50184091,175,"12016 CHERRYWOOD DRIVE, FONTANA, CA, 92337","Match","Exact","12016 CHERRYWOOD DR, FONTANA, CA, 92337",144690728,"R"
103676,"12016 CHESTER DR","BATON ROUGE","LA",70810,30.362925428,-91.0884088179999,176,"12016 CHESTER DR, BATON ROUGE, LA, 70810","Match","Exact","12016 CHESTER DR, BATON ROUGE, LA, 70810",92192983,"R"
103677,"12016 EASTBOURNE ROAD","SAN DIEGO","CA",92128,32.9800171370001,-117.072183176,177,"12016 EASTBOURNE ROAD, SAN DIEGO, CA, 92128","Match","Exact","12016 EASTBOURNE RD, SAN DIEGO, CA, 92128",195659749,"R"
103678,"12016 FOWLERS MILL RD","CHARDON","OH",44024,41.544253268,-81.256462539,178,"12016 FOWLERS MILL RD, CHARDON, OH, 44024","Match","Exact","12016 FOWLERS MILL RD, CHARDON, OH, 44024",137440897,"L"
103679,"12016 HAYES LANE","BALCH SPRINGS","TX",75180,32.7296240260001,-96.62081146,179,"12016 HAYES LANE, BALCH SPRINGS, TX, 75180","Match","Exact","12016 HAYES LN, BALCH SPRINGS, TX, 75180",102962457,"R"
103680,"12016 NE 43RD AVENUE","VANCOUVER","WA",98686,45.7083717680001,-122.627794564,180,"12016 NE 43RD AVENUE, VANCOUVER, WA, 98686","Match","Exact","12016 NE 43RD AVE, VANCOUVER, WA, 98686",158348319,"L"
103681,"12016 PALISADES PARKWAY","AUSTIN","TX",78732,30.3429447030001,-97.905478214,181,"12016 PALISADES PARKWAY, AUSTIN, TX, 78732","Match","Exact","12016 PALISADES PKWY, AUSTIN, TX, 78732",641787516,"R"
103682,"12016 POPPY ST NW","COON RAPIDS","MN",55433,45.1894420450001,-93.3528687149999,182,"12016 POPPY ST NW, COON RAPIDS, MN, 55433","Match","Exact","12016 POPPY ST NW, COON RAPIDS, MN, 55433",97496195,"R"
103683,"12016 VERSAILLES COURT","SAN DIEGO","CA",92128,33.0367550720001,-117.073683859,183,"12016 VERSAILLES COURT, SAN DIEGO, CA, 92128","Match","Exact","12016 VERSAILLES CT, SAN DIEGO, CA, 92128",195379440,"L"
103684,"12016 WYANDOTTE DR SW","HUNTSVILLE","AL",35803,34.6036545370001,-86.575803642,184,"12016 WYANDOTTE DR SW, HUNTSVILLE, AL, 35803","Match","Exact","12016 WYANDOTTE DR SW, HUNTSVILLE, AL, 35803",58132952,"L"
103685,"12016 WYANDOTTE DRIVE","HUNTSVILLE","AL",35803,34.6036545370001,-86.575803642,185,"12016 WYANDOTTE DRIVE, HUNTSVILLE, AL, 35803","Match","Non_Exact","12016 WYANDOTTE DR SW, HUNTSVILLE, AL, 35803",58132952,"L"
103686,"12016 WYANDOTTE","HUNTSVILLE","AL",35803,NA,NA,186,"12016 WYANDOTTE, HUNTSVILLE, AL, 35803","No_Match",NA,NA,NA,NA
103687,"12017 107TH AVE CT E","PUYALLUP","WA",98374,47.14716514,-122.285661623,187,"12017 107TH AVE CT E, PUYALLUP, WA, 98374","Match","Exact","12017 107TH AVENUE CT E, PUYALLUP, WA, 98374",184635935,"L"
103688,"12017 CANYON RD E UNIT 24","PUYALLUP","WA",98373,47.146702421,-122.357255708,188,"12017 CANYON RD E UNIT 24, PUYALLUP, WA, 98373","Match","Exact","12017 CANYON RD E, PUYALLUP, WA, 98373",184732067,"L"
103689,"12017 GARRETT ROAD","HOUSTON","TX",77044,29.882907803,-95.219981504,189,"12017 GARRETT ROAD, HOUSTON, TX, 77044","Match","Exact","12017 GARRETT RD, HOUSTON, TX, 77044",96094876,"L"
103690,"12017 GARRISON","LITTLE ROCK","AR",72223,34.8230255460001,-92.5386828699999,190,"12017 GARRISON, LITTLE ROCK, AR, 72223","Match","Non_Exact","12017 GARRISON RD, LITTLE ROCK, AR, 72223",618979951,"R"
103691,"12017 NORTH BURGH LANE","HIGHLAND","UT",84003,NA,NA,191,"12017 NORTH BURGH LANE, HIGHLAND, UT, 84003","No_Match",NA,NA,NA,NA
103692,"12017 NW BLACKHAWK DR","PORTLAND","OR",97229,45.5419975450001,-122.800530158,192,"12017 NW BLACKHAWK DR, PORTLAND, OR, 97229","Match","Exact","12017 NW BLACKHAWK DR, PORTLAND, OR, 97229",158218196,"R"
103693,"12017 POTTTER RD","BELLEVUE","OH",44811,41.295247127,-82.831328619,193,"12017 POTTTER RD, BELLEVUE, OH, 44811","Match","Non_Exact","12017 POTTER RD, BELLEVUE, OH, 44811",621632875,"R"
103694,"12017 SE HAVEN LN","PORTLAND","OR",97266,45.467864058,-122.538056539,194,"12017 SE HAVEN LN, PORTLAND, OR, 97266","Match","Exact","12017 SE HAVEN LN, PORTLAND, OR, 97266",627321689,"R"
103695,"12017 TIMBERHILL DRIVE","RIVERVIEW","FL",33569,27.86395644,-82.296745393,195,"12017 TIMBERHILL DRIVE, RIVERVIEW, FL, 33569","Match","Exact","12017 TIMBERHILL DR, RIVERVIEW, FL, 33569",104615781,"R"
103696,"12017 WHISPERING OAKS DR","BAKER","LA",70714,30.554593783,-91.107257235,196,"12017 WHISPERING OAKS DR, BAKER, LA, 70714","Match","Exact","12017 WHISPERING OAKS DR, BAKER, LA, 70714",92186675,"R"
103697,"12017 WHITE ACRES LN","PAMPA","TX",79065,NA,NA,197,"12017 WHITE ACRES LN, PAMPA, TX, 79065","No_Match",NA,NA,NA,NA
103698,"12017 WINTER CREST DRIVE","LAKESIDE","CA",92040,32.8521320030001,-116.932931244,198,"12017 WINTER CREST DRIVE, LAKESIDE, CA, 92040","Match","Non_Exact","12017 WINTERCREST DR, LAKESIDE, CA, 92040",645306404,"R"
103699,"12017","RIVERVIEW","FL",33569,NA,NA,199,"12017, RIVERVIEW, FL, 33569","No_Match",NA,NA,NA,NA
103700,"12018 ALABASTER COURT","CHARLOTTE","NC",28269,35.3605832590001,-80.796492467,200,"12018 ALABASTER COURT, CHARLOTTE, NC, 28269","Match","Exact","12018 ALABASTER CT, CHARLOTTE, NC, 28269",70531680,"R"
103701,"12018 AMBROSIA COURT","JACKSONVILLE","FL",32223,30.155939328,-81.606280964,201,"12018 AMBROSIA COURT, JACKSONVILLE, FL, 32223","Match","Exact","12018 AMBROSIA CT, JACKSONVILLE, FL, 32223",83943949,"R"
103702,"12018 BREWSTER","TAMPA","FL",33626,28.0486662550001,-82.622860313,202,"12018 BREWSTER, TAMPA, FL, 33626","Match","Non_Exact","12018 BREWSTER DR, TAMPA, FL, 33626",104578645,"L"
103703,"12018 CALICO WOODS PLACE","WALDORF","MD",20601,38.6472931280001,-76.896201697,203,"12018 CALICO WOODS PLACE, WALDORF, MD, 20601","Match","Exact","12018 CALICO WOODS PL, WALDORF, MD, 20601",648212549,"R"
103704,"12018 DOUBLEDAY DR","HOUSTON","TX",77089,29.5877219160001,-95.197877502,204,"12018 DOUBLEDAY DR, HOUSTON, TX, 77089","Match","Exact","12018 DOUBLEDAY DR, HOUSTON, TX, 77089",96114081,"R"
103705,"12018 LOTUS RD","MINSTER","OH",45865,40.3714400310001,-84.353168218,205,"12018 LOTUS RD, MINSTER, OH, 45865","Match","Exact","12018 LOTUS RD, MINSTER, OH, 45865",649322256,"L"
103706,"12018 MILL BERGER RD","SAN ANTONIO","TX",78254,29.5323912000001,-98.728171318,206,"12018 MILL BERGER RD, SAN ANTONIO, TX, 78254","Match","Non_Exact","12018 MILL BERGER, SAN ANTONIO, TX, 78254",619992035,"R"
103707,"12018 PRAILS MILL LANE","CHARLOTTE","NC",28262,35.3385497780001,-80.708182839,207,"12018 PRAILS MILL LANE, CHARLOTTE, NC, 28262","Match","Exact","12018 PRAILS MILL LN, CHARLOTTE, NC, 28262",70512799,"L"
103708,"12018 RAVENS NEST LN","HOUSTON","TX",77089,29.5719609500001,-95.222025147,208,"12018 RAVENS NEST LN, HOUSTON, TX, 77089","Match","Exact","12018 RAVENS NEST LN, HOUSTON, TX, 77089",96567823,"L"
103709,"12018 SOBIESKI STREET","HAMTRAMCK","MI",48212,42.406180428,-83.058578021,209,"12018 SOBIESKI STREET, HAMTRAMCK, MI, 48212","Match","Exact","12018 SOBIESKI ST, HAMTRAMCK, MI, 48212",95464868,"R"
103710,"12018 SUNSET HAVEN DR","CYPRESS","TX",77433,29.952660091,-95.747342637,210,"12018 SUNSET HAVEN DR, CYPRESS, TX, 77433","Match","Exact","12018 SUNSET HAVEN DR, CYPRESS, TX, 77433",652802649,"R"
103711,"12018 TALMADGE REACH DR","HUMBLE","TX",77346,29.946371383,-95.209092375,211,"12018 TALMADGE REACH DR, HUMBLE, TX, 77346","Match","Exact","12018 TALMADGE REACH DR, HUMBLE, TX, 77346",651947105,"R"
103712,"12018","CARMEL","IN",46033,NA,NA,212,"12018, CARMEL, IN, 46033","No_Match",NA,NA,NA,NA
103713,"120180 EAGLE TERRACE BLVD","CORAL SPRINGS","FL",33071,NA,NA,213,"120180 EAGLE TERRACE BLVD, CORAL SPRINGS, FL, 33071","No_Match",NA,NA,NA,NA
103714,"12019 BERLIN STATION RD","BERLIN CENTER","OH",44401,41.0097020200001,-80.8752855279999,214,"12019 BERLIN STATION RD, BERLIN CENTER, OH, 44401","Match","Exact","12019 BERLIN STATION RD, BERLIN CENTER, OH, 44401",64609186,"R"
103715,"12019 BRIDGEPORT RD","TANEYTOWN","MD",21787,39.6757074060001,-77.244193412,215,"12019 BRIDGEPORT RD, TANEYTOWN, MD, 21787","Match","Exact","12019 BRIDGEPORT RD, TANEYTOWN, MD, 21787",60713401,"L"
103716,"12019 COLLINS ROAD","LEWES","DE",19958,NA,NA,216,"12019 COLLINS ROAD, LEWES, DE, 19958","No_Match",NA,NA,NA,NA
103717,"12019 ECHO CANYON DRIVE","TOMBALL","TX",77377,30.0331943410001,-95.615255363,217,"12019 ECHO CANYON DRIVE, TOMBALL, TX, 77377","Match","Exact","12019 ECHO CANYON DR, TOMBALL, TX, 77377",636791800,"R"
103718,"12019 ENSLEY LANE","LEAWOOD","KS",66209,38.9110068850001,-94.623745476,218,"12019 ENSLEY LANE, LEAWOOD, KS, 66209","Match","Exact","12019 ENSLEY LN, LEAWOOD, KS, 66209",91285571,"L"
103719,"12019 N 156TH AVENUE CIRCLE","BENNINGTON","NE",68007,41.3690496470001,-96.159574173,219,"12019 N 156TH AVENUE CIRCLE, BENNINGTON, NE, 68007","Match","Exact","12019 N 156TH AVENUE CIR, BENNINGTON, NE, 68007",116965017,"R"
103720,"12019 NORMONT DR","HOUSTON","TX",77070,29.98596099,-95.601458766,220,"12019 NORMONT DR, HOUSTON, TX, 77070","Match","Exact","12019 NORMONT DR, HOUSTON, TX, 77070",96004336,"L"
103721,"12019 S CIRCLE DRIVE","HOUSTON","TX",77071,29.6487559280001,-95.521806227,221,"12019 S CIRCLE DRIVE, HOUSTON, TX, 77071","Match","Exact","12019 S CIRCLE DR, HOUSTON, TX, 77071",96155123,"R"
103722,"12019 SHAWNEE FOREST DRIVE","LITTLE ROCK","AR",72212,34.789161204,-92.407094517,222,"12019 SHAWNEE FOREST DRIVE, LITTLE ROCK, AR, 72212","Match","Exact","12019 SHAWNEE FOREST DR, LITTLE ROCK, AR, 72212",83499967,"L"
103723,"12019 STELLER COURT NW","ALBUQUERQUE","NM",87114,35.217185655,-106.673108232,223,"12019 STELLER COURT NW, ALBUQUERQUE, NM, 87114","Match","Exact","12019 STELLER CT NW, ALBUQUERQUE, NM, 87114",647320129,"L"
103724,"12019 SW 12TH ST","PEMBROKE PINES","FL",33025,25.997124383,-80.307492955,224,"12019 SW 12TH ST, PEMBROKE PINES, FL, 33025","Match","Exact","12019 SW 12TH ST, PEMBROKE PINES, FL, 33025",608971547,"L"
103725,"12019 W JENERO DR PO BOX 3019","ARIZONA CITY","AZ",85123,32.760909758,-111.696055577,225,"12019 W JENERO DR PO BOX 3019, ARIZONA CITY, AZ, 85123","Match","Non_Exact","12019 W JENERO DR, ARIZONA CITY, AZ, 85123",129218699,"L"
103726,"12019 WICKER AVE","CEDAR LAKE","IN",46303,41.400463272,-87.4700497539999,226,"12019 WICKER AVE, CEDAR LAKE, IN, 46303","Match","Exact","12019 WICKER AVE, CEDAR LAKE, IN, 46303",649237684,"L"
103727,"1202  JORDANS POND LANE","CHARLOTTE","NC",28214,35.295346024,-80.9300579709999,227,"1202  JORDANS POND LANE, CHARLOTTE, NC, 28214","Match","Exact","1202 JORDANS POND LN, CHARLOTTE, NC, 28214",70555823,"R"
103728,"1202 117TH STREET","COLLEGE POINT","NY",11356,NA,NA,228,"1202 117TH STREET, COLLEGE POINT, NY, 11356","No_Match",NA,NA,NA,NA
103729,"1202 12TH AVE N","COLUMBUS","MS",39701,NA,NA,229,"1202 12TH AVE N, COLUMBUS, MS, 39701","No_Match",NA,NA,NA,NA
103730,"1202 13TH AVE","ROCK VALLEY","IA",51247,43.2042535960001,-96.299887934,230,"1202 13TH AVE, ROCK VALLEY, IA, 51247","Match","Exact","1202 13TH AVE, ROCK VALLEY, IA, 51247",93369012,"R"
103731,"1202 13TH ST SW","PUYALLUP","WA",98371,47.1807633220001,-122.311382258,231,"1202 13TH ST SW, PUYALLUP, WA, 98371","Match","Exact","1202 13TH ST SW, PUYALLUP, WA, 98371",184706313,"R"
103732,"1202 17TH STREET","ROCK ISLAND","IL",61201,41.499331748,-90.574400026,232,"1202 17TH STREET, ROCK ISLAND, IL, 61201","Match","Exact","1202 17TH ST, ROCK ISLAND, IL, 61201",9207795,"R"
103733,"1202 19TH STREET NO","JACKSONVILLE BEACH","FL",32250,30.298234946,-81.4097109859999,233,"1202 19TH STREET NO, JACKSONVILLE BEACH, FL, 32250","Match","Exact","1202 19TH ST N, JACKSONVILLE BEACH, FL, 32250",83922693,"L"
103734,"1202 1ST ST E BOX 2731","HUMBLE","TX",77347,NA,NA,234,"1202 1ST ST E BOX 2731, HUMBLE, TX, 77347","No_Match",NA,NA,NA,NA
103735,"1202 1ST ST E STE 15272","HUMBLE","TX",77346,NA,NA,235,"1202 1ST ST E STE 15272, HUMBLE, TX, 77346","No_Match",NA,NA,NA,NA
103736,"1202 1ST STREET E 14516","HUMBLE","TX",77347,NA,NA,236,"1202 1ST STREET E 14516, HUMBLE, TX, 77347","No_Match",NA,NA,NA,NA
103737,"1202 1ST STREET EAST","HUMBLE","TX",77338,29.9991518750001,-95.2550968309999,237,"1202 1ST STREET EAST, HUMBLE, TX, 77338","Match","Non_Exact","1202 1ST ST, HUMBLE, TX, 77338",96663387,"R"
103738,"1202 25TH AVENUE NORTH","FORT DODGE","IA",50501,42.5301823620001,-94.182651952,238,"1202 25TH AVENUE NORTH, FORT DODGE, IA, 50501","Match","Exact","1202 25TH AVE N, FORT DODGE, IA, 50501",66065673,"L"
103739,"1202 26TH AVE N","FORT DODGE","IA",50501,42.5309277060001,-94.182331953,239,"1202 26TH AVE N, FORT DODGE, IA, 50501","Match","Exact","1202 26TH AVE N, FORT DODGE, IA, 50501",66071476,"R"
103740,"1202 2ND AVE","VINTON","IA",52349,42.1600653350001,-92.0229999219999,240,"1202 2ND AVE, VINTON, IA, 52349","Match","Exact","1202 2ND AVE, VINTON, IA, 52349",94711350,"R"
103741,"1202 35TH ST SE","BUFFALO","MN",55313,45.1001702080001,-93.866123481,241,"1202 35TH ST SE, BUFFALO, MN, 55313","Match","Exact","1202 35TH ST SE, BUFFALO, MN, 55313",44002286,"L"
103742,"1202 A AVENUE","ANACORTES","WA",98221,48.512659909,-122.636145137,242,"1202 A AVENUE, ANACORTES, WA, 98221","Match","Exact","1202 A AVE, ANACORTES, WA, 98221",636678860,"L"
103743,"1202 ABERNATHY WAY","MOUNT JULIET","TN",37122,36.143029332,-86.500722944,243,"1202 ABERNATHY WAY, MOUNT JULIET, TN, 37122","Match","Exact","1202 ABERNATHY WAY, MOUNT JULIET, TN, 37122",624737168,"L"
103744,"1202 ABERNATHY WAY","MT JULIET","TN",37122,36.143029332,-86.500722944,244,"1202 ABERNATHY WAY, MT JULIET, TN, 37122","Match","Exact","1202 ABERNATHY WAY, MOUNT JULIET, TN, 37122",624737168,"L"
103745,"1202 ALDERSHOT COURT","ABINGDON","MD",21009,39.4576046870001,-76.277112269,245,"1202 ALDERSHOT COURT, ABINGDON, MD, 21009","Match","Exact","1202 ALDERSHOT CT, ABINGDON, MD, 21009",625528411,"R"
103746,"1202 ALIFIA DR","KISSIMMEE","FL",34759,28.096612384,-81.517051105,246,"1202 ALIFIA DR, KISSIMMEE, FL, 34759","Match","Non_Exact","1202 ALAFIA DR, KISSIMMEE, FL, 34759",104870609,"R"
103747,"1202 AMESBURY LANE","RICHMOND","VA",23227,37.631814665,-77.4466351899999,247,"1202 AMESBURY LANE, RICHMOND, VA, 23227","Match","Exact","1202 AMESBURY LN, RICHMOND, VA, 23227",106648654,"R"
103748,"1202 ANACOSTIA LANE","ALLEN","TX",75002,33.0783077240001,-96.624620996,248,"1202 ANACOSTIA LANE, ALLEN, TX, 75002","Match","Exact","1202 ANACOSTIA LN, ALLEN, TX, 75002",634134603,"L"
103749,"1202 ANGORA DR","YEADON","PA",19050,39.936743397,-75.243821773,249,"1202 ANGORA DR, YEADON, PA, 19050","Match","Non_Exact","1202 ANGORA AVE, YEADON, PA, 19050",134878758,"R"
103750,"1202 ANN  STREET","MADISON","WI",53713,43.0350283160001,-89.402530658,250,"1202 ANN  STREET, MADISON, WI, 53713","Match","Exact","1202 ANN ST, MADISON, WI, 53713",639271732,"R"
103751,"1202 APPALACHEE DRIVE","HUNTSVILLE","AL",35801,34.7084440560001,-86.5531729909999,251,"1202 APPALACHEE DRIVE, HUNTSVILLE, AL, 35801","Match","Exact","1202 APPALACHEE DR, HUNTSVILLE, AL, 35801",58121596,"R"
103752,"1202 ARGONNE DRIVE","BALTIMORE","MD",21218,39.3390976540001,-76.597107792,252,"1202 ARGONNE DRIVE, BALTIMORE, MD, 21218","Match","Exact","1202 ARGONNE DR, BALTIMORE, MD, 21218",206409231,"L"
103753,"1202 BACKER","ST LOUIS","MO",63130,38.671814415,-90.321727596,253,"1202 BACKER, ST LOUIS, MO, 63130","Match","Non_Exact","1202 BACKER AVE, SAINT LOUIS, MO, 63130",100134237,"R"
103754,"1202 BAIRD WAY","CELINA","TX",75009,33.27137206,-96.800633435,254,"1202 BAIRD WAY, CELINA, TX, 75009","Match","Exact","1202 BAIRD WAY, CELINA, TX, 75009",642250171,"L"
103755,"1202 BARDSTOWN RD","LOUISVILLE","KY",40204,38.2369618330001,-85.718359664,255,"1202 BARDSTOWN RD, LOUISVILLE, KY, 40204","Match","Exact","1202 BARDSTOWN RD, LOUISVILLE, KY, 40204",618512751,"R"
103756,"1202 BASIN CREEK COVE","NICEVILLE","FL",32578,30.5268073290001,-86.4590941819999,256,"1202 BASIN CREEK COVE, NICEVILLE, FL, 32578","Match","Exact","1202 BASIN CREEK COVE, NICEVILLE, FL, 32578",74420220,"R"
103757,"1202 BENOIT PL","APEX","NC",27502,35.73292503,-78.8838545359999,257,"1202 BENOIT PL, APEX, NC, 27502","Match","Exact","1202 BENOIT PL, APEX, NC, 27502",72596390,"L"
103758,"1202 BIDDLE PLACE","CATONSVILLE","MD",21228,39.2570542880001,-76.739508391,258,"1202 BIDDLE PLACE, CATONSVILLE, MD, 21228","Match","Exact","1202 BIDDLE PL, CATONSVILLE, MD, 21228",191485087,"R"
103759,"1202 BIG ROCK PARK ROAD","PELLA","IA",50219,NA,NA,259,"1202 BIG ROCK PARK ROAD, PELLA, IA, 50219","No_Match",NA,NA,NA,NA
103760,"1202 BLACKHAWKE DRIVE","OPELIKA","AL",36801,32.6607071490001,-85.401646633,260,"1202 BLACKHAWKE DRIVE, OPELIKA, AL, 36801","Match","Non_Exact","1202 BLACKHAWK DR, OPELIKA, AL, 36801",1570499,"R"
103761,"1202 BLUE WING TERRACE","UPPER MARLBORO","MD",20774,38.8736953320001,-76.767115056,261,"1202 BLUE WING TERRACE, UPPER MARLBORO, MD, 20774","Match","Exact","1202 BLUE WING TER, UPPER MARLBORO, MD, 20774",76417211,"R"
103762,"1202 BONNIE BRAE ST","AUSTIN","TX",78753,30.3584680290001,-97.678273405,262,"1202 BONNIE BRAE ST, AUSTIN, TX, 78753","Match","Exact","1202 BONNIE BRAE ST, AUSTIN, TX, 78753",63934682,"L"
103763,"1202 BORDEN ROAD  NUMBER98","ESCONDIDO","CA",92026,33.1351540360001,-117.101001224,263,"1202 BORDEN ROAD  NUMBER98, ESCONDIDO, CA, 92026","Match","Exact","1202 BORDEN RD, ESCONDIDO, CA, 92026",195376319,"R"
103764,"1202 BORDERS DRIVE","PALATINE","IL",60067,42.0972525280001,-88.074133274,264,"1202 BORDERS DRIVE, PALATINE, IL, 60067","Match","Non_Exact","1202 W BORDERS DR, PALATINE, IL, 60067",111690716,"R"
103765,"1202 BORDERS ROAD","SHELBY","NC",28150,35.293981724,-81.4635647429999,265,"1202 BORDERS ROAD, SHELBY, NC, 28150","Match","Exact","1202 BORDERS RD, SHELBY, NC, 28150",19320908,"R"
103766,"1202 BRIARWOOD","HOUSTON","MO",65483,37.31759658,-91.964801667,266,"1202 BRIARWOOD, HOUSTON, MO, 65483","Match","Non_Exact","1202 BRIARWOOD DR, HOUSTON, MO, 65483",26434957,"R"
103767,"1202 BRIDGE STREET NW","GRAND RAPIDS","MI",49504,42.970906993,-85.69772219,267,"1202 BRIDGE STREET NW, GRAND RAPIDS, MI, 49504","Match","Exact","1202 BRIDGE ST NW, GRAND RAPIDS, MI, 49504",12455859,"L"
103768,"1202 BRISTOL ST","COSTA MESA","CA",92626,33.6713794680001,-117.887465404,268,"1202 BRISTOL ST, COSTA MESA, CA, 92626","Match","Non_Exact","1202 SE BRISTOL ST, COSTA MESA, CA, 92626",609063062,"R"
103769,"1202 BRITTON RD","ROCHESTER","NY",14616,43.2366980570001,-77.657046635,269,"1202 BRITTON RD, ROCHESTER, NY, 14616","Match","Exact","1202 BRITTON RD, ROCHESTER, NY, 14616",14526871,"R"
103770,"1202 BROCKETT RD","CLARKSTON","GA",30021,33.818657909,-84.232674243,270,"1202 BROCKETT RD, CLARKSTON, GA, 30021","Match","Exact","1202 BROCKETT RD, CLARKSTON, GA, 30021",627672910,"L"
103771,"1202 BROOKSTONE RIDE","COLLEGE PARK","GA",30349,NA,NA,271,"1202 BROOKSTONE RIDE, COLLEGE PARK, GA, 30349","Tie",NA,NA,NA,NA
103772,"1202 BUTLER STREET","CAPE GIRARDEAU","MO",63701,37.324593023,-89.532197684,272,"1202 BUTLER STREET, CAPE GIRARDEAU, MO, 63701","Match","Exact","1202 BUTLER ST, CAPE GIRARDEAU, MO, 63701",35181992,"R"
103773,"1202 CANVAS BACK DRIVE","GRANBURY","TX",76048,32.4191283690001,-97.7729384629999,273,"1202 CANVAS BACK DRIVE, GRANBURY, TX, 76048","Match","Non_Exact","1202 CANVASBACK DR, GRANBURY, TX, 76048",158797424,"R"
103774,"1202 CARRICO AVE","LOUISVILLE","KY",40215,38.1843431770001,-85.780793268,274,"1202 CARRICO AVE, LOUISVILLE, KY, 40215","Match","Exact","1202 CARRICO AVE, LOUISVILLE, KY, 40215",96848574,"L"
103775,"1202 CASTLEHAVEN CT","CAPITOL HEIGHTS","MD",20743,38.8737113560001,-76.903749132,275,"1202 CASTLEHAVEN CT, CAPITOL HEIGHTS, MD, 20743","Match","Exact","1202 CASTLEHAVEN CT, CAPITOL HEIGHTS, MD, 20743",76313832,"R"
103776,"1202 CHARLES CT","COLLEGE STATION","TX",77840,30.606024174,-96.318519706,276,"1202 CHARLES CT, COLLEGE STATION, TX, 77840","Match","Exact","1202 CHARLES CT, COLLEGE STATION, TX, 77840",21817742,"R"
103777,"1202 CHARLES DR","LAURINBURG","NC",28352,34.771350447,-79.48326174,277,"1202 CHARLES DR, LAURINBURG, NC, 28352","Match","Exact","1202 CHARLES DR, LAURINBURG, NC, 28352",25786338,"L"
103778,"1202 CHELSEN CROSS","MECHANICSBURG","PA",17050,40.2643139750001,-76.9914216879999,278,"1202 CHELSEN CROSS, MECHANICSBURG, PA, 17050","Match","Exact","1202 CHELSEN CROSS, MECHANICSBURG, PA, 17050",221266513,"R"
103779,"1202 CHESTERTON AVE","ORLANDO","FL",32809,28.453449376,-81.393946684,279,"1202 CHESTERTON AVE, ORLANDO, FL, 32809","Match","Exact","1202 CHESTERTON AVE, ORLANDO, FL, 32809",94290571,"L"
103780,"1202 CHESTERTON","RICHARDSON","TX",75080,32.975191067,-96.760816636,280,"1202 CHESTERTON, RICHARDSON, TX, 75080","Match","Non_Exact","1202 CHESTERTON DR, RICHARDSON, TX, 75080",102896379,"R"
103781,"1202 CHESTNUT DRIVE","SMITHFIELD","NC",27577,35.4995292850001,-78.3633181559999,281,"1202 CHESTNUT DRIVE, SMITHFIELD, NC, 27577","Match","Exact","1202 CHESTNUT DR, SMITHFIELD, NC, 27577",26537696,"L"
103782,"1202 CHESTNUT PLACE","LAS CRUCES","NM",88005,32.3192835850001,-106.786145888,282,"1202 CHESTNUT PLACE, LAS CRUCES, NM, 88005","Match","Non_Exact","1202 W CHESTNUT PL, LAS CRUCES, NM, 88005",189543678,"R"
103783,"1202 CHURCH STREET","BENCIA","CA",94510,38.0645041600001,-122.17794211,283,"1202 CHURCH STREET, BENCIA, CA, 94510","Match","Non_Exact","1202 CHURCH ST, BENICIA, CA, 94510",192563690,"L"
103784,"1202 CLAY AVE","GREENWOOD","MS",38930,33.5033937580001,-90.16065317,284,"1202 CLAY AVE, GREENWOOD, MS, 38930","Match","Exact","1202 CLAY AVE, GREENWOOD, MS, 38930",1055734,"R"
103785,"1202 CLEARVIEW CT","BUFFALO GROVE","IL",60089,42.1738189280001,-87.951870599,285,"1202 CLEARVIEW CT, BUFFALO GROVE, IL, 60089","Match","Exact","1202 CLEARVIEW CT, BUFFALO GROVE, IL, 60089",119655169,"R"
103786,"1202 CLERMONT ST","ANTIGO","WI",54409,45.1481284480001,-89.1540453269999,286,"1202 CLERMONT ST, ANTIGO, WI, 54409","Match","Exact","1202 CLERMONT ST, ANTIGO, WI, 54409",196401594,"L"
103787,"1202 COLUMBUS ST","HOUSTON","TX",77019,29.755799499,-95.3913518109999,287,"1202 COLUMBUS ST, HOUSTON, TX, 77019","Match","Exact","1202 COLUMBUS ST, HOUSTON, TX, 77019",96062526,"R"
103788,"1202 CONNECTICUT AVE NW STE 656","WASHINGTON","DC",20036,38.9065377750001,-77.041641936,288,"1202 CONNECTICUT AVE NW STE 656, WASHINGTON, DC, 20036","Match","Exact","1202 CONNECTICUT AVE NW, WASHINGTON, DC, 20036",76225594,"L"
103789,"1202 COTTON ST","AUSTIN","TX",78702,30.2712266730001,-97.727372278,289,"1202 COTTON ST, AUSTIN, TX, 78702","Match","Exact","1202 COTTON ST, AUSTIN, TX, 78702",63947056,"L"
103790,"1202 CRESCENT BLVD EXT","CRESCENT","PA",15046,40.5548447620001,-80.227703864,290,"1202 CRESCENT BLVD EXT, CRESCENT, PA, 15046","Match","Non_Exact","1202 CRESCENT BLVD EXD, CRESCENT, PA, 15046",629095987,"L"
103791,"1202 CROWN HAVEN CIRCLE","COLORADO SPRINGS","CO",80919,38.9229438,-104.848814318,291,"1202 CROWN HAVEN CIRCLE, COLORADO SPRINGS, CO, 80919","Match","Non_Exact","1202 CROWN HAVEN CT, COLORADO SPRINGS, CO, 80919",624939860,"R"
103792,"1202 E 21ST","HUTCHINSON","KS",67502,38.0767084010001,-97.906932218,292,"1202 E 21ST, HUTCHINSON, KS, 67502","Match","Non_Exact","1202 E 21ST AVE, HUTCHINSON, KS, 67502",142933597,"L"
103793,"1202 E 42ND STREE","TACOMA","WA",98404,NA,NA,293,"1202 E 42ND STREE, TACOMA, WA, 98404","No_Match",NA,NA,NA,NA
103794,"1202 E BROADWAY","EDINA","MO",63537,40.1639653240001,-92.163952762,294,"1202 E BROADWAY, EDINA, MO, 63537","Match","Non_Exact","1202 E BROADWAY ST, EDINA, MO, 63537",636263645,"L"
103795,"1202 E BROWNE","OMAHA","NE",68110,NA,NA,295,"1202 E BROWNE, OMAHA, NE, 68110","No_Match",NA,NA,NA,NA
103796,"1202 E GRAY LANE","WINCHESTER","IN",47394,40.1579183590001,-84.957165305,296,"1202 E GRAY LANE, WINCHESTER, IN, 47394","Match","Exact","1202 E GRAY LN, WINCHESTER, IN, 47394",31224729,"R"
103797,"1202 E HARRISON ST","KIRKSVILLE","MO",63501,40.195529548,-92.570924287,297,"1202 E HARRISON ST, KIRKSVILLE, MO, 63501","Match","Exact","1202 E HARRISON ST, KIRKSVILLE, MO, 63501",24761915,"L"
103798,"1202 E LOCUST ST","EMMETT","ID",83617,43.8790741,-116.484943937,298,"1202 E LOCUST ST, EMMETT, ID, 83617","Match","Exact","1202 E LOCUST ST, EMMETT, ID, 83617",649836689,"L"
103799,"1202 E LOCUST","BLOOMINGTON","IL",61701,40.484962701,-88.974221389,299,"1202 E LOCUST, BLOOMINGTON, IL, 61701","Match","Non_Exact","1202 E LOCUST ST, BLOOMINGTON, IL, 61701",640173361,"L"
103800,"1202 E MISHAWAKA AVE","MISHAWAKA","IN",46544,41.6663914270001,-86.16065845,300,"1202 E MISHAWAKA AVE, MISHAWAKA, IN, 46544","Match","Exact","1202 E MISHAWAKA AVE, MISHAWAKA, IN, 46544",8086074,"L"
103801,"1202 E SONTERRA BLVD STE 801","SAN ANTONIO","TX",78258,29.61523148,-98.472677322,301,"1202 E SONTERRA BLVD STE 801, SAN ANTONIO, TX, 78258","Match","Non_Exact","1202 E SONTERRA BLVD, SAN ANTONIO, TX, 78258",639527243,"L"
103802,"1202 E SONTERRA BLVD SUITE 501","SAN ANTONIO","TX",78258,29.61523148,-98.472677322,302,"1202 E SONTERRA BLVD SUITE 501, SAN ANTONIO, TX, 78258","Match","Non_Exact","1202 E SONTERRA BLVD, SAN ANTONIO, TX, 78258",639527243,"L"
103803,"1202 E STREET","BELMAR","NJ",7719,40.176881128,-74.024374285,303,"1202 E STREET, BELMAR, NJ, 7719","Match","Exact","1202 E ST, BELMAR, NJ, 07719",90465476,"R"
103804,"1202 E WALFORD DR APT 20","JEFFERSONVILLE","IN",47130,NA,NA,304,"1202 E WALFORD DR APT 20, JEFFERSONVILLE, IN, 47130","Tie",NA,NA,NA,NA
103805,"1202 E46TH STREET","BROOKLYN","NY",11234,NA,NA,305,"1202 E46TH STREET, BROOKLYN, NY, 11234","No_Match",NA,NA,NA,NA
103806,"1202 EAST 18TH STREET","BROOKLYN","NY",11230,40.621235348,-73.957735423,306,"1202 EAST 18TH STREET, BROOKLYN, NY, 11230","Match","Exact","1202 E 18TH ST, BROOKLYN, NY, 11230",59089674,"R"
103807,"1202 EAST 25TH STREET","IDAHO FALLS","ID",83401,43.4751473760001,-112.010713286,307,"1202 EAST 25TH STREET, IDAHO FALLS, ID, 83401","Match","Non_Exact","1202 E 25TH ST, IDAHO FALLS, ID, 83404",119183963,"L"
103808,"1202 EAST 25TH STREET","IDAHO","ID",83401,NA,NA,308,"1202 EAST 25TH STREET, IDAHO, ID, 83401","No_Match",NA,NA,NA,NA
103809,"1202 EAST 2650 NORTH","NORTH OGDEN","UT",84414,41.307570153,-111.941961912,309,"1202 EAST 2650 NORTH, NORTH OGDEN, UT, 84414","Match","Exact","1202 E 2650 N, NORTH OGDEN, UT, 84414",155716595,"L"
103810,"1202 EAST 42ND ST","TACOMA","WA",98404,47.219374014,-122.413197369,310,"1202 EAST 42ND ST, TACOMA, WA, 98404","Match","Exact","1202 E 42ND ST, TACOMA, WA, 98404",647957666,"L"
103811,"1202 EAST FIRST STREET","PARK RAPIDS","MN",56470,NA,NA,311,"1202 EAST FIRST STREET, PARK RAPIDS, MN, 56470","No_Match",NA,NA,NA,NA
103812,"1202 EAST GONZALEZ STREET","PENSACOLA","FL",32501,30.4267015780001,-87.203150097,312,"1202 EAST GONZALEZ STREET, PENSACOLA, FL, 32501","Match","Exact","1202 E GONZALEZ ST, PENSACOLA, FL, 32501",93221810,"L"
103813,"1202 EAST SPRUCE STREET","PETERSBURG","IN",47567,38.4962661440001,-87.2788883549999,313,"1202 EAST SPRUCE STREET, PETERSBURG, IN, 47567","Match","Non_Exact","1202 SPRUCE ST, PETERSBURG, IN, 47567",32171839,"L"
103814,"1202 EAST WARREN","BROWNFIELD","TX",79316,33.1700566580001,-102.261278016,314,"1202 EAST WARREN, BROWNFIELD, TX, 79316","Match","Non_Exact","1202 E WARREN ST, BROWNFIELD, TX, 79316",185892380,"R"
103815,"1202 EGAN ST","DENTON","TX",76201,33.2204533010001,-97.14483641,315,"1202 EGAN ST, DENTON, TX, 76201","Match","Exact","1202 EGAN ST, DENTON, TX, 76201",103338606,"L"
103816,"1202 ELLIS AVE","IOWA FALLS","IA",50126,42.5176246280001,-93.27196343,316,"1202 ELLIS AVE, IOWA FALLS, IA, 50126","Match","Exact","1202 ELLIS AVE, IOWA FALLS, IA, 50126",77434650,"R"
103817,"1202 ELM ST","SPOONER","WI",54801,45.8288906270001,-91.9022049609999,317,"1202 ELM ST, SPOONER, WI, 54801","Match","Exact","1202 ELM ST, SPOONER, WI, 54801",196342185,"L"
103818,"1202 EMERSON COURT","CLEMONTON","NJ",8021,39.801698435,-75.034649311,318,"1202 EMERSON COURT, CLEMONTON, NJ, 8021","Match","Non_Exact","1202 EMERSON CT, CLEMENTON, NJ, 08021",614015965,"R"
103819,"1202 EMMANUEL CHURCH ROAD  APT  1","CONOVER","NC",28613,35.7000369150001,-81.202256076,319,"1202 EMMANUEL CHURCH ROAD  APT  1, CONOVER, NC, 28613","Match","Exact","1202 EMMANUEL CHURCH RD, CONOVER, NC, 28613",45909105,"R"
103820,"1202 ESPLANO DR","MADISON","IN",47250,38.767686043,-85.4439498089999,320,"1202 ESPLANO DR, MADISON, IN, 47250","Match","Exact","1202 ESPLANO DR, MADISON, IN, 47250",31382573,"R"
103821,"1202 EVANS RD STE 1911","SAN ANTONIO","TX",78258,29.6386318360001,-98.475890374,321,"1202 EVANS RD STE 1911, SAN ANTONIO, TX, 78258","Match","Exact","1202 EVANS RD, SAN ANTONIO, TX, 78258",650105251,"R"
103822,"1202 FALLING WATER LN","KATY","TX",77494,29.7673013610001,-95.838180613,322,"1202 FALLING WATER LN, KATY, TX, 77494","Match","Exact","1202 FALLING WATER LN, KATY, TX, 77494",641048157,"L"
103823,"1202 FALLS CREEK LANDING","NEW ALBANY","IN",47150,38.3709915680001,-85.794803493,323,"1202 FALLS CREEK LANDING, NEW ALBANY, IN, 47150","Match","Exact","1202 FALLS CREEK LNDG, NEW ALBANY, IN, 47150",89555572,"R"
103824,"1202 FELIX ST","SAINT JOSEPH","MO",64501,39.7666464100001,-94.845332196,324,"1202 FELIX ST, SAINT JOSEPH, MO, 64501","Match","Exact","1202 FELIX ST, SAINT JOSEPH, MO, 64501",15975503,"R"
103825,"1202 FELIX","SAINT JOSEPH","MO",64501,39.7666464100001,-94.845332196,325,"1202 FELIX, SAINT JOSEPH, MO, 64501","Match","Non_Exact","1202 FELIX ST, SAINT JOSEPH, MO, 64501",15975503,"R"
103826,"1202 FORREST AVE","NASHVILLE","TN",37206,36.1783300210001,-86.7480933369999,326,"1202 FORREST AVE, NASHVILLE, TN, 37206","Match","Exact","1202 FORREST AVE, NASHVILLE, TN, 37206",97188930,"R"
103827,"1202 G STREET","SALIDA","CO",81201,38.527644733,-106.001996756,327,"1202 G STREET, SALIDA, CO, 81201","Match","Exact","1202 G ST, SALIDA, CO, 81201",108250334,"L"
103828,"1202 GALLOWAY AVE","DALLAS","TX",75216,32.7363302950001,-96.806402627,328,"1202 GALLOWAY AVE, DALLAS, TX, 75216","Match","Exact","1202 GALLOWAY AVE, DALLAS, TX, 75216",102949768,"R"
103829,"1202 GEORGIA AVE","ATHENS","TN",37303,35.4500902440001,-84.600783378,329,"1202 GEORGIA AVE, ATHENS, TN, 37303","Match","Exact","1202 GEORGIA AVE, ATHENS, TN, 37303",88534326,"L"
103830,"1202 GLENSHIELD DRIVE","HENDERSON","KY",42420,NA,NA,330,"1202 GLENSHIELD DRIVE, HENDERSON, KY, 42420","No_Match",NA,NA,NA,NA
103831,"1202 GOLDEN OAKS LN","MONTEREY","CA",93940,NA,NA,331,"1202 GOLDEN OAKS LN, MONTEREY, CA, 93940","No_Match",NA,NA,NA,NA
103832,"1202 GRAND AVENUE","KEOKUK","IA",52632,40.4079761610001,-91.378007725,332,"1202 GRAND AVENUE, KEOKUK, IA, 52632","Match","Exact","1202 GRAND AVE, KEOKUK, IA, 52632",5597900,"L"
103833,"1202 GREEN HILL ROAD","CHATHAM","ME",3813,NA,NA,333,"1202 GREEN HILL ROAD, CHATHAM, ME, 3813","No_Match",NA,NA,NA,NA
103834,"1202 HALES CT","JONESBOROUGH","TN",37659,36.301490395,-82.489032278,334,"1202 HALES CT, JONESBOROUGH, TN, 37659","Match","Exact","1202 HALES CT, JONESBOROUGH, TN, 37659",127942759,"R"
103835,"1202 HALIFAX","FORNEY","TX",75126,32.7485142740001,-96.408648727,335,"1202 HALIFAX, FORNEY, TX, 75126","Match","Non_Exact","1202 HALIFAX LN, FORNEY, TX, 75126",619901660,"R"
103836,"1202 HAROLD DR SE","CEDAR RAPIDS","IA",52403,41.974174997,-91.6151473309999,336,"1202 HAROLD DR SE, CEDAR RAPIDS, IA, 52403","Match","Exact","1202 HAROLD DR SE, CEDAR RAPIDS, IA, 52403",17027696,"L"
103837,"1202 HARRISON STREET","PHILADELPHIA","PA",19124,40.0222077820001,-75.0876451789999,337,"1202 HARRISON STREET, PHILADELPHIA, PA, 19124","Match","Exact","1202 HARRISON ST, PHILADELPHIA, PA, 19124",131426997,"R"
103838,"1202 HERITAGE CLUB AVE","WAKE FOREST","NC",27587,35.951440206,-78.5003222449999,338,"1202 HERITAGE CLUB AVE, WAKE FOREST, NC, 27587","Match","Exact","1202 HERITAGE CLUB AVE, WAKE FOREST, NC, 27587",612819055,"R"
103839,"1202 HIGHLAND PARK DR","LEXINGTON","KY",40505,38.051582561,-84.468824673,339,"1202 HIGHLAND PARK DR, LEXINGTON, KY, 40505","Match","Exact","1202 HIGHLAND PARK DR, LEXINGTON, KY, 40505",31925976,"R"
103840,"1202 HILL AVENUE","SPIRIT LAKE","IA",51360,43.4284468390001,-95.102352703,340,"1202 HILL AVENUE, SPIRIT LAKE, IA, 51360","Match","Exact","1202 HILL AVE, SPIRIT LAKE, IA, 51360",608196444,"R"
103841,"1202 HOLLY AVE N","OAKDALE","MN",55128,44.9671353320001,-92.9479685049999,341,"1202 HOLLY AVE N, OAKDALE, MN, 55128","Match","Exact","1202 HOLLY AVE N, OAKDALE, MN, 55128",628070170,"L"
103842,"1202 HOOK ESTATE DR","DAYTON","OH",45405,39.7942949430001,-84.2340793819999,342,"1202 HOOK ESTATE DR, DAYTON, OH, 45405","Match","Exact","1202 HOOK ESTATE DR, DAYTON, OH, 45405",631836189,"R"
103843,"1202 HOPKINS ST","BERKELEY","CA",94702,37.8764914880001,-122.291530853,343,"1202 HOPKINS ST, BERKELEY, CA, 94702","Match","Exact","1202 HOPKINS ST, BERKELEY, CA, 94702",606071301,"R"
103844,"1202 HULL RD","RUIDOSO","NM",88345,33.371750709,-105.647836267,344,"1202 HULL RD, RUIDOSO, NM, 88345","Match","Exact","1202 HULL RD, RUIDOSO, NM, 88345",169156488,"R"
103845,"1202 INDIANA AVE STE 11","SOUTH PASADENA","CA",91030,34.1114193760001,-118.165012653,345,"1202 INDIANA AVE STE 11, SOUTH PASADENA, CA, 91030","Match","Exact","1202 INDIANA AVE, SOUTH PASADENA, CA, 91030",647681790,"L"
103846,"1202 JACKSON AVE W","HAMPTON","SC",29924,32.8743825990001,-81.1210090869999,346,"1202 JACKSON AVE W, HAMPTON, SC, 29924","Match","Exact","1202 JACKSON AVE W, HAMPTON, SC, 29924",33114529,"L"
103847,"1202 JACKSON AVENUE","GREER","SC",29924,NA,NA,347,"1202 JACKSON AVENUE, GREER, SC, 29924","No_Match",NA,NA,NA,NA
103848,"1202 JESSI DR","CHEYENNE","WY",82009,41.1846816290001,-104.80795502,348,"1202 JESSI DR, CHEYENNE, WY, 82009","Match","Exact","1202 JESSI DR, CHEYENNE, WY, 82009",644921677,"R"
103849,"1202 JULIAN STREET","GREENSBORO","NC",27406,36.0598501750001,-79.772750085,349,"1202 JULIAN STREET, GREENSBORO, NC, 27406","Match","Exact","1202 JULIAN ST, GREENSBORO, NC, 27406",131033925,"R"
103850,"1202 KENT STREET","ROCKFORD","IL",61102,42.2641394450001,-89.113506877,350,"1202 KENT STREET, ROCKFORD, IL, 61102","Match","Exact","1202 KENT ST, ROCKFORD, IL, 61102",49252425,"L"
103851,"1202 KERN COVE","MCDONOUGH","GA",30253,33.453547314,-84.176335943,351,"1202 KERN COVE, MCDONOUGH, GA, 30253","Match","Exact","1202 KERN COVE, MCDONOUGH, GA, 30253",210414204,"R"
103852,"1202 KIFER RD 106","SUNNYVALE","CA",94086,NA,NA,352,"1202 KIFER RD 106, SUNNYVALE, CA, 94086","No_Match",NA,NA,NA,NA
103853,"1202 LA MESA AVE","WINTER SPRINGS","FL",32707,28.653564143,-81.2632060239999,353,"1202 LA MESA AVE, WINTER SPRINGS, FL, 32707","Match","Non_Exact","1202 LA MESA AVE, WINTER SPRINGS, FL, 32708",93745848,"R"
103854,"1202 LAKE VALRICO CIR","VALRICO","FL",33594,27.95798668,-82.264634922,354,"1202 LAKE VALRICO CIR, VALRICO, FL, 33594","Match","Exact","1202 LAKE VALRICO CIR, VALRICO, FL, 33594",104597640,"R"
103855,"1202 LAKE VALRICO WAY","VALRICO","FL",33594,27.9584152200001,-82.262705378,355,"1202 LAKE VALRICO WAY, VALRICO, FL, 33594","Match","Exact","1202 LAKE VALRICO WAY, VALRICO, FL, 33594",104597648,"R"
103856,"1202 LAKELAND COVE","FORT WAYNE","IN",46825,41.1499374950001,-85.124882665,356,"1202 LAKELAND COVE, FORT WAYNE, IN, 46825","Match","Exact","1202 LAKELAND COVE, FORT WAYNE, IN, 46825",6395276,"L"
103857,"1202 LANE ST","NAVASOTA","TX",77868,30.38917501,-96.078233725,357,"1202 LANE ST, NAVASOTA, TX, 77868","Match","Exact","1202 LANE ST, NAVASOTA, TX, 77868",21894399,"R"
103858,"1202 LANSDOWNE CT","SOUTHLAKE","TX",76092,32.9242978670001,-97.144134873,358,"1202 LANSDOWNE CT, SOUTHLAKE, TX, 76092","Match","Exact","1202 LANSDOWNE CT, SOUTHLAKE, TX, 76092",102089084,"R"
103859,"1202 LARKSPUR","AUSTIN","TX",78758,30.357959711,-97.7119828259999,359,"1202 LARKSPUR, AUSTIN, TX, 78758","Match","Non_Exact","1202 LARKSPUR RD, AUSTIN, TX, 78758",63931941,"R"
103860,"1202 LARRAWAY DR","BUFFALO GROVE","IL",60089,42.1744039230001,-87.967700705,360,"1202 LARRAWAY DR, BUFFALO GROVE, IL, 60089","Match","Exact","1202 LARRAWAY DR, BUFFALO GROVE, IL, 60089",119649351,"L"
103861,"1202 LEGENDARY BLVD","CLERMONT","FL",34787,28.5070723440001,-81.739507186,361,"1202 LEGENDARY BLVD, CLERMONT, FL, 34787","Match","Non_Exact","1202 LEGENDARY BLVD, CLERMONT, FL, 34711",647536868,"L"
103862,"1202 LEMON ST","CORONA","CA",92879,33.8671564520001,-117.557424748,362,"1202 LEMON ST, CORONA, CA, 92879","Match","Exact","1202 LEMON ST, CORONA, CA, 92879",194778017,"R"
103863,"1202 LEMON STREET","CORONA","CA",92879,33.8671564520001,-117.557424748,363,"1202 LEMON STREET, CORONA, CA, 92879","Match","Exact","1202 LEMON ST, CORONA, CA, 92879",194778017,"R"
103864,"1202 LEXINGTON AVE 144","NEW YORK","NY",10028,40.776687506,-73.9576447539999,364,"1202 LEXINGTON AVE 144, NEW YORK, NY, 10028","Match","Exact","1202 LEXINGTON AVE, NEW YORK, NY, 10028",59658266,"L"
103865,"1202 LITTONWOOD DR","NASHVILLE","TN",37216,36.2274512170001,-86.71982029,365,"1202 LITTONWOOD DR, NASHVILLE, TN, 37216","Match","Exact","1202 LITTONWOOD DR, NASHVILLE, TN, 37216",97194118,"R"
103866,"1202 LOGAN ST UNIT 104","DENVER","CO",80203,39.735323991,-104.982292147,366,"1202 LOGAN ST UNIT 104, DENVER, CO, 80203","Match","Exact","1202 LOGAN ST, DENVER, CO, 80203",177305775,"R"
103867,"1202 LOMA DR 21","OJAI","CA",93023,34.4344910470001,-119.27995943,367,"1202 LOMA DR 21, OJAI, CA, 93023","Match","Exact","1202 LOMA DR, OJAI, CA, 93023",110037342,"R"
103868,"1202 MADISON AVE SW","WADENA","MN",56482,46.429549079,-95.1571360619999,368,"1202 MADISON AVE SW, WADENA, MN, 56482","Match","Exact","1202 MADISON AVE SW, WADENA, MN, 56482",168294182,"R"
103869,"1202 MADISON TER","GLENN HEIGHTS","TX",75154,32.5510648040001,-96.8303899589999,369,"1202 MADISON TER, GLENN HEIGHTS, TX, 75154","Match","Exact","1202 MADISON TER, GLENN HEIGHTS, TX, 75154",103278650,"L"
103870,"1202 MAIN ST APT 302","LITTLE ROCK","AR",72202,34.7372907810001,-92.272451749,370,"1202 MAIN ST APT 302, LITTLE ROCK, AR, 72202","Match","Exact","1202 MAIN ST, LITTLE ROCK, AR, 72202",83511501,"R"
103871,"1202 MAIN STREET","DARBY","PA",19023,39.922503799,-75.265135013,371,"1202 MAIN STREET, DARBY, PA, 19023","Match","Exact","1202 MAIN ST, DARBY, PA, 19023",134884853,"L"
103872,"1202 MARLYN ROAD","PHILADELPHIA","PA",19151,39.980106167,-75.250815415,372,"1202 MARLYN ROAD, PHILADELPHIA, PA, 19151","Match","Exact","1202 MARLYN RD, PHILADELPHIA, PA, 19151",131396935,"L"
103873,"1202 MAYWEATHER LANE","RICHMOND","TX",77406,29.613810325,-95.724874655,373,"1202 MAYWEATHER LANE, RICHMOND, TX, 77406","Match","Exact","1202 MAYWEATHER LN, RICHMOND, TX, 77406",78264799,"R"
103874,"1202 MERRY WATER DR","LUTZ","FL",33548,28.1225284650001,-82.484170185,374,"1202 MERRY WATER DR, LUTZ, FL, 33548","Match","Exact","1202 MERRY WATER DR, LUTZ, FL, 33548",629908049,"R"
103875,"1202 MERSAC CT","AUGUSTA","GA",30909,33.5101027950001,-82.020862005,375,"1202 MERSAC CT, AUGUSTA, GA, 30909","Match","Exact","1202 MERSAC CT, AUGUSTA, GA, 30909",55651487,"L"
103876,"1202 MILL RD","MT OLIVE","NC",28365,NA,NA,376,"1202 MILL RD, MT OLIVE, NC, 28365","No_Match",NA,NA,NA,NA
103877,"1202 MONTICELLO STREET","GREENSBORO","NC",27410,36.1015223570001,-79.869851201,377,"1202 MONTICELLO STREET, GREENSBORO, NC, 27410","Match","Exact","1202 MONTICELLO ST, GREENSBORO, NC, 27410",131027454,"R"
103878,"1202 MORENA BLVD STE 100","SAN DIEGO","CA",92110,32.7699281540001,-117.201582533,378,"1202 MORENA BLVD STE 100, SAN DIEGO, CA, 92110","Match","Exact","1202 MORENA BLVD, SAN DIEGO, CA, 92110",195304372,"L"
103879,"1202 MORENA BLVD SUITE 300","SAN DIEGO","CA",92110,32.7699281540001,-117.201582533,379,"1202 MORENA BLVD SUITE 300, SAN DIEGO, CA, 92110","Match","Exact","1202 MORENA BLVD, SAN DIEGO, CA, 92110",195304372,"L"
103880,"1202 MORNINGSIDE DRIVE","VALDOSTA","GA",31601,30.8249079550001,-83.2582801309999,380,"1202 MORNINGSIDE DRIVE, VALDOSTA, GA, 31601","Match","Exact","1202 MORNINGSIDE DR, VALDOSTA, GA, 31601",87718503,"L"
103881,"1202 MOSSRIDGE DR","MISSOURI CITY","TX",77489,29.5945375360001,-95.518398518,381,"1202 MOSSRIDGE DR, MISSOURI CITY, TX, 77489","Match","Exact","1202 MOSSRIDGE DR, MISSOURI CITY, TX, 77489",78297304,"L"
103882,"1202 N 10TH PL UNIT 1109","RENTON","WA",98057,NA,NA,382,"1202 N 10TH PL UNIT 1109, RENTON, WA, 98057","No_Match",NA,NA,NA,NA
103883,"1202 N 10TH PLACE APT 1317","RENTON","WA",98057,NA,NA,383,"1202 N 10TH PLACE APT 1317, RENTON, WA, 98057","No_Match",NA,NA,NA,NA
103884,"1202 N 1900 E","TERRETON","ID",83450,43.7991503040001,-112.319692434,384,"1202 N 1900 E, TERRETON, ID, 83450","Match","Exact","1202 N 1900 E, TERRETON, ID, 83450",119308720,"R"
103885,"1202 N 29TH ST","RENTON","WA",98056,47.5176842980001,-122.20332272,385,"1202 N 29TH ST, RENTON, WA, 98056","Match","Exact","1202 N 29TH ST, RENTON, WA, 98056",186609007,"L"
103886,"1202 N 3RD ST","PHOENIX","AZ",85004,33.461391464,-112.069370089,386,"1202 N 3RD ST, PHOENIX, AZ, 85004","Match","Exact","1202 N 3RD ST, PHOENIX, AZ, 85004",128919462,"L"
103887,"1202 N 6TH ST","ALPINE","TX",79830,30.3666020650001,-103.666693808,387,"1202 N 6TH ST, ALPINE, TX, 79830","Match","Exact","1202 N 6TH ST, ALPINE, TX, 79830",183976748,"R"
103888,"1202 N ATLANTIC AVENUE","SOUTHPORT","NC",28461,33.9346000360001,-78.022932805,388,"1202 N ATLANTIC AVENUE, SOUTHPORT, NC, 28461","Match","Exact","1202 N ATLANTIC AVE, SOUTHPORT, NC, 28461",613986470,"L"
103889,"1202 N CHELTEN AVE","PHILADELPHIA","PA",19126,40.0498995400001,-75.138574182,389,"1202 N CHELTEN AVE, PHILADELPHIA, PA, 19126","Match","Exact","1202 CHELTEN AVE, PHILADELPHIA, PA, 19126",131413982,"L"
103890,"1202 N CONCORD CT","GREENFIELD","IN",46140,39.8001456200001,-85.9496710019999,390,"1202 N CONCORD CT, GREENFIELD, IN, 46140","Match","Exact","1202 N CONCORD CT, GREENFIELD, IN, 46140",31080549,"R"
103891,"1202 N JACKS LAKE ROAD","CLERMONT","FL",34711,28.5575778950001,-81.7392630539999,391,"1202 N JACKS LAKE ROAD, CLERMONT, FL, 34711","Match","Exact","1202 N JACKS LAKE RD, CLERMONT, FL, 34711",649805703,"L"
103892,"1202 N NOLAN RIVER RD APT A","CLEBURNE","TX",76033,32.3563850190001,-97.423861233,392,"1202 N NOLAN RIVER RD APT A, CLEBURNE, TX, 76033","Match","Non_Exact","1202 N NOLAN RIVER RD, CLEBURNE, TX, 76033",103520945,"R"
103893,"1202 N OAK ST","LAKE CITY","MN",55041,44.456409701,-92.281373897,393,"1202 N OAK ST, LAKE CITY, MN, 55041","Match","Exact","1202 N OAK ST, LAKE CITY, MN, 55041",647218403,"R"
103894,"1202 N SHERMAN AVE","MADISON","WI",53704,43.1128106210001,-89.363805914,394,"1202 N SHERMAN AVE, MADISON, WI, 53704","Match","Exact","1202 N SHERMAN AVE, MADISON, WI, 53704",49530837,"L"
103895,"1202 N SHERRY AVE","TUCSON","AZ",85712,32.238096786,-110.882785979,395,"1202 N SHERRY AVE, TUCSON, AZ, 85712","Match","Exact","1202 N SHERRY AVE, TUCSON, AZ, 85712",121179818,"R"
103896,"1202 N YALE ST","CLEVELAND","MS",38732,33.733568747,-90.737340886,396,"1202 N YALE ST, CLEVELAND, MS, 38732","Match","Exact","1202 N YALE ST, CLEVELAND, MS, 38732",843446,"R"
103897,"1202 NE 185TH STREET","SHORELINE","WA",98155,47.7631394850001,-122.315516607,397,"1202 NE 185TH STREET, SHORELINE, WA, 98155","Match","Exact","1202 NE 185TH ST, SHORELINE, WA, 98155",186575729,"L"
103898,"1202 NEW HAVEN AVENUE","MILFORD","CT",6461,NA,NA,398,"1202 NEW HAVEN AVENUE, MILFORD, CT, 6461","No_Match",NA,NA,NA,NA
103899,"1202 NEWPORT TRAIL","EVANS","GA",30809,33.583642395,-82.138782912,399,"1202 NEWPORT TRAIL, EVANS, GA, 30809","Match","Exact","1202 NEWPORT TRL, EVANS, GA, 30809",55386882,"L"
103900,"1202 NORTH 13TH STREET","BEATRICE","NE",68310,40.2780212490001,-96.737250273,400,"1202 NORTH 13TH STREET, BEATRICE, NE, 68310","Match","Exact","1202 N 13TH ST, BEATRICE, NE, 68310",11614050,"R"
103901,"1202 NORTH ORCHARD STREET","TACOMA","WA",98406,47.260911563,-122.505223884,401,"1202 NORTH ORCHARD STREET, TACOMA, WA, 98406","Match","Exact","1202 N ORCHARD ST, TACOMA, WA, 98406",184644313,"L"
103902,"1202 NORTH STREET","CLEVELAND","MS",38732,33.7443402230001,-90.7071675239999,402,"1202 NORTH STREET, CLEVELAND, MS, 38732","Match","Exact","1202 NORTH ST, CLEVELAND, MS, 38732",851980,"R"
103903,"1202 NUWOOD DRIVE","BALTIMORE","MD",21228,39.2863164170001,-76.7637994099999,403,"1202 NUWOOD DRIVE, BALTIMORE, MD, 21228","Match","Exact","1202 NUWOOD DR, BALTIMORE, MD, 21228",191556199,"L"
103904,"1202 NUWOOD DRIVE","CATONSVILLE","MD",21218,39.2863164170001,-76.7637994099999,404,"1202 NUWOOD DRIVE, CATONSVILLE, MD, 21218","Match","Non_Exact","1202 NUWOOD DR, CATONSVILLE, MD, 21228",191556199,"L"
103905,"1202 NUWOOD DRIVE","CATONSVILLE","MD",21228,39.2863164170001,-76.7637994099999,405,"1202 NUWOOD DRIVE, CATONSVILLE, MD, 21228","Match","Exact","1202 NUWOOD DR, CATONSVILLE, MD, 21228",191556199,"L"
103906,"1202 NW 18TH AVE","FORT LAUDERDALE","FL",33311,26.1403347070001,-80.166763755,406,"1202 NW 18TH AVE, FORT LAUDERDALE, FL, 33311","Match","Exact","1202 NW 18TH AVE, FORT LAUDERDALE, FL, 33311",114720323,"R"
103907,"1202 OAKRIDGE DR","MCDONALD","PA",15057,40.3779053320001,-80.160717886,407,"1202 OAKRIDGE DR, MCDONALD, PA, 15057","Match","Non_Exact","1202 OAKRIDGE RD, MC DONALD, PA, 15057",51921967,"R"
103908,"1202 ORREN ST NE","WASHINGTON","DC",20002,38.9022340870001,-76.985986807,408,"1202 ORREN ST NE, WASHINGTON, DC, 20002","Match","Exact","1202 ORREN ST NE, WASHINGTON, DC, 20002",76230151,"L"
103909,"1202 P STREET NW APT B","WASHINGTON","DC",20005,38.9096422150001,-77.028159078,409,"1202 P STREET NW APT B, WASHINGTON, DC, 20005","Match","Exact","1202 P ST NW, WASHINGTON, DC, 20005",76226061,"L"
103910,"1202 PAINTED DESERT CT","ARLINGTON","TX",76001,32.640436021,-97.132314018,410,"1202 PAINTED DESERT CT, ARLINGTON, TX, 76001","Match","Exact","1202 PAINTED DESERT CT, ARLINGTON, TX, 76001",101948710,"L"
103911,"1202 PARK HILLS CT","LOUISVILLE","KY",40207,38.2352009160001,-85.6645582629999,411,"1202 PARK HILLS CT, LOUISVILLE, KY, 40207","Match","Exact","1202 PARK HILLS CT, LOUISVILLE, KY, 40207",96853644,"R"
103912,"1202 PARRILLA DE AVILA","TAMPA","FL",33620,28.107664292,-82.476450501,412,"1202 PARRILLA DE AVILA, TAMPA, FL, 33620","Match","Non_Exact","1202 PARRILLA DE AVILA, TAMPA, FL, 33613",104511170,"R"
103913,"1202 PINE AVE","ORANGE","TX",77630,30.094964906,-93.7412308,413,"1202 PINE AVE, ORANGE, TX, 77630","Match","Non_Exact","1202 W PINE AVE, ORANGE, TX, 77630",74009819,"R"
103914,"1202 PINE STREET","PELION","SC",29123,NA,NA,414,"1202 PINE STREET, PELION, SC, 29123","No_Match",NA,NA,NA,NA
103915,"1202 PRESSLEY DOWNS DR","CONCORD","NC",28025,35.3930857460001,-80.519230092,415,"1202 PRESSLEY DOWNS DR, CONCORD, NC, 28025","Match","Non_Exact","1202 PRESSLEY DOWNS DR SE, CONCORD, NC, 28025",24920672,"L"
103916,"1202 PRINCETON AVENUE","NATRONA HEIGHTS","PA",15065,40.624391744,-79.7250492219999,416,"1202 PRINCETON AVENUE, NATRONA HEIGHTS, PA, 15065","Match","Exact","1202 PRINCETON AVE, NATRONA HEIGHTS, PA, 15065",629861878,"L"
103917,"1202 RALEIGH COURT","MURFREESBORO","TN",37130,35.857405467,-86.359582673,417,"1202 RALEIGH COURT, MURFREESBORO, TN, 37130","Match","Exact","1202 RALEIGH CT, MURFREESBORO, TN, 37130",59016736,"R"
103918,"1202 REDMAN LANE","DUNCANVILLE","TX",75137,32.6455107420001,-96.9365230079999,418,"1202 REDMAN LANE, DUNCANVILLE, TX, 75137","Match","Exact","1202 REDMAN LN, DUNCANVILLE, TX, 75137",102941878,"L"
103919,"1202 REDROCK CIRCLE","ROYERSFORD","PA",19468,40.2135918910001,-75.5598654619999,419,"1202 REDROCK CIRCLE, ROYERSFORD, PA, 19468","Match","Non_Exact","1202 RED ROCK CIR, ROYERSFORD, PA, 19468",135128483,"R"
103920,"1202 RHODE ISLAND AVE","LYNN HAVEN","FL",32444,30.2406655230001,-85.6658300239999,420,"1202 RHODE ISLAND AVE, LYNN HAVEN, FL, 32444","Match","Exact","1202 RHODE ISLAND AVE, LYNN HAVEN, FL, 32444",647877086,"L"
103921,"1202 RHONDSTAT RUN","CEDAR PARK","TX",78613,30.4818557040001,-97.85865655,421,"1202 RHONDSTAT RUN, CEDAR PARK, TX, 78613","Match","Exact","1202 RHONDSTAT RUN, CEDAR PARK, TX, 78613",633894975,"L"
103922,"1202 RICHARDSON  DR SUITE 306","RICHARDSON","TX",75080,32.965695139,-96.727845196,422,"1202 RICHARDSON  DR SUITE 306, RICHARDSON, TX, 75080","Match","Exact","1202 RICHARDSON DR, RICHARDSON, TX, 75080",635288250,"R"
103923,"1202 RIDGEWOOD DR","RUSSELLVILLE","AR",72801,35.274734488,-93.160660179,423,"1202 RIDGEWOOD DR, RUSSELLVILLE, AR, 72801","Match","Exact","1202 RIDGEWOOD DR, RUSSELLVILLE, AR, 72801",81881195,"R"
103924,"1202 RIDGEWOOD DRIVE","RUSSELLVILLE","AR",72801,35.274734488,-93.160660179,424,"1202 RIDGEWOOD DRIVE, RUSSELLVILLE, AR, 72801","Match","Exact","1202 RIDGEWOOD DR, RUSSELLVILLE, AR, 72801",81881195,"R"
103925,"1202 ROBBINS ST","PHILADELPHIA","PA",19111,40.0400367070001,-75.081919592,425,"1202 ROBBINS ST, PHILADELPHIA, PA, 19111","Match","Exact","1202 ROBBINS ST, PHILADELPHIA, PA, 19111",131416004,"R"
103926,"1202 ROBERTS ST","NANTY GLO","PA",15943,40.471161355,-78.839575826,426,"1202 ROBERTS ST, NANTY GLO, PA, 15943","Match","Exact","1202 ROBERTS ST, NANTY GLO, PA, 15943",605243454,"R"
103927,"1202 ROUTE 134","DENNIS","MA",2638,NA,NA,427,"1202 ROUTE 134, DENNIS, MA, 2638","No_Match",NA,NA,NA,NA
103928,"1202 S 2910 E","SPANISH FORK","UT",84660,40.094346337,-111.60561492,428,"1202 S 2910 E, SPANISH FORK, UT, 84660","Match","Exact","1202 S 2910 E, SPANISH FORK, UT, 84660",639878360,"L"
103929,"1202 S 43RD","OMAHA","NE",68106,NA,NA,429,"1202 S 43RD, OMAHA, NE, 68106","No_Match",NA,NA,NA,NA
103930,"1202 S 4TH ST","CANADIAN","TX",79014,35.901758805,-100.387399887,430,"1202 S 4TH ST, CANADIAN, TX, 79014","Match","Exact","1202 S 4TH ST, CANADIAN, TX, 79014",186233733,"R"
103931,"1202 S CHIPMAN STREET","OWOSSO","MI",48867,42.986101143,-84.186702822,431,"1202 S CHIPMAN STREET, OWOSSO, MI, 48867","Match","Exact","1202 S CHIPMAN ST, OWOSSO, MI, 48867",23648105,"L"
103932,"1202 S FM 116 APT 1104","COPPERAS COVE","TX",76522,NA,NA,432,"1202 S FM 116 APT 1104, COPPERAS COVE, TX, 76522","No_Match",NA,NA,NA,NA
103933,"1202 S FRONT STREET","MARQUETTE","MI",49855,46.532989581,-87.396547324,433,"1202 S FRONT STREET, MARQUETTE, MI, 49855","Match","Exact","1202 S FRONT ST, MARQUETTE, MI, 49855",182074248,"L"
103934,"1202 S HUDSON AVE","LOS ANGELES","CA",90019,34.05269789,-118.33669669,434,"1202 S HUDSON AVE, LOS ANGELES, CA, 90019","Match","Exact","1202 S HUDSON AVE, LOS ANGELES, CA, 90019",141600472,"L"
103935,"1202 S KENWOOD AVE","BALTIMORE","MD",21224,39.2790987380001,-76.5767814829999,435,"1202 S KENWOOD AVE, BALTIMORE, MD, 21224","Match","Exact","1202 S KENWOOD AVE, BALTIMORE, MD, 21224",206425414,"R"
103936,"1202 S NAHALE STREET","LAHAINA","HI",96761,20.888007546,-156.681648649,436,"1202 S NAHALE STREET, LAHAINA, HI, 96761","Match","Exact","1202 NAHALE ST, LAHAINA, HI, 96761",85057741,"R"
103937,"1202 S ORANGE GROVE AVENUE","LOS ANGELES","CA",90019,34.054273901,-118.364376882,437,"1202 S ORANGE GROVE AVENUE, LOS ANGELES, CA, 90019","Match","Exact","1202 S ORANGE GROVE AVE, LOS ANGELES, CA, 90019",647492158,"L"
103938,"1202 S TYLER ST","TACOMA","WA",98405,47.2499750970001,-122.492954687,438,"1202 S TYLER ST, TACOMA, WA, 98405","Match","Exact","1202 S TYLER ST, TACOMA, WA, 98405",184673113,"R"
103939,"1202 S WASHINGTON STREET 104","ALEXANDRIA","VA",22314,NA,NA,439,"1202 S WASHINGTON STREET 104, ALEXANDRIA, VA, 22314","No_Match",NA,NA,NA,NA
103940,"1202 S WINDSOR ST","SALT LAKE CITY","UT",84105,40.74303503,-111.866757548,440,"1202 S WINDSOR ST, SALT LAKE CITY, UT, 84105","Match","Exact","1202 WINDSOR ST, SALT LAKE CITY, UT, 84105",176080341,"R"
103941,"1202 S WINDSOR","SLC","UT",84105,40.74303503,-111.866757548,441,"1202 S WINDSOR, SLC, UT, 84105","Match","Non_Exact","1202 WINDSOR ST, SLC, UT, 84105",176080341,"R"
103942,"1202 SAUGUS COURT","GREAT FALLS","VA",22066,38.9637341270001,-77.280071764,442,"1202 SAUGUS COURT, GREAT FALLS, VA, 22066","Match","Exact","1202 SAUGUS CT, GREAT FALLS, VA, 22066",76001849,"L"
103943,"1202 SAUGUS CT","GREAT FALLS","VA",22016,38.9637341270001,-77.280071764,443,"1202 SAUGUS CT, GREAT FALLS, VA, 22016","Match","Non_Exact","1202 SAUGUS CT, GREAT FALLS, VA, 22066",76001849,"L"
103944,"1202 SAWTOOTH OAK CT","FORT COLLINS","CO",80525,40.516144841,-105.056386843,444,"1202 SAWTOOTH OAK CT, FORT COLLINS, CO, 80525","Match","Exact","1202 SAWTOOTH OAK CT, FORT COLLINS, CO, 80525",188505037,"R"
103945,"1202 SCHOOL ROAD","TOMAHAWK","WI",54487,45.47303206,-89.710978644,445,"1202 SCHOOL ROAD, TOMAHAWK, WI, 54487","Match","Exact","1202 SCHOOL RD, TOMAHAWK, WI, 54487",201777802,"R"
103946,"1202 SCOTT DRIVE","CARL JUNCTION","MO",64834,37.1783536180001,-94.548617322,446,"1202 SCOTT DRIVE, CARL JUNCTION, MO, 64834","Match","Exact","1202 SCOTT DR, CARL JUNCTION, MO, 64834",66145506,"R"
103947,"1202 SEAGLER","HOUSTON","TX",77042,29.751226955,-95.553421642,447,"1202 SEAGLER, HOUSTON, TX, 77042","Match","Non_Exact","1202 SEAGLER RD, HOUSTON, TX, 77042",96624226,"R"
103948,"1202 SHANNON LN","LONGVIEW","TX",75604,32.5300593960001,-94.765897006,448,"1202 SHANNON LN, LONGVIEW, TX, 75604","Match","Exact","1202 SHANNON LN, LONGVIEW, TX, 75604",141120389,"L"
103949,"1202 SHARPSHIRE DR","WAXAHACHIE","TX",75165,NA,NA,449,"1202 SHARPSHIRE DR, WAXAHACHIE, TX, 75165","Tie",NA,NA,NA,NA
103950,"1202 SLATER ROAD","BALTIMORE","MD",21225,39.2489942290001,-76.632031759,450,"1202 SLATER ROAD, BALTIMORE, MD, 21225","Match","Exact","1202 SLATER RD, BALTIMORE, MD, 21225",206422499,"R"
103951,"1202 SOURH LONS ST","BROWNFIELD","TX",79316,NA,NA,451,"1202 SOURH LONS ST, BROWNFIELD, TX, 79316","No_Match",NA,NA,NA,NA
103952,"1202 SOUTH 23RD STREET - APT 309","PHILADELPHIA","PA",19146,39.937997518,-75.1818610079999,452,"1202 SOUTH 23RD STREET - APT 309, PHILADELPHIA, PA, 19146","Match","Exact","1202 S 23RD ST, PHILADELPHIA, PA, 19146",131407018,"R"
103953,"1202 SOUTH BOYLE","ST. LOUIS","MO",63110,38.6263518590001,-90.253961319,453,"1202 SOUTH BOYLE, ST. LOUIS, MO, 63110","Match","Non_Exact","1202 S BOYLE AVE, SAINT LOUIS, MO, 63110",605118448,"L"
103954,"1202 SOUTH CLINTON ST","BALTIMORE","MD",21224,39.2793135270001,-76.5695264949999,454,"1202 SOUTH CLINTON ST, BALTIMORE, MD, 21224","Match","Exact","1202 S CLINTON ST, BALTIMORE, MD, 21224",206425529,"R"
103955,"1202 SOUTH KINGS DRIVE","CHARLOTTE","NC",28207,35.1998697160001,-80.836350372,455,"1202 SOUTH KINGS DRIVE, CHARLOTTE, NC, 28207","Match","Exact","1202 S KINGS DR, CHARLOTTE, NC, 28207",70488062,"R"
103956,"1202 SOUTH MAIN STREET","HANOVER TWP.","PA",18706,41.2282358520001,-75.91491402,456,"1202 SOUTH MAIN STREET, HANOVER TWP., PA, 18706","Match","Exact","1202 S MAIN ST, HANOVER TOWNSHIP, PA, 18706",80913606,"L"
103957,"1202 SOUTH SIXTH STREET","LOUISVILLE","KY",40203,38.2352009480001,-85.7636724449999,457,"1202 SOUTH SIXTH STREET, LOUISVILLE, KY, 40203","Match","Exact","1202 S 6TH ST, LOUISVILLE, KY, 40203",618513601,"R"
103958,"1202 SOUTHWEST AVE","JOHNSON CITY","TN",37604,36.3047140100001,-82.3595575969999,458,"1202 SOUTHWEST AVE, JOHNSON CITY, TN, 37604","Match","Exact","1202 SOUTHWEST AVE, JOHNSON CITY, TN, 37604",127923803,"R"
103959,"1202 SOVEREIGN DRIVE","LOVELAND","OH",45140,39.216076156,-84.220832695,459,"1202 SOVEREIGN DRIVE, LOVELAND, OH, 45140","Match","Exact","1202 SOVEREIGN DR, LOVELAND, OH, 45140",118462203,"L"
103960,"1202 SPEAR DR","NORMAL","IL",61761,40.5067966290001,-88.969860124,460,"1202 SPEAR DR, NORMAL, IL, 61761","Match","Exact","1202 SPEAR DR, NORMAL, IL, 61761",20590549,"L"
103961,"1202 ST ANN DR","ERIE","PA",16509,42.0735360460001,-80.080941875,461,"1202 ST ANN DR, ERIE, PA, 16509","Match","Exact","1202 SAINT ANN DR, ERIE, PA, 16509",117496383,"R"
103962,"1202 ST ANNE AVE","LAKE CHARLES","LA",70601,30.2097037710001,-93.2409471079999,462,"1202 ST ANNE AVE, LAKE CHARLES, LA, 70601","Match","Exact","1202 ST ANNE AVE, LAKE CHARLES, LA, 70601",646608801,"R"
103963,"1202 STAINBACK AVENUE","NASHVILLE","TN",37207,36.1920519220001,-86.7648535289999,463,"1202 STAINBACK AVENUE, NASHVILLE, TN, 37207","Match","Exact","1202 STAINBACK AVE, NASHVILLE, TN, 37207",649554088,"L"
103964,"1202 STATE STREET","ERIE","PA",16501,42.123399836,-80.08121326,464,"1202 STATE STREET, ERIE, PA, 16501","Match","Exact","1202 STATE ST, ERIE, PA, 16501",117494404,"R"
103965,"1202 STEPHENS STREET","LILBURN","GA",30047,33.8525345040001,-84.106785697,465,"1202 STEPHENS STREET, LILBURN, GA, 30047","Match","Non_Exact","1202 STEPHENS ST SW, LILBURN, GA, 30047",88887468,"L"
103966,"1202 STONE ST","JACKSONVILLE","AR",72076,34.861344075,-92.122737542,466,"1202 STONE ST, JACKSONVILLE, AR, 72076","Match","Exact","1202 STONE ST, JACKSONVILLE, AR, 72076",83519182,"L"
103967,"1202 STONE ST","SANDUSKY","OH",44870,41.4455314260001,-82.71666139,467,"1202 STONE ST, SANDUSKY, OH, 44870","Match","Exact","1202 STONE ST, SANDUSKY, OH, 44870",55324757,"R"
103968,"1202 SUNRIDGE DRIVE","ST. CLOUD","MN",56301,45.520434053,-94.162495034,468,"1202 SUNRIDGE DRIVE, ST. CLOUD, MN, 56301","Match","Exact","1202 SUNRIDGE DR, SAINT CLOUD, MN, 56301",107438384,"L"
103969,"1202 SUSIE RD","ST STEPHEN","SC",29479,33.362549426,-79.84272237,469,"1202 SUSIE RD, ST STEPHEN, SC, 29479","Match","Exact","1202 SUSIE RD, SAINT STEPHEN, SC, 29479",100740353,"R"
103970,"1202 SW 75TH DRIVE","GAINESVILLE","FL",32607,29.6409146990001,-82.423073758,470,"1202 SW 75TH DRIVE, GAINESVILLE, FL, 32607","Match","Exact","1202 SW 75TH DR, GAINESVILLE, FL, 32607",6843610,"L"
103971,"1202 SYCAMORE RD","NASHVILLE","TN",37204,36.1289936800001,-86.769050471,471,"1202 SYCAMORE RD, NASHVILLE, TN, 37204","Match","Exact","1202 SYCAMORE RD, NASHVILLE, TN, 37204",97191999,"R"
103972,"1202 THAYER DR","RICHLAND","WA",99354,46.284311534,-119.290123632,472,"1202 THAYER DR, RICHLAND, WA, 99354","Match","Exact","1202 THAYER DR, RICHLAND, WA, 99354",174986941,"R"
103973,"1202 TRAVIS LANE","CARTERVILLE","IL",62918,37.7519701190001,-89.054467946,473,"1202 TRAVIS LANE, CARTERVILLE, IL, 62918","Match","Exact","1202 TRAVIS LN, CARTERVILLE, IL, 62918",630343024,"R"
103974,"1202 TYLER RD","WOODBINE","NJ",8270,39.2222434340001,-74.825047118,474,"1202 TYLER RD, WOODBINE, NJ, 8270","Match","Exact","1202 TYLER RD, WOODBINE, NJ, 08270",647440340,"L"
103975,"1202 VAN KIRK ST","PHILADELPHIA","PA",19149,40.035083394,-75.0866917819999,475,"1202 VAN KIRK ST, PHILADELPHIA, PA, 19149","Match","Exact","1202 VAN KIRK ST, PHILADELPHIA, PA, 19149",131426783,"R"
103976,"1202 VANCE STREET","TOLEDO","OH",43607,41.6469834110001,-83.572967118,476,"1202 VANCE STREET, TOLEDO, OH, 43607","Match","Exact","1202 VANCE ST, TOLEDO, OH, 43607",33938735,"R"
103977,"1202 VINA VISTA","COLD SPRINGS","KS",41076,NA,NA,477,"1202 VINA VISTA, COLD SPRINGS, KS, 41076","No_Match",NA,NA,NA,NA
103978,"1202 W 13TH STREET","ROCHESTER","IN",46975,41.0614297560001,-86.233407316,478,"1202 W 13TH STREET, ROCHESTER, IN, 46975","Match","Exact","1202 W 13TH ST, ROCHESTER, IN, 46975",7848752,"R"
103979,"1202 W 19TH STREET","UPLAND","CA",91784,34.13235181,-117.670493207,479,"1202 W 19TH STREET, UPLAND, CA, 91784","Match","Exact","1202 W 19TH ST, UPLAND, CA, 91784",144669266,"L"
103980,"1202 W 200 N C310","CENTERVILLE","UT",84014,40.9189562810001,-111.894321063,480,"1202 W 200 N C310, CENTERVILLE, UT, 84014","Match","Non_Exact","1202 W 200 N, CENTERVILLE, UT, 84014",229337729,"R"
103981,"1202 W 24TH","HOUSTON","TX",77008,29.8077358040001,-95.419764451,481,"1202 W 24TH, HOUSTON, TX, 77008","Match","Non_Exact","1202 W 24TH ST, HOUSTON, TX, 77008",649883821,"L"
103982,"1202 W 29TH STREET","INDIANAPOLIS","IN",46208,39.8082407580001,-86.1830265899999,482,"1202 W 29TH STREET, INDIANAPOLIS, IN, 46208","Match","Exact","1202 W 29TH ST, INDIANAPOLIS, IN, 46208",107986583,"R"
103983,"1202 W BRADLEY CT","EXETER","CA",93221,36.3410724330001,-119.281945475,483,"1202 W BRADLEY CT, EXETER, CA, 93221","Match","Exact","1202 BRADLEY CT, EXETER, CA, 93221",202818849,"L"
103984,"1202 W BROAD ST","FREEPORT","TX",77541,28.9535260420001,-95.361706896,484,"1202 W BROAD ST, FREEPORT, TX, 77541","Match","Exact","1202 W BROAD ST, FREEPORT, TX, 77541",116582397,"L"
103985,"1202 W CIVIC CENTER DR STE 101","SANTA ANA","CA",92703,33.7515076820001,-117.882919338,485,"1202 W CIVIC CENTER DR STE 101, SANTA ANA, CA, 92703","Match","Non_Exact","1202 CIVIC CENTER DR W, SANTA ANA, CA, 92703",144041628,"L"
103986,"1202 W HOLT AVENUE","HARRISON","AR",72601,NA,NA,486,"1202 W HOLT AVENUE, HARRISON, AR, 72601","Tie",NA,NA,NA,NA
103987,"1202 W MAPLE","WICHITA","KS",67213,37.6805364430001,-97.3542578399999,487,"1202 W MAPLE, WICHITA, KS, 67213","Match","Non_Exact","1202 W MAPLE ST, WICHITA, KS, 67213",115644650,"R"
103988,"1202 W ORAIBI DR","PHOENIX","AZ",85027,33.663391684,-112.086567269,488,"1202 W ORAIBI DR, PHOENIX, AZ, 85027","Match","Exact","1202 W ORAIBI DR, PHOENIX, AZ, 85027",128180342,"L"
103989,"1202 W ROSE MARIE LN","PHOENIX","AZ",85023,33.652251156,-112.088419324,489,"1202 W ROSE MARIE LN, PHOENIX, AZ, 85023","Match","Exact","1202 W ROSE MARIE LN, PHOENIX, AZ, 85023",128590986,"R"
103990,"1202 W WALNUT STREET","PRESCOTT","AR",71857,33.8083923250001,-93.383382559,490,"1202 W WALNUT STREET, PRESCOTT, AR, 71857","Match","Exact","1202 W WALNUT ST, PRESCOTT, AR, 71857",10259194,"R"
103991,"1202 W WAVELAND AVE APT 3","CHICAGO","IL",60613,41.9489697130001,-87.659432791,491,"1202 W WAVELAND AVE APT 3, CHICAGO, IL, 60613","Match","Non_Exact","1202 W WAVELAND AVE, CHICAGO, IL, 60613",605238034,"R"
103992,"1202 WALNUT AVE  APT  3","GRAND JUNCTION","CO",96768,39.0864237060001,-108.552137861,492,"1202 WALNUT AVE  APT  3, GRAND JUNCTION, CO, 96768","Match","Non_Exact","1202 WALNUT AVE, GRAND JCT, CO, 81501",122432558,"L"
103993,"1202 WAUKEGAN RD UNIT 403","GLENVIEW","IL",60025,42.076373333,-87.798651453,493,"1202 WAUKEGAN RD UNIT 403, GLENVIEW, IL, 60025","Match","Exact","1202 WAUKEGAN RD, GLENVIEW, IL, 60025",111734090,"L"
103994,"1202 WAVERLY DR","CHAMPAIGN","IL",61821,40.1031360050001,-88.2689183969999,494,"1202 WAVERLY DR, CHAMPAIGN, IL, 61821","Match","Exact","1202 WAVERLY DR, CHAMPAIGN, IL, 61821",8809355,"L"
103995,"1202 WELLBROOK PLACE","CONYERS","GA",30012,33.676544961,-84.0043160009999,495,"1202 WELLBROOK PLACE, CONYERS, GA, 30012","Match","Exact","1202 WELLBROOK PL, CONYERS, GA, 30012",23753019,"L"
103996,"1202 WELLES COURT","O'FALLON","IL",62269,38.6108388690001,-89.926143246,496,"1202 WELLES COURT, O'FALLON, IL, 62269","Match","Non_Exact","1202 WELLES CT, O FALLON, IL, 62269",107884984,"R"
103997,"1202 WELLINGTON HILLS CIRCLE","SALISBURY","NC",28147,35.698698171,-80.508544453,497,"1202 WELLINGTON HILLS CIRCLE, SALISBURY, NC, 28147","Match","Exact","1202 WELLINGTON HILLS CIR, SALISBURY, NC, 28147",25284736,"R"
103998,"1202 WELLSLEY COURT","LOWER GWYNEDD","PA",19002,40.1913132110001,-75.2208808999999,498,"1202 WELLSLEY COURT, LOWER GWYNEDD, PA, 19002","Match","Exact","1202 WELLSLEY CT, LOWER GWYNEDD, PA, 19002",135121917,"L"
103999,"1202 WEST 33RD PLACE","CHICAGO","IL",60608,41.8338438820001,-87.658359391,499,"1202 WEST 33RD PLACE, CHICAGO, IL, 60608","Match","Exact","1202 W 33RD PL, CHICAGO, IL, 60608",618344995,"L"
104000,"1202 WEST ASH STREET","SPRINGFIELD","IL",62704,39.7788564700001,-89.671451243,500,"1202 WEST ASH STREET, SPRINGFIELD, IL, 62704","Match","Exact","1202 W ASH ST, SPRINGFIELD, IL, 62704",97323948,"L"
