"ID","Address","City","State","Zip","lat","long","id","input_address","match_indicator","match_type","matched_address","tiger_line_id","tiger_side"
721501,"55 CASSON DR","SPANISH FORT","AL",36527,30.6772147840001,-87.9100419709999,1,"55 CASSON DR, SPANISH FORT, AL, 36527","Match","Non_Exact","55 CAISSON TRCE, SPANISH FORT, AL, 36527",131686116,"R"
721502,"55 CASTLE ROCK TRAIL","SEDONA","AZ",86336,34.8371539450001,-111.779911959,2,"55 CASTLE ROCK TRAIL, SEDONA, AZ, 86336","Match","Exact","55 CASTLE ROCK TRL, SEDONA, AZ, 86336",159474086,"L"
721503,"55 CAVENDISH DRIVE","AMBLER","PA",19002,40.1613236530001,-75.210454015,3,"55 CAVENDISH DRIVE, AMBLER, PA, 19002","Match","Exact","55 CAVENDISH DR, AMBLER, PA, 19002",135078212,"L"
721504,"55 CEDAR DRIVE","ROSLYN","NY",11576,40.7994229070001,-73.6247043659999,4,"55 CEDAR DRIVE, ROSLYN, NY, 11576","Match","Exact","55 CEDAR DR, ROSLYN, NY, 11576",147691956,"L"
721505,"55 CEDAR ST","EAST HANOVER","NJ",7936,40.8284830960001,-74.349570549,5,"55 CEDAR ST, EAST HANOVER, NJ, 7936","Match","Exact","55 CEDAR ST, EAST HANOVER, NJ, 07936",60452339,"R"
721506,"55 CEDARVIEW DR","WHEELING","WV",26003,40.0318202230001,-80.657143707,6,"55 CEDARVIEW DR, WHEELING, WV, 26003","Match","Exact","55 CEDARVIEW DR, WHEELING, WV, 26003",38095943,"L"
721507,"55 CENTER AVE","NORWALK","CT",6851,41.1284244220001,-73.418217958,7,"55 CENTER AVE, NORWALK, CT, 6851","Match","Exact","55 CENTER AVE, NORWALK, CT, 06851",3261499,"L"
721508,"55 CENTER STREET","WESTPORT","CT",6880,41.1298370210001,-73.330022239,8,"55 CENTER STREET, WESTPORT, CT, 6880","Match","Exact","55 CENTER ST, WESTPORT, CT, 06880",3238915,"L"
721509,"55 CENTRAL AVE","TENAFLY","NJ",7670,40.9288487480001,-73.965317791,9,"55 CENTRAL AVE, TENAFLY, NJ, 7670","Match","Exact","55 CENTRAL AVE, TENAFLY, NJ, 07670",64374227,"R"
721510,"55 CENTRE TERRACE","ROCHESTER","NY",14617,43.252622398,-77.600932684,10,"55 CENTRE TERRACE, ROCHESTER, NY, 14617","Match","Exact","55 CENTRE TER, ROCHESTER, NY, 14617",14535689,"L"
721511,"55 CHANNING AVENUE","PORTSMOUTH","VA",23702,36.799440874,-76.317146658,11,"55 CHANNING AVENUE, PORTSMOUTH, VA, 23702","Match","Exact","55 CHANNING AVE, PORTSMOUTH, VA, 23702",122195794,"L"
721512,"55 CHAPEL ST","NEWTON","MA",2458,42.3632534010001,-71.201444086,12,"55 CHAPEL ST, NEWTON, MA, 2458","Match","Exact","55 CHAPEL ST, NEWTON, MA, 02458",87107339,"R"
721513,"55 CHAPMAN STREET","DRACUT","MA",1826,42.6723119490001,-71.3036875779999,13,"55 CHAPMAN STREET, DRACUT, MA, 1826","Match","Exact","55 CHAPMAN ST, DRACUT, MA, 01826",635529994,"R"
721514,"55 CHARLES BANCROFT HWY","LITCHFIELD","NH",3052,42.8075635230001,-71.4598668579999,14,"55 CHARLES BANCROFT HWY, LITCHFIELD, NH, 3052","Match","Exact","55 CHARLES BANCROFT HWY, LITCHFIELD, NH, 03052",627110621,"L"
721515,"55 CHARTER GATE DR","FREDERICKSBURG","VA",22406,38.3533414660001,-77.552323767,15,"55 CHARTER GATE DR, FREDERICKSBURG, VA, 22406","Match","Exact","55 CHARTER GATE DR, FREDERICKSBURG, VA, 22406",640916383,"L"
721516,"55 CHARTERHOUSE STREET","LONDON",NA,NA,NA,NA,16,"55 CHARTERHOUSE STREET, LONDON, , ","No_Match",NA,NA,NA,NA
721517,"55 CHEMBERLINE CT","MONMOUTH JN","NJ",8852,NA,NA,17,"55 CHEMBERLINE CT, MONMOUTH JN, NJ, 8852","No_Match",NA,NA,NA,NA
721518,"55 CHESTNUT STREET 1 FL","BINGHAMTON","NY",13905,42.0966225240001,-75.926803842,18,"55 CHESTNUT STREET 1 FL, BINGHAMTON, NY, 13905","Match","Exact","55 CHESTNUT ST, BINGHAMTON, NY, 13905",46342291,"L"
721519,"55 CHESTNUT STREET","UXBRIDGE","MA",1569,42.039014507,-71.639149178,19,"55 CHESTNUT STREET, UXBRIDGE, MA, 1569","Match","Exact","55 CHESTNUT ST, UXBRIDGE, MA, 01569",647974988,"R"
721520,"55 CHIPPERFIELD COURT","STATEN ISLAND","NY",10301,40.6044775030001,-74.109392602,20,"55 CHIPPERFIELD COURT, STATEN ISLAND, NY, 10301","Match","Exact","55 CHIPPERFIELD CT, STATEN ISLAND, NY, 10301",637616327,"L"
721521,"55 CHRISTIANS DRIVE","HANOVER","PA",17331,39.7535106440001,-76.962467649,21,"55 CHRISTIANS DRIVE, HANOVER, PA, 17331","Match","Exact","55 CHRISTIANS DR, HANOVER, PA, 17331",613694683,"R"
721522,"55 CHUMASERO DRIVE  APT 4","SAN FRANCISCO","CA",94132,37.7136105960001,-122.473119404,22,"55 CHUMASERO DRIVE  APT 4, SAN FRANCISCO, CA, 94132","Match","Exact","55 CHUMASERO DR, SAN FRANCISCO, CA, 94132",192278796,"L"
721523,"55 CHURCHILL STREET","SUDBURY","MA",1776,42.3871820640001,-71.4335002179999,23,"55 CHURCHILL STREET, SUDBURY, MA, 1776","Match","Exact","55 CHURCHILL ST, SUDBURY, MA, 01776",87088058,"R"
721524,"55 CLARK AVE UNIT 2","CHELSEA","MA",2150,42.397303982,-71.027660322,24,"55 CLARK AVE UNIT 2, CHELSEA, MA, 2150","Match","Exact","55 CLARK AVE, CHELSEA, MA, 02150",85707244,"R"
721525,"55 CLARK STREET","BROOKLYN","NY",11201,40.6977741040001,-73.994153408,25,"55 CLARK STREET, BROOKLYN, NY, 11201","Match","Exact","55 CLARK ST, BROOKLYN, NY, 11201",59074922,"L"
721526,"55 CLAYTON LANE","CHARLESTOWN","NH",3603,43.2910307270001,-72.387994143,26,"55 CLAYTON LANE, CHARLESTOWN, NH, 3603","Match","Exact","55 CLAYTON LN, CHARLESTOWN, NH, 03603",625027985,"R"
721527,"55 CLINTON PLACE APT 203","HACKENSACK","NJ",7601,40.895104689,-74.041767606,27,"55 CLINTON PLACE APT 203, HACKENSACK, NJ, 7601","Match","Exact","55 CLINTON PL, HACKENSACK, NJ, 07601",64434402,"L"
721528,"55 CLUBVIEW DRIVE","HARTFORD CITY","IN",47348,40.4447163360001,-85.384261172,28,"55 CLUBVIEW DRIVE, HARTFORD CITY, IN, 47348","Match","Exact","55 CLUBVIEW DR, HARTFORD CITY, IN, 47348",645902214,"L"
721529,"55 COBB ROAD","WRENTHEM","MA",2931,NA,NA,29,"55 COBB ROAD, WRENTHEM, MA, 2931","No_Match",NA,NA,NA,NA
721530,"55 COE DRIVE","DURHAM","NH",3824,43.138978153,-70.919477285,30,"55 COE DRIVE, DURHAM, NH, 3824","Match","Exact","55 COE DR, DURHAM, NH, 03824",117805843,"L"
721531,"55 COLBY ST","NEEDHAM","MA",2492,42.28731076,-71.217925744,31,"55 COLBY ST, NEEDHAM, MA, 2492","Match","Exact","55 COLBY ST, NEEDHAM, MA, 02492",87242452,"R"
721532,"55 COLCHESTER AVE","BURLINGTON","VT",5405,NA,NA,32,"55 COLCHESTER AVE, BURLINGTON, VT, 5405","No_Match",NA,NA,NA,NA
721533,"55 COMMERCIAL AVE","NEW BRUNSWICK","NJ",8901,40.487900951,-74.439233886,33,"55 COMMERCIAL AVE, NEW BRUNSWICK, NJ, 8901","Match","Exact","55 COMMERCIAL AVE, NEW BRUNSWICK, NJ, 08901",647258125,"R"
721534,"55 CONSTANCE LN","NORTHBROOK","IL",60062,42.1516981720001,-87.881260966,34,"55 CONSTANCE LN, NORTHBROOK, IL, 60062","Match","Exact","55 CONSTANCE LN, NORTHBROOK, IL, 60062",640605321,"R"
721535,"55 CONSTITUTION DRIVE","BEDFORD","NH",3110,42.95622581,-71.500729361,35,"55 CONSTITUTION DRIVE, BEDFORD, NH, 3110","Match","Exact","55 CONSTITUTION DR, BEDFORD, NH, 03110",113558830,"R"
721536,"55 COOPER STREET 6D","NEW YORK","NY",10034,40.8680242720001,-73.923030951,36,"55 COOPER STREET 6D, NEW YORK, NY, 10034","Match","Exact","55 COOPER ST, NEW YORK, NY, 10034",59658857,"R"
721537,"55 COPPER ROSE CT","STEAMBOAT SPRINGS","CO",80487,40.481909419,-106.806578837,37,"55 COPPER ROSE CT, STEAMBOAT SPRINGS, CO, 80487","Match","Exact","55 COPPER ROSE CT, STEAMBOAT SPRINGS, CO, 80487",105999204,"L"
721538,"55 CORINTH MOUNTAIN RD","WILTON","NY",12831,43.189981108,-73.7529427699999,38,"55 CORINTH MOUNTAIN RD, WILTON, NY, 12831","Match","Exact","55 CORINTH MOUNTAIN RD, WILTON, NY, 12831",624571931,"L"
721539,"55 CORPORATE DRIVE","BRIDGEWATER","NJ",8807,40.63988914,-74.6379580179999,39,"55 CORPORATE DRIVE, BRIDGEWATER, NJ, 8807","Match","Exact","55 CORPORATE DR, BRIDGEWATER, NJ, 08807",59999328,"L"
721540,"55 COUNTY ROAD","WINDSOR","VT",5089,NA,NA,40,"55 COUNTY ROAD, WINDSOR, VT, 5089","No_Match",NA,NA,NA,NA
721541,"55 COVE CIRCLE","BROWNSVILLE","TX",78521,25.9407379250001,-97.489149287,41,"55 COVE CIRCLE, BROWNSVILLE, TX, 78521","Match","Exact","55 COVE CIR, BROWNSVILLE, TX, 78521",89964609,"L"
721542,"55 COVERED BRIDGE ROAD","PEQUEA","PA",17565,39.9285202930001,-76.29645034,42,"55 COVERED BRIDGE ROAD, PEQUEA, PA, 17565","Match","Exact","55 COVERED BRIDGE RD, PEQUEA, PA, 17565",641533684,"L"
721543,"55 CRAMER PL","MARTINSVILLE","IN",46151,39.43553454,-86.4001415669999,43,"55 CRAMER PL, MARTINSVILLE, IN, 46151","Match","Exact","55 CRAMER PL, MARTINSVILLE, IN, 46151",43545735,"R"
721544,"55 CRANE AVE","MAYNARD","MA",10754,42.4322430460001,-71.4438663889999,44,"55 CRANE AVE, MAYNARD, MA, 10754","Match","Non_Exact","55 CRANE AVE, MAYNARD, MA, 01754",86843428,"R"
721545,"55 CREEK BANK COURT","ACWORTH","GA",30101,34.0542768380001,-84.773275056,45,"55 CREEK BANK COURT, ACWORTH, GA, 30101","Match","Exact","55 CREEK BANK CT, ACWORTH, GA, 30101",17750019,"L"
721546,"55 CRESCENT AVE","CLIFFSIDE PARK","NJ",7010,40.8231120570001,-73.981906196,46,"55 CRESCENT AVE, CLIFFSIDE PARK, NJ, 7010","Match","Exact","55 CRESCENT AVE, CLIFFSIDE PARK, NJ, 07010",64391527,"R"
721547,"55 CREST PLACE","GADSDEN","AL",35901,33.938851087,-85.966718992,47,"55 CREST PLACE, GADSDEN, AL, 35901","Match","Exact","55 CREST PL, GADSDEN, AL, 35901",66781050,"L"
721548,"55 CRESTVIEW LANE","MONTECITO","CA",93108,34.4397780640001,-119.668585808,48,"55 CRESTVIEW LANE, MONTECITO, CA, 93108","Match","Exact","55 CRESTVIEW LN, MONTECITO, CA, 93108",108611456,"R"
721549,"55 CRICKET LANE","TURNERSVILLE","NJ",8012,39.7507770060001,-75.061707726,49,"55 CRICKET LANE, TURNERSVILLE, NJ, 8012","Match","Exact","55 CRICKET LN, TURNERSVILLE, NJ, 08012",134596648,"R"
721550,"55 CROSBY STREET APT 3","NEW YORK","NY",10012,40.721975274,-73.9985509369999,50,"55 CROSBY STREET APT 3, NEW YORK, NY, 10012","Match","Exact","55 CROSBY ST, NEW YORK, NY, 10012",642471904,"R"
721551,"55 CROWELL RD","EAST FALMOUTH","MA",2536,41.569077312,-70.558400048,51,"55 CROWELL RD, EAST FALMOUTH, MA, 2536","Match","Exact","55 CROWELL RD, EAST FALMOUTH, MA, 02536",625139652,"L"
721552,"55 CULLEN AVENUE","WEST HAVEN","CT",6516,41.299745526,-72.965453875,52,"55 CULLEN AVENUE, WEST HAVEN, CT, 6516","Match","Exact","55 CULLEN AVE, W HAVEN, CT, 06516",624482969,"R"
721553,"55 DANA STREET","CAMBRIDGE","MA",2139,NA,NA,53,"55 DANA STREET, CAMBRIDGE, MA, 2139","No_Match",NA,NA,NA,NA
721554,"55 DANIEL STREET","CLOUDCROFT","NM",88317,32.894182916,-105.722967849,54,"55 DANIEL STREET, CLOUDCROFT, NM, 88317","Match","Exact","55 DANIEL ST, CLOUDCROFT, NM, 88317",132327001,"L"
721555,"55 DEEPDALE DR","GREAT NECK","NY",11021,40.7903516220001,-73.7401125219999,55,"55 DEEPDALE DR, GREAT NECK, NY, 11021","Match","Exact","55 DEEPDALE DR, GREAT NECK, NY, 11021",147655962,"R"
721556,"55 DEERWOOD CT","LAKE JACKSON","TX",77566,29.0686830400001,-95.449529159,56,"55 DEERWOOD CT, LAKE JACKSON, TX, 77566","Match","Exact","55 DEERWOOD CT, LAKE JACKSON, TX, 77566",614083357,"L"
721557,"55 DELMONT DRIVE APT A2","ATLANTA","GA",30305,33.833502535,-84.3812460239999,57,"55 DELMONT DRIVE APT A2, ATLANTA, GA, 30305","Match","Non_Exact","55 DELMONT DR NE, ATLANTA, GA, 30305",17335425,"R"
721558,"55 DENALI DR","STAFFORD","VA",22554,38.4862502550001,-77.380980028,58,"55 DENALI DR, STAFFORD, VA, 22554","Match","Exact","55 DENALI DR, STAFFORD, VA, 22554",228324284,"L"
721559,"55 DENNIS KNIGHT ROAD","COLLINS","MS",39428,31.6521327930001,-89.505740951,59,"55 DENNIS KNIGHT ROAD, COLLINS, MS, 39428","Match","Exact","55 DENNIS KNIGHT RD, COLLINS, MS, 39428",2922808,"R"
721560,"55 DERBES DRIVE","GRETNA","LA",70053,29.906467487,-90.048070761,60,"55 DERBES DRIVE, GRETNA, LA, 70053","Match","Exact","55 DERBES DR, GRETNA, LA, 70053",647781521,"L"
721561,"55 DEVALINDER DR","NEWARK","DE",19702,39.5953279460001,-75.745223489,61,"55 DEVALINDER DR, NEWARK, DE, 19702","Match","Exact","55 DEVALINDER DR, NEWARK, DE, 19702",633686633,"L"
721562,"55 DEWSBURY LANE","QUAKERTOWN","PA",18951,40.4374859490001,-75.360103395,62,"55 DEWSBURY LANE, QUAKERTOWN, PA, 18951","Match","Exact","55 DEWSBURY LN, QUAKERTOWN, PA, 18951",134696546,"R"
721563,"55 DEXTER STREET","PEABODY","MA",1960,42.509168405,-70.954319283,63,"55 DEXTER STREET, PEABODY, MA, 1960","Match","Exact","55 DEXTER ST, PEABODY, MA, 01960",86676334,"R"
721564,"55 DOGWOOD CIRCLE","PELHAM","NH",3076,42.768513581,-71.340954993,64,"55 DOGWOOD CIRCLE, PELHAM, NH, 3076","Match","Exact","55 DOGWOOD CIR, PELHAM, NH, 03076",627054334,"L"
721565,"55 DONCASTER TRL","WEST HENRIETTA","NY",14586,43.0290057620001,-77.716185024,65,"55 DONCASTER TRL, WEST HENRIETTA, NY, 14586","Match","Exact","55 DONCASTER TRL, W HENRIETTA, NY, 14586",632981774,"R"
721566,"55 DORISON DRIVE","SHORT HILLS","NJ",7078,40.751864326,-74.304821761,66,"55 DORISON DRIVE, SHORT HILLS, NJ, 7078","Match","Exact","55 DORISON DR, SHORT HILLS, NJ, 07078",63484065,"L"
721567,"55 DOSCHER STREET","BROOKLYN","NY",11208,40.6760924910001,-73.8728576249999,67,"55 DOSCHER STREET, BROOKLYN, NY, 11208","Match","Exact","55 DOSCHER ST, BROOKLYN, NY, 11208",59095226,"L"
721568,"55 DOVE POINTE LANE","CLAYTON","NC",27520,35.5540634050001,-78.4077907939999,68,"55 DOVE POINTE LANE, CLAYTON, NC, 27520","Match","Exact","55 DOVE POINTE LN, CLAYTON, NC, 27520",623844461,"L"
721569,"55 DUNBAR STREET","CHATHAM","NJ",7928,40.745374166,-74.386499805,69,"55 DUNBAR STREET, CHATHAM, NJ, 7928","Match","Exact","55 DUNBAR ST, CHATHAM, NJ, 07928",60450582,"L"
721570,"55 DUNLEITH","DESTREHAN","LA",70047,29.9654940720001,-90.367098288,70,"55 DUNLEITH, DESTREHAN, LA, 70047","Match","Non_Exact","55 DUNLEITH DR, DESTREHAN, LA, 70047",93635544,"R"
721571,"55 DUNMORE CT","FALLING WATERS","WV",25419,39.57431274,-77.880874908,71,"55 DUNMORE CT, FALLING WATERS, WV, 25419","Match","Exact","55 DUNMORE CT, FALLING WATERS, WV, 25419",618014238,"L"
721572,"55 DUSK DRIVE","NEW ROCHELLE","NY",10804,40.9529317060001,-73.783284809,72,"55 DUSK DRIVE, NEW ROCHELLE, NY, 10804","Match","Exact","55 DUSK DR, NEW ROCHELLE, NY, 10804",139749545,"R"
721573,"55 E 10 ST APT 1610","NEW YORK","NY",10003,40.7318949140001,-73.9918116439999,73,"55 E 10 ST APT 1610, NEW YORK, NY, 10003","Match","Non_Exact","55 E 10TH ST, NEW YORK, NY, 10003",639490826,"L"
721574,"55 E 178TH STREET APT2B","BRONX","NY",10457,NA,NA,74,"55 E 178TH STREET APT2B, BRONX, NY, 10457","No_Match",NA,NA,NA,NA
721575,"55 E 21ST ST","BROOKLYN","NY",11226,40.653328275,-73.960560168,75,"55 E 21ST ST, BROOKLYN, NY, 11226","Match","Exact","55 E 21ST ST, BROOKLYN, NY, 11226",59078568,"L"
721576,"55 E 2ND ST","NEW YORK","NY",10003,40.7246083580001,-73.989585839,76,"55 E 2ND ST, NEW YORK, NY, 10003","Match","Exact","55 E 2ND ST, NEW YORK, NY, 10003",59653947,"R"
721577,"55 E 2ND STREET","E STROUDSBURG","PA",18301,41.011349706,-75.1823150499999,77,"55 E 2ND STREET, E STROUDSBURG, PA, 18301","Match","Exact","55 E 2ND ST, E STROUDSBURG, PA, 18301",136779175,"L"
721578,"55 E 3RD AVE","SAN MATEO","CA",94401,37.563721322,-122.324975291,78,"55 E 3RD AVE, SAN MATEO, CA, 94401","Match","Exact","55 E 3RD AVE, SAN MATEO, CA, 94401",192377889,"L"
721579,"55 E 52ND AVE","NEW YORK","NY",10022,40.7589092270001,-73.9741710819999,79,"55 E 52ND AVE, NEW YORK, NY, 10022","Match","Non_Exact","55 E 52ND ST, NEW YORK, NY, 10022",59657218,"L"
721580,"55 E COLUMBUS STREET","LITHOPOLIS","OH",43136,39.8030359270001,-82.807348412,80,"55 E COLUMBUS STREET, LITHOPOLIS, OH, 43136","Match","Exact","55 E COLUMBUS ST, LITHOPOLIS, OH, 43136",641746661,"L"
721581,"55 E CUTHBERT BLVD","HADDON TOWNSHIP","NJ",8108,39.914597121,-75.056323385,81,"55 E CUTHBERT BLVD, HADDON TOWNSHIP, NJ, 8108","Match","Exact","55 E CUTHBERT BLVD, HADDON TOWNSHIP, NJ, 08108",642883426,"L"
721582,"55 E ERIE ST   APT 2205","CHICAGO","IL",60611,41.894097937,-87.6263340469999,82,"55 E ERIE ST   APT 2205, CHICAGO, IL, 60611","Match","Non_Exact","55 E ERIE ST, CHICAGO, IL, 60611",111769034,"R"
721583,"55 E GARFIELD BLVD APT 609","CHICAGO","IL",60637,41.7943356270001,-87.623905759,83,"55 E GARFIELD BLVD APT 609, CHICAGO, IL, 60637","Match","Non_Exact","55 E GARFIELD BLVD, CHICAGO, IL, 60637",605540113,"R"
721584,"55 E GREYHOUND PASS","CARMEL","IN",46032,40.0081073370001,-86.14567984,84,"55 E GREYHOUND PASS, CARMEL, IN, 46032","Match","Exact","55 E GREYHOUND PASS, CARMEL, IN, 46032",29290069,"L"
721585,"55 E HUNTINGTON DR STE 108","ARCADIA","CA",91006,34.140076827,-118.029719236,85,"55 E HUNTINGTON DR STE 108, ARCADIA, CA, 91006","Match","Non_Exact","55 E HUNTINGTON DR, ARCADIA, CA, 91006",141645113,"L"
721586,"55 E LINCOLN RD STE 102","SPOKANE","WA",99208,47.7294468210001,-117.410223815,86,"55 E LINCOLN RD STE 102, SPOKANE, WA, 99208","Match","Non_Exact","55 E LINCOLN RD, SPOKANE, WA, 99208",636107860,"L"
721587,"55 E LONG LAKE RD NUM 401","TROY","MI",48085,42.591711715,-83.146733304,87,"55 E LONG LAKE RD NUM 401, TROY, MI, 48085","Match","Non_Exact","55 E LONG LAKE RD, TROY, MI, 48085",630321929,"L"
721588,"55 E MILL ST PO BOX 2000","AKRON","OH",44309,NA,NA,88,"55 E MILL ST PO BOX 2000, AKRON, OH, 44309","No_Match",NA,NA,NA,NA
721589,"55 E MILL ST","AKRON","OH",44309,41.082255853,-81.516792928,89,"55 E MILL ST, AKRON, OH, 44309","Match","Non_Exact","55 E MILL ST, AKRON, OH, 44308",61341547,"L"
721590,"55 E MONROE ST SUITE 3300","CHICAGO","IL",60606,NA,NA,90,"55 E MONROE ST SUITE 3300, CHICAGO, IL, 60606","No_Match",NA,NA,NA,NA
721591,"55 E MONROE STREET SUITE 3800","CHICAGO","IL",60603,41.8807888360001,-87.6259593949999,91,"55 E MONROE STREET SUITE 3800, CHICAGO, IL, 60603","Match","Non_Exact","55 E MONROE ST, CHICAGO, IL, 60603",605109915,"R"
721592,"55 E NORTH AVENUE","NORTHLAKE","IL",60164,41.9084972570001,-87.919175152,92,"55 E NORTH AVENUE, NORTHLAKE, IL, 60164","Match","Non_Exact","55 NORTHWEST AVE, NORTHLAKE, IL, 60164",111867022,"R"
721593,"55 E RICHMOND ST","WESTMON","IL",60559,41.7937280840001,-87.97295374,93,"55 E RICHMOND ST, WESTMON, IL, 60559","Match","Non_Exact","55 E RICHMOND ST, WESTMONT, IL, 60559",112548066,"R"
721594,"55 E RICHMOND ST","WESTMONT","IL",60559,41.793728183,-87.9729491479999,94,"55 E RICHMOND ST, WESTMONT, IL, 60559","Match","Exact","55 E RICHMOND ST, WESTMONT, IL, 60559",112548066,"R"
721595,"55 E RICHMOND STREET","WESTMONT","IL",60559,41.793728183,-87.9729491479999,95,"55 E RICHMOND STREET, WESTMONT, IL, 60559","Match","Exact","55 E RICHMOND ST, WESTMONT, IL, 60559",112548066,"R"
721596,"55 E RUSSET GROVE CIRCLE","THE WOODLANDS","TX",77384,30.224922506,-95.5059053099999,96,"55 E RUSSET GROVE CIRCLE, THE WOODLANDS, TX, 77384","Match","Exact","55 E RUSSET GROVE CIR, THE WOODLANDS, TX, 77384",79332182,"L"
721597,"55 E SANSON","SPOKANE","WA",99207,47.7070093350001,-117.409680834,97,"55 E SANSON, SPOKANE, WA, 99207","Match","Non_Exact","55 E SANSON AVE, SPOKANE, WA, 99207",636107710,"L"
721598,"55 E VILLA STREET","PASADENA","CA",91103,34.1541228460001,-118.149662269,98,"55 E VILLA STREET, PASADENA, CA, 91103","Match","Exact","55 E VILLA ST, PASADENA, CA, 91103",141627983,"L"
721599,"55 E WALNUT ST","RICHWOOD","WV",26261,38.227123583,-80.529409786,99,"55 E WALNUT ST, RICHWOOD, WV, 26261","Match","Exact","55 E WALNUT ST, RICHWOOD, WV, 26261",50040847,"L"
721600,"55 EAST 102ND ST  APT 2F","NY","NY",10029,40.790836213,-73.950846798,100,"55 EAST 102ND ST  APT 2F, NY, NY, 10029","Match","Exact","55 E 102ND ST, NEW YORK, NY, 10029",59657889,"L"
721601,"55 EAST 102ND ST  APT 6G","NY","NY",10029,40.790836213,-73.950846798,101,"55 EAST 102ND ST  APT 6G, NY, NY, 10029","Match","Exact","55 E 102ND ST, NEW YORK, NY, 10029",59657889,"L"
721602,"55 EAST 115 STREET SUITE 7F","NEW YORK","NY",10029,40.7991031880001,-73.944895629,102,"55 EAST 115 STREET SUITE 7F, NEW YORK, NY, 10029","Match","Exact","55 E 115TH ST, NEW YORK, NY, 10029",59657784,"L"
721603,"55 EAST 115TH STREET SUITE 7F","NEW YORK","NY",10029,40.7991031880001,-73.944895629,103,"55 EAST 115TH STREET SUITE 7F, NEW YORK, NY, 10029","Match","Exact","55 E 115TH ST, NEW YORK, NY, 10029",59657784,"L"
721604,"55 EAST 115TH STREET","NEW YORK","NY",10029,40.7991031880001,-73.944895629,104,"55 EAST 115TH STREET, NEW YORK, NY, 10029","Match","Exact","55 E 115TH ST, NEW YORK, NY, 10029",59657784,"L"
721605,"55 EAST 210TH","BRONX","NY",10467,40.8802047990001,-73.882176235,105,"55 EAST 210TH, BRONX, NY, 10467","Match","Non_Exact","55 E 210TH ST, BRONX, NY, 10467",80296701,"L"
721606,"55 EAST 3RD STREET","SAN MATEO","CA",94401,37.563709112,-122.324992812,106,"55 EAST 3RD STREET, SAN MATEO, CA, 94401","Match","Non_Exact","55 E 3RD AVE, SAN MATEO, CA, 94401",192377889,"L"
721607,"55 East 40th Street","BROOKLYN","NY",11203,40.6544646420001,-73.940357782,107,"55 East 40th Street, BROOKLYN, NY, 11203","Match","Exact","55 E 40TH ST, BROOKLYN, NY, 11203",59079867,"L"
721608,"55 EAST 40TH STREET","BROOKLYN","NY",11203,40.6544646420001,-73.940357782,108,"55 EAST 40TH STREET, BROOKLYN, NY, 11203","Match","Exact","55 E 40TH ST, BROOKLYN, NY, 11203",59079867,"L"
721609,"55 EAST 4TH ST","WHEELING","WV",26003,40.0808627440001,-80.723732432,109,"55 EAST 4TH ST, WHEELING, WV, 26003","Match","Exact","55 E 4TH ST, WHEELING, WV, 26003",38088540,"L"
721610,"55 EAST 52ND STREET","NEW YORK","NY",10055,40.7589145050001,-73.974183533,110,"55 EAST 52ND STREET, NEW YORK, NY, 10055","Match","Non_Exact","55 E 52ND ST, NEW YORK, NY, 10022",59657218,"L"
721611,"55 EAST 84TH STREET","NEW YORK","NY",10028,40.7793146230001,-73.959217114,111,"55 EAST 84TH STREET, NEW YORK, NY, 10028","Match","Exact","55 E 84TH ST, NEW YORK, NY, 10028",59657336,"L"
721612,"55 EAST 87TH STREET APT 7L","NEW YORK","NY",10128,40.781417746,-73.958023378,112,"55 EAST 87TH STREET APT 7L, NEW YORK, NY, 10128","Match","Exact","55 E 87TH ST, NEW YORK, NY, 10128",652209235,"L"
721613,"55 EAST 87TH STREET","NEW YORK","NY",10128,40.781417746,-73.958023378,113,"55 EAST 87TH STREET, NEW YORK, NY, 10128","Match","Exact","55 E 87TH ST, NEW YORK, NY, 10128",652209235,"L"
721614,"55 EAST CHERRY ST","CENTRAL ISLIP","NY",11722,40.780640254,-73.1830585879999,114,"55 EAST CHERRY ST, CENTRAL ISLIP, NY, 11722","Match","Exact","55 E CHERRY ST, CENTRAL ISLIP, NY, 11722",113990401,"R"
721615,"55 EAST CIRCLE DRIVE","EAST LONGMEADOW","MA",1028,42.0767968330001,-72.4963405669999,115,"55 EAST CIRCLE DRIVE, EAST LONGMEADOW, MA, 1028","Match","Exact","55 E CIRCLE DR, E LONGMEADOW, MA, 01028",4060073,"R"
721616,"55 EAST CUTHBERT BLVD","HADDON TOWNSHIP","NJ",8108,39.914579039,-75.056332545,116,"55 EAST CUTHBERT BLVD, HADDON TOWNSHIP, NJ, 8108","Match","Exact","55 E CUTHBERT BLVD, HADDON TOWNSHIP, NJ, 08108",642883426,"L"
721617,"55 EAST KINGS HWY","MAPLE SHADE","NJ",8052,39.9408403260001,-74.981012063,117,"55 EAST KINGS HWY, MAPLE SHADE, NJ, 8052","Match","Exact","55 E KINGS HWY, MAPLE SHADE, NJ, 08052",134027783,"R"
721618,"55 EAST LAWN DRIVE","COVINGTON","GA",30016,33.578208628,-83.914508731,118,"55 EAST LAWN DRIVE, COVINGTON, GA, 30016","Match","Exact","55 E LAWN DR, COVINGTON, GA, 30016",23638285,"R"
721619,"55 EAST LAWN","COVINGTON","GA",30016,NA,NA,119,"55 EAST LAWN, COVINGTON, GA, 30016","Tie",NA,NA,NA,NA
721620,"55 EAST MARKET STREET","SELINSGROVE","PA",17843,NA,NA,120,"55 EAST MARKET STREET, SELINSGROVE, PA, 17843","No_Match",NA,NA,NA,NA
721621,"55 EAST MONROE STREET SUITE 3300","CHICAGO","IL",60604,41.880788706,-87.625964613,121,"55 EAST MONROE STREET SUITE 3300, CHICAGO, IL, 60604","Match","Non_Exact","55 E MONROE ST, CHICAGO, IL, 60603",605109915,"R"
721622,"55 EAST MORRIS AVENUE","BUFFALO","NY",14214,42.940990426,-78.8343282499999,122,"55 EAST MORRIS AVENUE, BUFFALO, NY, 14214","Match","Exact","55 E MORRIS AVE, BUFFALO, NY, 14214",48296220,"R"
721623,"55 EAST TERRACE","PORTSMOUTH","RI",2871,41.5711868710001,-71.24000733,123,"55 EAST TERRACE, PORTSMOUTH, RI, 2871","Match","Exact","55 EAST TER, PORTSMOUTH, RI, 02871",624837641,"R"
721624,"55 EAST WAY","MOUNT KISCO","NY",10549,41.1877509060001,-73.7353539539999,124,"55 EAST WAY, MOUNT KISCO, NY, 10549","Match","Exact","55 EAST WAY, MOUNT KISCO, NY, 10549",139758898,"L"
721625,"55 EASTERN PARKWAY APT 3A","BROOKLYN","NY",11238,40.6728760830001,-73.9666307959999,125,"55 EASTERN PARKWAY APT 3A, BROOKLYN, NY, 11238","Match","Exact","55 EASTERN PKWY, BROOKLYN, NY, 11238",640853035,"R"
721626,"55 EASTERN PARKWAY","HILLSIDE","NJ",7205,40.701906331,-74.2466565349999,126,"55 EASTERN PARKWAY, HILLSIDE, NJ, 7205","Match","Exact","55 EASTERN PKWY, HILLSIDE, NJ, 07205",60598519,"L"
721627,"55 EASTERN PKWY","HILLSIDE","NJ",7205,40.701906331,-74.2466565349999,127,"55 EASTERN PKWY, HILLSIDE, NJ, 7205","Match","Exact","55 EASTERN PKWY, HILLSIDE, NJ, 07205",60598519,"L"
721628,"55 EAVES FERRY RD","DECATUR","TN",37322,35.5422553990001,-84.797460712,128,"55 EAVES FERRY RD, DECATUR, TN, 37322","Match","Exact","55 EAVES FERRY RD, DECATUR, TN, 37322",646436826,"R"
721629,"55 EBERHARDT RD","EAST HANOVER","NJ",7936,40.829656878,-74.34768841,129,"55 EBERHARDT RD, EAST HANOVER, NJ, 7936","Match","Exact","55 EBERHARDT RD, EAST HANOVER, NJ, 07936",60448588,"R"
721630,"55 EDDYSTONE LANE","MT LAUREL","NJ",8054,39.9326409660001,-74.912442348,130,"55 EDDYSTONE LANE, MT LAUREL, NJ, 8054","Match","Non_Exact","55 EDDYSTONE WAY, MOUNT LAUREL, NJ, 08054",647270953,"R"
721631,"55 EDGEMONT TERRACE","HUNTINGTON","WV",25701,38.4050715020001,-82.4566999199999,131,"55 EDGEMONT TERRACE, HUNTINGTON, WV, 25701","Match","Exact","55 EDGEMONT TER, HUNTINGTON, WV, 25701",101342415,"L"
721632,"55 EDGEWOOD DRIVE","BREWER","ME",4412,44.7760123360001,-68.765532966,132,"55 EDGEWOOD DRIVE, BREWER, ME, 4412","Match","Exact","55 EDGEWOOD DR, BREWER, ME, 04412",123629292,"R"
721633,"55 EDGEWOOD DRIVE","CRAWFORDVILLE","FL",32327,30.2492043120001,-84.36316399,133,"55 EDGEWOOD DRIVE, CRAWFORDVILLE, FL, 32327","Match","Exact","55 EDGEWOOD DR, CRAWFORDVILLE, FL, 32327",630455868,"R"
721634,"55 EDGEWOOD ROAD","BOYERTOWN","PA",19512,40.3300507050001,-75.7008558859999,134,"55 EDGEWOOD ROAD, BOYERTOWN, PA, 19512","Match","Exact","55 EDGEWOOD RD, BOYERTOWN, PA, 19512",80417566,"R"
721635,"55 EDWOOD DRIVE","PALENSVILLE","NY",12463,NA,NA,135,"55 EDWOOD DRIVE, PALENSVILLE, NY, 12463","No_Match",NA,NA,NA,NA
721636,"55 ELIZABETH AVE","CRANFORD","NJ",7016,40.659782921,-74.293045702,136,"55 ELIZABETH AVE, CRANFORD, NJ, 7016","Match","Exact","55 ELIZABETH AVE, CRANFORD, NJ, 07016",60570860,"L"
721637,"55 ELLISON RD","NEWTON","MA",2459,42.3372317710001,-71.205752944,137,"55 ELLISON RD, NEWTON, MA, 2459","Match","Exact","55 ELLISON RD, NEWTON, MA, 02459",86865641,"R"
721638,"55 ELLWOOD AVENUE","TONAWANDA","NY",14223,42.9632401280001,-78.838829857,138,"55 ELLWOOD AVENUE, TONAWANDA, NY, 14223","Match","Exact","55 ELLWOOD AVE, TONAWANDA, NY, 14223",48294885,"R"
721639,"55 ELM ST","CARTERET","NJ",7008,40.5825133370001,-74.232800458,139,"55 ELM ST, CARTERET, NJ, 7008","Match","Exact","55 ELM ST, CARTERET, NJ, 07008",60276614,"L"
721640,"55 ELM STREET","CARTERET","NJ",7008,40.5825133370001,-74.232800458,140,"55 ELM STREET, CARTERET, NJ, 7008","Match","Exact","55 ELM ST, CARTERET, NJ, 07008",60276614,"L"
721641,"55 ELM","CARTERET","NJ",7008,40.5825133370001,-74.232800458,141,"55 ELM, CARTERET, NJ, 7008","Match","Non_Exact","55 ELM ST, CARTERET, NJ, 07008",60276614,"L"
721642,"55 ELMWOOD AVE","LOCKPORT","NY",14094,43.168520216,-78.6839409949999,142,"55 ELMWOOD AVE, LOCKPORT, NY, 14094","Match","Exact","55 ELMWOOD AVE, LOCKPORT, NY, 14094",48691655,"R"
721643,"55 ELMWOOD CT","FORTSON","GA",31808,32.655292156,-84.9730895709999,143,"55 ELMWOOD CT, FORTSON, GA, 31808","Match","Exact","55 ELMWOOD CT, FORTSON, GA, 31808",1735595,"L"
721644,"55 EMANDAN LANE","HOCKESSIN","DE",19707,39.7728376470001,-75.715473916,144,"55 EMANDAN LANE, HOCKESSIN, DE, 19707","Match","Exact","55 EMANDAN LN, HOCKESSIN, DE, 19707",630010598,"L"
721645,"55 EMERALD CT","SATELLITE BEACH","FL",32937,28.1850547870001,-80.6067311589999,145,"55 EMERALD CT, SATELLITE BEACH, FL, 32937","Match","Exact","55 EMERALD CT, SATELLITE BEACH, FL, 32937",93927451,"L"
721646,"55 EMERALD DR","DRACUT","MA",1826,42.715956498,-71.2700822529999,146,"55 EMERALD DR, DRACUT, MA, 1826","Match","Exact","55 EMERALD DR, DRACUT, MA, 01826",86919549,"R"
721647,"55 EMMMETT PL","YONKERS","NY",10703,40.958611327,-73.879683998,147,"55 EMMMETT PL, YONKERS, NY, 10703","Match","Non_Exact","55 EMMETT PL, YONKERS, NY, 10703",139744149,"L"
721648,"55 ENDICOTT ST","DANVERS","MA",1923,42.5499352780001,-70.9290712709999,148,"55 ENDICOTT ST, DANVERS, MA, 1923","Match","Exact","55 ENDICOTT ST, DANVERS, MA, 01923",86693814,"R"
721649,"55 ERIE AVENUE","CINCINNATI","OH",45246,39.2715762810001,-84.466774755,149,"55 ERIE AVENUE, CINCINNATI, OH, 45246","Match","Exact","55 ERIE AVE, CINCINNATI, OH, 45246",103944345,"R"
721650,"55 ESSEX AVE","MAPLEWOOD","NJ",7042,40.8235757160001,-74.206122594,150,"55 ESSEX AVE, MAPLEWOOD, NJ, 7042","Match","Non_Exact","55 ESSEX AVE, MONTCLAIR, NJ, 07042",63494340,"R"
721651,"55 ESSEX ST APT 606","CAMBRIDGE","MA",2139,42.3674212620001,-71.1011919759999,151,"55 ESSEX ST APT 606, CAMBRIDGE, MA, 2139","Match","Exact","55 ESSEX ST, CAMBRIDGE, MA, 02139",86870040,"L"
721652,"55 ESSEX ST","MAPLEWOOD","NJ",7042,NA,NA,152,"55 ESSEX ST, MAPLEWOOD, NJ, 7042","Tie",NA,NA,NA,NA
721653,"55 ESSEX STREET APT 606","CAMBRIDGE","MA",2139,42.3674212620001,-71.1011919759999,153,"55 ESSEX STREET APT 606, CAMBRIDGE, MA, 2139","Match","Exact","55 ESSEX ST, CAMBRIDGE, MA, 02139",86870040,"L"
721654,"55 EVENCHANCE ROAD","ENFIELD","NH",3748,43.6365337890001,-72.1687445009999,154,"55 EVENCHANCE ROAD, ENFIELD, NH, 3748","Match","Exact","55 EVENCHANCE RD, ENFIELD, NH, 03748",145688665,"L"
721655,"55 EVERDEAN ST","DORCHESTER","MA",2122,42.2993461930001,-71.050974679,155,"55 EVERDEAN ST, DORCHESTER, MA, 2122","Match","Exact","55 EVERDEAN ST, DORCHESTER, MA, 02122",85713754,"R"
721656,"55 EVERGREEN DR","WILLINGBORO","NJ",8046,40.0152264020001,-74.869420804,156,"55 EVERGREEN DR, WILLINGBORO, NJ, 8046","Match","Exact","55 EVERGREEN DR, WILLINGBORO, NJ, 08046",134032169,"R"
721657,"55 EVERGREEN LANE","OAKDALE","CT",6370,41.450435833,-72.2003174499999,157,"55 EVERGREEN LANE, OAKDALE, CT, 6370","Match","Exact","55 EVERGREEN LN, OAKDALE, CT, 06370",56838490,"R"
721658,"55 EXETER  AVE","MANCHESTER","NH",3103,42.979087271,-71.454460277,158,"55 EXETER  AVE, MANCHESTER, NH, 3103","Match","Exact","55 EXETER AVE, MANCHESTER, NH, 03103",113532016,"R"
721659,"55 FAIR DRIVE","COSTA MESA","CA",92626,33.6638718400001,-117.904366197,159,"55 FAIR DRIVE, COSTA MESA, CA, 92626","Match","Exact","55 FAIR DR, COSTA MESA, CA, 92626",144076815,"L"
721660,"55 FAIRFAX","IRVINE","CA",92620,33.707075769,-117.748273361,160,"55 FAIRFAX, IRVINE, CA, 92620","Match","Exact","55 FAIRFAX, IRVINE, CA, 92620",641617414,"R"
721661,"55 FAIRMEADOW DRIVE","ROCHESTER","NY",14618,43.1105913320001,-77.56244157,161,"55 FAIRMEADOW DRIVE, ROCHESTER, NY, 14618","Match","Exact","55 FAIRMEADOW DR, ROCHESTER, NY, 14618",14543182,"L"
721662,"55 FAIRMOUNT AVE APT 202","OAKLAND","CA",94611,37.8158259960001,-122.259820375,162,"55 FAIRMOUNT AVE APT 202, OAKLAND, CA, 94611","Match","Exact","55 FAIRMOUNT AVE, OAKLAND, CA, 94611",606332471,"L"
721663,"55 FAIRVIEW AVENUE","AUBURN","ME",4210,44.0867706550001,-70.245058473,163,"55 FAIRVIEW AVENUE, AUBURN, ME, 4210","Match","Non_Exact","55 FAIRVIEW CT, AUBURN, ME, 04210",77960634,"L"
721664,"55 FALLING CREEK DRIVE","NORTH LITTLE ROCK","AR",72114,NA,NA,164,"55 FALLING CREEK DRIVE, NORTH LITTLE ROCK, AR, 72114","No_Match",NA,NA,NA,NA
721665,"55 FAREWELL STREET","NEWPORT","RI",2840,NA,NA,165,"55 FAREWELL STREET, NEWPORT, RI, 2840","No_Match",NA,NA,NA,NA
721666,"55 FARLEY ROAD","WENDELL","MA",1379,42.5621184070001,-72.4099482729999,166,"55 FARLEY ROAD, WENDELL, MA, 1379","Match","Exact","55 FARLEY RD, WENDELL, MA, 01379",39938040,"L"
721667,"55 FARMHILL ROAD","WRENTHAM","MA",2093,42.02788295,-71.433593517,167,"55 FARMHILL ROAD, WRENTHAM, MA, 2093","Match","Non_Exact","55 FARM HILL RD, WRENTHAM, MA, 02093",87260033,"R"
721668,"55 FIELDVIEW LANE","COVINGTON","GA",30016,33.611001405,-83.960496811,168,"55 FIELDVIEW LANE, COVINGTON, GA, 30016","Match","Exact","55 FIELDVIEW LN, COVINGTON, GA, 30016",23637422,"L"
721669,"55 FILLMORE STREET","SAN FRANCISCO","CA",91447,37.769863709,-122.430003281,169,"55 FILLMORE STREET, SAN FRANCISCO, CA, 91447","Match","Non_Exact","55 FILLMORE ST, SAN FRANCISCO, CA, 94117",192284018,"L"
721670,"55 FILLMORE STREET","SAN FRANCISCO","CA",94117,37.769863709,-122.430003281,170,"55 FILLMORE STREET, SAN FRANCISCO, CA, 94117","Match","Exact","55 FILLMORE ST, SAN FRANCISCO, CA, 94117",192284018,"L"
721671,"55 FIRE ROAD 10","LANCASTER","MA",1523,42.5158557930001,-71.6909669889999,171,"55 FIRE ROAD 10, LANCASTER, MA, 1523","Match","Exact","55 FIRE RD 10, LANCASTER, MA, 01523",40031423,"R"
721672,"55 FIRST STREET","PELHAM","NY",10803,40.911063427,-73.8117239859999,172,"55 FIRST STREET, PELHAM, NY, 10803","Match","Exact","55 1ST ST, PELHAM, NY, 10803",139749141,"R"
721673,"55 FITCHTR","RANDOLPH","MA",2368,NA,NA,173,"55 FITCHTR, RANDOLPH, MA, 2368","No_Match",NA,NA,NA,NA
721674,"55 FOOTHILL PL","PLEASANT HILL","CA",94523,37.9695574260001,-122.08929946,174,"55 FOOTHILL PL, PLEASANT HILL, CA, 94523","Match","Exact","55 FOOTHILL PL, PLEASANT HILL, CA, 94523",607781127,"L"
721675,"55 FORDHAM DRIVE","ABERDEEN","NJ",7747,40.3929928360001,-74.2323960099999,175,"55 FORDHAM DRIVE, ABERDEEN, NJ, 7747","Match","Exact","55 FORDHAM DR, ABERDEEN, NJ, 07747",640005111,"L"
721676,"55 FORGE VALLEY DRIVE","MILLS RIVER","NC",28759,35.3471484520001,-82.6137611199999,176,"55 FORGE VALLEY DRIVE, MILLS RIVER, NC, 28759","Match","Exact","55 FORGE VALLEY DR, MILLS RIVER, NC, 28759",638231303,"L"
721677,"55 FOSTER COURT","MEDFORD","MA",2155,42.4111325280001,-71.0971394059999,177,"55 FOSTER COURT, MEDFORD, MA, 2155","Match","Exact","55 FOSTER CT, MEDFORD, MA, 02155",86859287,"R"
721678,"55 FOSTER STREET","NEW BEDFORD","MA",2740,41.639400783,-70.928409554,178,"55 FOSTER STREET, NEW BEDFORD, MA, 2740","Match","Exact","55 FOSTER ST, NEW BEDFORD, MA, 02740",46753213,"L"
721679,"55 FOURTH ST","FAIR HAVEN","VT",5743,43.6010047990001,-73.270798298,179,"55 FOURTH ST, FAIR HAVEN, VT, 5743","Match","Exact","55 4TH ST, FAIR HAVEN, VT, 05743",641174400,"R"
721680,"55 FOURTH ST","FRANKLINVILLE","NJ",8322,39.5993695550001,-75.080328841,180,"55 FOURTH ST, FRANKLINVILLE, NJ, 8322","Match","Exact","55 4TH ST, FRANKLINVILLE, NJ, 08322",134609874,"L"
721681,"55 FRANCES STREET","NEEDHAM","MA",2492,42.2733497670001,-71.251126937,181,"55 FRANCES STREET, NEEDHAM, MA, 2492","Match","Exact","55 FRANCES ST, NEEDHAM, MA, 02492",87241162,"R"
721682,"55 FREDERICK DRIVE","APALACHIN NY","NY",13732,42.053377041,-76.12125423,182,"55 FREDERICK DRIVE, APALACHIN NY, NY, 13732","Match","Non_Exact","55 FREDERICK DR, APALACHIN, NY, 13732",46717701,"L"
721683,"55 FREEDOM DRIVE","CARTERSVILLE","GA",30121,34.212046291,-84.790298534,183,"55 FREEDOM DRIVE, CARTERSVILLE, GA, 30121","Match","Non_Exact","55 FREEDOM DR NE, CARTERSVILLE, GA, 30121",639485969,"L"
721684,"55 FRUIT STREET STE 3A","BOSTON","MA",2114,42.3624334570001,-71.0698290939999,184,"55 FRUIT STREET STE 3A, BOSTON, MA, 2114","Match","Exact","55 FRUIT ST, BOSTON, MA, 02114",642551691,"R"
721685,"55 FRUIT STREET WHT535","BOSTON","MA",2114,42.3624334570001,-71.0698290939999,185,"55 FRUIT STREET WHT535, BOSTON, MA, 2114","Match","Exact","55 FRUIT ST, BOSTON, MA, 02114",642551691,"R"
721686,"55 G H WILSON RD","SPENCER","MA",1562,42.216778929,-71.9619701789999,186,"55 G H WILSON RD, SPENCER, MA, 1562","Match","Exact","55 G H WILSON RD, SPENCER, MA, 01562",40083383,"L"
721687,"55 GALILEO DRIVE","BUFFALO","NY",14221,42.9990812980001,-78.7144282209999,187,"55 GALILEO DRIVE, BUFFALO, NY, 14221","Match","Exact","55 GALILEO DR, BUFFALO, NY, 14221",626693744,"L"
721688,"55 GARDEN DR","TAYLORSVILLE","KY",40021,38.0270395490001,-85.367418667,188,"55 GARDEN DR, TAYLORSVILLE, KY, 40021","Match","Non_Exact","55 GARDEN DR, TAYLORSVILLE, KY, 40071",619895817,"L"
721689,"55 GARDEN VIEW DRIVE","WINFIELD","AL",35594,33.8862636370001,-87.809228358,189,"55 GARDEN VIEW DRIVE, WINFIELD, AL, 35594","Match","Exact","55 GARDEN VIEW DR, WINFIELD, AL, 35594",120513917,"R"
721690,"55 GARDENVIEW DRIVE","WINFIELD","AL",35594,33.8862636370001,-87.809228358,190,"55 GARDENVIEW DRIVE, WINFIELD, AL, 35594","Match","Exact","55 GARDENVIEW DR, WINFIELD, AL, 35594",120513917,"R"
721691,"55 GARNET HILL","SEDONA","AZ",86336,34.8870727880001,-111.824976169,191,"55 GARNET HILL, SEDONA, AZ, 86336","Match","Non_Exact","55 GARNET HILL DR, SEDONA, AZ, 86336",635507218,"R"
721692,"55 GARNET IN","WILKES BARRE","PA",18702,41.238598472,-75.877656907,192,"55 GARNET IN, WILKES BARRE, PA, 18702","Match","Non_Exact","55 GARNET LN, WILKES BARRE, PA, 18702",80919647,"R"
721693,"55 GEORGE MADRY COURT","QUINCY","FL",32351,NA,NA,193,"55 GEORGE MADRY COURT, QUINCY, FL, 32351","No_Match",NA,NA,NA,NA
721694,"55 GIDNEY AVENUE","NEWBURGH","NY",12550,41.508129077,-74.0133778909999,194,"55 GIDNEY AVENUE, NEWBURGH, NY, 12550","Match","Exact","55 GIDNEY AVE, NEWBURGH, NY, 12550",124494337,"L"
721695,"55 GIFFORD AVENUE","JERSEY CITY","NJ",7304,40.7211895350001,-74.0753854129999,195,"55 GIFFORD AVENUE, JERSEY CITY, NJ, 7304","Match","Exact","55 GIFFORD AVE, JERSEY CITY, NJ, 07304",59604249,"L"
721696,"55 GILES LANE","SOUTH BEND","WA",98586,46.693763904,-123.852696106,196,"55 GILES LANE, SOUTH BEND, WA, 98586","Match","Exact","55 GILES LN, SOUTH BEND, WA, 98586",176015376,"R"
721697,"55 GILMER ST","ATLANTA","GA",30303,33.7538954670001,-84.385866157,197,"55 GILMER ST, ATLANTA, GA, 30303","Match","Non_Exact","55 GILMER ST SE, ATLANTA, GA, 30303",17344579,"R"
721698,"55 GINGER DRIVE","LUMBERTON","NJ",8048,39.9737856990001,-74.7802535989999,198,"55 GINGER DRIVE, LUMBERTON, NJ, 8048","Match","Exact","55 GINGER DR, LUMBERTON, NJ, 08048",134067686,"L"
721699,"55 GIRARD AVE","HARTFORD","CT",6106,NA,NA,199,"55 GIRARD AVE, HARTFORD, CT, 6106","No_Match",NA,NA,NA,NA
721700,"55 GLEN OAKS DR","ROCHESTER","NY",14624,43.1594302660001,-77.704927619,200,"55 GLEN OAKS DR, ROCHESTER, NY, 14624","Match","Exact","55 GLEN OAKS DR, ROCHESTER, NY, 14624",14530361,"R"
721701,"55 GLEN STREET","DOVER","MA",2030,42.244874688,-71.318987329,201,"55 GLEN STREET, DOVER, MA, 2030","Match","Exact","55 GLEN ST, DOVER, MA, 02030",87237523,"L"
721702,"55 GLEN STREET","DOVER","MA",NA,42.244874688,-71.318987329,202,"55 GLEN STREET, DOVER, MA, ","Match","Exact","55 GLEN ST, DOVER, MA, 02030",87237523,"L"
721703,"55 GOLF RIDGE DR","TRABUCO CANYON","CA",92679,33.633188542,-117.563056509,203,"55 GOLF RIDGE DR, TRABUCO CANYON, CA, 92679","Match","Exact","55 GOLF RIDGE DR, TRABUCO CANYON, CA, 92679",609043161,"R"
721704,"55 GRACE LANE","GRAY COURT","SC",29645,34.626771406,-82.074637519,204,"55 GRACE LANE, GRAY COURT, SC, 29645","Match","Exact","55 GRACE LN, GRAY COURT, SC, 29645",44450399,"L"
721705,"55 GRAND BLVD","VALHALLA","NY",10595,41.0855833840001,-73.7840101909999,205,"55 GRAND BLVD, VALHALLA, NY, 10595","Match","Exact","55 GRAND BLVD, VALHALLA, NY, 10595",139736162,"L"
721706,"55 GRANITERIDGE RD","RIVERSIDE","WA",98849,48.549060018,-119.484962327,206,"55 GRANITERIDGE RD, RIVERSIDE, WA, 98849","Match","Non_Exact","55 GRANITRIDGE RD, RIVERSIDE, WA, 98849",645501450,"L"
721707,"55 GRANT ST","PAINESVILLE","OH",44077,41.715928714,-81.2582602209999,207,"55 GRANT ST, PAINESVILLE, OH, 44077","Match","Exact","55 GRANT ST, PAINESVILLE, OH, 44077",641744005,"L"
721708,"55 GRANT STREET","WEST NEWTON","MA",2465,42.358329344,-71.231659296,208,"55 GRANT STREET, WEST NEWTON, MA, 2465","Match","Exact","55 GRANT ST, WEST NEWTON, MA, 02465",86862153,"R"
721709,"55 GRASMERE DRIVE","CHARLES TOWN","WV",25414,39.260105153,-77.891278825,209,"55 GRASMERE DRIVE, CHARLES TOWN, WV, 25414","Match","Exact","55 GRASMERE DR, CHARLES TOWN, WV, 25414",123421284,"L"
721710,"55 GRAVEL LANE","ANACONDA","MT",59711,46.0642165260001,-112.760532061,210,"55 GRAVEL LANE, ANACONDA, MT, 59711","Match","Exact","55 GRAVEL LN, ANACONDA, MT, 59711",627164295,"R"
721711,"55 GRAY FOX RUN STE 1","CAMDENTON","MO",65020,38.1310849750001,-92.8146145009999,211,"55 GRAY FOX RUN STE 1, CAMDENTON, MO, 65020","Match","Exact","55 GRAY FOX RUN, CAMDENTON, MO, 65020",22870972,"R"
721712,"55 GREAT OAK LANE","PLEASANTVILLE","NY",10570,41.1381392970001,-73.789093034,212,"55 GREAT OAK LANE, PLEASANTVILLE, NY, 10570","Match","Exact","55 GREAT OAK LN, PLEASANTVILLE, NY, 10570",139846498,"R"
721713,"55 GREEN MOUNTAIN DRIVE","SOUTH BURLINGTON","VT",5403,44.4292092480001,-73.2078520009999,213,"55 GREEN MOUNTAIN DRIVE, SOUTH BURLINGTON, VT, 5403","Match","Exact","55 GREEN MOUNTAIN DR, S BURLINGTON, VT, 05403",640649473,"R"
721714,"55 GREEN ST","MUNCY","PA",17756,41.2083744940001,-76.780391391,214,"55 GREEN ST, MUNCY, PA, 17756","Match","Exact","55 GREEN ST, MUNCY, PA, 17756",59475719,"L"
721715,"55 GREEN STREET UNIT C305","CLINTON","MA",1510,42.4139436090001,-71.67785673,215,"55 GREEN STREET UNIT C305, CLINTON, MA, 1510","Match","Exact","55 GREEN ST, CLINTON, MA, 01510",40072558,"L"
721716,"55 GREEN STREET","GARDNER","MA",1440,42.5811869610001,-71.9861514039999,216,"55 GREEN STREET, GARDNER, MA, 1440","Match","Exact","55 GREEN ST, GARDNER, MA, 01440",40094715,"L"
721717,"55 GREENFIELD AVENUE","STATEN ISLAND","NY",10304,40.6198255530001,-74.072520179,217,"55 GREENFIELD AVENUE, STATEN ISLAND, NY, 10304","Match","Non_Exact","55 GREENFIELD CT, STATEN ISLAND, NY, 10304",59884329,"R"
721718,"55 GREENWICH ROAD","AMHERST","MA",1002,42.334468503,-72.529769985,218,"55 GREENWICH ROAD, AMHERST, MA, 1002","Match","Exact","55 GREENWICH RD, AMHERST, MA, 01002",39868543,"L"
721719,"55 GREENWOOD CEMETERY ROAD","DANVILLE","IL",61832,40.106255226,-87.6216196519999,219,"55 GREENWOOD CEMETERY ROAD, DANVILLE, IL, 61832","Match","Exact","55 GREENWOOD CEMETERY RD, DANVILLE, IL, 61832",612003367,"L"
721720,"55 GREY FOX LANE","TRYON","NC",28782,35.2059729150001,-82.217676211,220,"55 GREY FOX LANE, TRYON, NC, 28782","Match","Exact","55 GREY FOX LN, TRYON, NC, 28782",44318742,"R"
721721,"55 GRIZZ LANE","INWOOD","WV",25428,39.391710678,-78.0320667409999,221,"55 GRIZZ LANE, INWOOD, WV, 25428","Match","Exact","55 GRIZZ LN, INWOOD, WV, 25428",618013393,"L"
721722,"55 GROUNDS DR","SEDONA","AZ",86336,34.8691568290001,-111.793910689,222,"55 GROUNDS DR, SEDONA, AZ, 86336","Match","Exact","55 GROUNDS DR, SEDONA, AZ, 86336",159473911,"L"
721723,"55 GULF STREET","SHREWSBURY","MA",1545,42.3073442,-71.722604351,223,"55 GULF STREET, SHREWSBURY, MA, 1545","Match","Exact","55 GULF ST, SHREWSBURY, MA, 01545",40061456,"L"
721724,"55 H ST","LEBANON","OR",97355,44.5294620220001,-122.908875221,224,"55 H ST, LEBANON, OR, 97355","Match","Exact","55 H ST, LEBANON, OR, 97355",156062651,"R"
721725,"55 HACKBERRY DR","MT. WOLF","PA",17347,40.0252258200001,-76.696422806,225,"55 HACKBERRY DR, MT. WOLF, PA, 17347","Match","Exact","55 HACKBERRY DR, MOUNT WOLF, PA, 17347",88757993,"R"
721726,"55 HALLEY STREET","YONKERS","NY",10704,40.9207163930001,-73.849006534,226,"55 HALLEY STREET, YONKERS, NY, 10704","Match","Exact","55 HALLEY ST, YONKERS, NY, 10704",139746569,"L"
721727,"55 HALSEY ST","NEWARK","NJ",7102,40.7405678580001,-74.1712019409999,227,"55 HALSEY ST, NEWARK, NJ, 7102","Match","Exact","55 HALSEY ST, NEWARK, NJ, 07102",63467439,"R"
721728,"55 HAMILTON DRIVE","PORTSMOUTH","RI",2871,41.5901242840001,-71.2513735489999,228,"55 HAMILTON DRIVE, PORTSMOUTH, RI, 2871","Match","Exact","55 HAMILTON DR, PORTSMOUTH, RI, 02871",623996135,"R"
721729,"55 HANGING TREE GULCH","CLANCY","MT",59634,46.503115866,-111.938947505,229,"55 HANGING TREE GULCH, CLANCY, MT, 59634","Match","Non_Exact","55 HANGING TREE GULCH RD, CLANCY, MT, 59634",635535952,"L"
721730,"55 HANSON DRIVE","MOULTONBOROUGH","NH",3254,43.700549945,-71.424727979,230,"55 HANSON DRIVE, MOULTONBOROUGH, NH, 3254","Match","Exact","55 HANSON DR, MOULTONBOROUGH, NH, 03254",648182837,"L"
721731,"55 HARDING AVE","DOVER","NJ",7801,40.883309932,-74.54310871,231,"55 HARDING AVE, DOVER, NJ, 7801","Match","Exact","55 HARDING AVE, DOVER, NJ, 07801",640035339,"L"
721732,"55 HARDING AVENUE","DOVER","NJ",7801,40.883309932,-74.54310871,232,"55 HARDING AVENUE, DOVER, NJ, 7801","Match","Exact","55 HARDING AVE, DOVER, NJ, 07801",640035339,"L"
721733,"55 HARMONY LANE","EDINBURG","VA",22824,38.8756216030001,-78.5993615849999,233,"55 HARMONY LANE, EDINBURG, VA, 22824","Match","Exact","55 HARMONY LN, EDINBURG, VA, 22824",55936843,"L"
721734,"55 HARRIS AVENUE APT 2","PORTLAND","ME",4103,43.6981593080001,-70.304851554,234,"55 HARRIS AVENUE APT 2, PORTLAND, ME, 4103","Match","Exact","55 HARRIS AVE, PORTLAND, ME, 04103",78025195,"R"
721735,"55 HARRIS RD EXT","SALEM","CT",6420,41.4851128450001,-72.238876605,235,"55 HARRIS RD EXT, SALEM, CT, 6420","Match","Non_Exact","55 HARRIS RD EXD, SALEM, CT, 06420",633048543,"R"
721736,"55 HARRY S TRUMAN DRIVE","UPPER MARLBORO","MD",20774,38.8943039580001,-76.8391152199999,236,"55 HARRY S TRUMAN DRIVE, UPPER MARLBORO, MD, 20774","Match","Exact","55 HARRY S TRUMAN DR, UPPER MARLBORO, MD, 20774",76361730,"R"
721737,"55 HARVARD STREET UNIT 2","EVERETT","MA",2149,42.4085502710001,-71.040909966,237,"55 HARVARD STREET UNIT 2, EVERETT, MA, 2149","Match","Exact","55 HARVARD ST, EVERETT, MA, 02149",648791293,"R"
721738,"55 HATCHER LANE","UNION SPRINGS","AL",36089,32.084621923,-85.6896405799999,238,"55 HATCHER LANE, UNION SPRINGS, AL, 36089","Match","Exact","55 HATCHER LN, UNION SPRINGS, AL, 36089",69010276,"L"
721739,"55 HAVEN WAY","ASHLAND","MA",1721,42.244672839,-71.4752085169999,239,"55 HAVEN WAY, ASHLAND, MA, 1721","Match","Exact","55 HAVEN WAY, ASHLAND, MA, 01721",617660576,"R"
721740,"55 HAWTHORNE ROAD","BRAINTREE","MA",2184,42.2262653270001,-70.998467784,240,"55 HAWTHORNE ROAD, BRAINTREE, MA, 2184","Match","Non_Exact","55 HAWTHORN RD, BRAINTREE, MA, 02184",87250777,"R"
721741,"55 HAZE WAY","PHILLIPSBURG","NJ",8865,40.7191582830001,-75.168431977,241,"55 HAZE WAY, PHILLIPSBURG, NJ, 8865","Match","Exact","55 HAZE WAY, PHILLIPSBURG, NJ, 08865",98109517,"R"
721742,"55 HEATH ST","OAKLAND","ME",4963,44.5485284900001,-69.7240106369999,242,"55 HEATH ST, OAKLAND, ME, 4963","Match","Exact","55 HEATH ST, OAKLAND, ME, 04963",651752435,"R"
721743,"55 HEATHER LANE","TERRYVILLE","CT",6786,41.6372429190001,-72.9991830609999,243,"55 HEATHER LANE, TERRYVILLE, CT, 6786","Match","Exact","55 HEATHER LN, TERRYVILLE, CT, 06786",648842886,"L"
721744,"55 HENRY DEBLOUW","RILEY TWP","MI",48041,42.8972191390001,-82.8490040579999,244,"55 HENRY DEBLOUW, RILEY TWP, MI, 48041","Match","Non_Exact","55 HENRY DEBLOUW DR, RILEY, MI, 48041",618262480,"R"
721745,"55 HERITAGE WAY","OXFORD","AL",36203,33.577023497,-85.8462772829999,245,"55 HERITAGE WAY, OXFORD, AL, 36203","Match","Exact","55 HERITAGE WAY, OXFORD, AL, 36203",636442019,"L"
721746,"55 HERKIMER STREET","BROOKLYN","NY",11216,40.6797417160001,-73.9514210299999,246,"55 HERKIMER STREET, BROOKLYN, NY, 11216","Match","Exact","55 HERKIMER ST, BROOKLYN, NY, 11216",59078858,"L"
721747,"55 HERRICK ROAD","NEWTON","MA",2459,42.3284499430001,-71.193299242,247,"55 HERRICK ROAD, NEWTON, MA, 2459","Match","Exact","55 HERRICK RD, NEWTON, MA, 02459",86866180,"R"
721748,"55 HEWITT ST","ROCHESTER","NY",14612,43.2446260580001,-77.619797798,248,"55 HEWITT ST, ROCHESTER, NY, 14612","Match","Exact","55 HEWITT ST, ROCHESTER, NY, 14612",635860774,"L"
721749,"55 HICKORY AVE NW","MENAHGA","MN",56464,46.752906565,-95.108057549,249,"55 HICKORY AVE NW, MENAHGA, MN, 56464","Match","Exact","55 HICKORY AVE NW, MENAHGA, MN, 56464",168424080,"L"
721750,"55 HICKORY AVENUE NW","MENAHGA","MN",56464,46.752906565,-95.108057549,250,"55 HICKORY AVENUE NW, MENAHGA, MN, 56464","Match","Exact","55 HICKORY AVE NW, MENAHGA, MN, 56464",168424080,"L"
721751,"55 HICKORY RD","WOODBRIDGE","CT",6525,41.3610881050001,-73.029856164,251,"55 HICKORY RD, WOODBRIDGE, CT, 6525","Match","Exact","55 HICKORY RD, WOODBRIDGE, CT, 06525",3732353,"R"
721752,"55 HICKORY ROAD","WOODBRIDGE","CT",6525,41.3610881050001,-73.029856164,252,"55 HICKORY ROAD, WOODBRIDGE, CT, 6525","Match","Exact","55 HICKORY RD, WOODBRIDGE, CT, 06525",3732353,"R"
721753,"55 HIDDEN PINES CIRCLE","MERIDEN","CT",6510,NA,NA,253,"55 HIDDEN PINES CIRCLE, MERIDEN, CT, 6510","No_Match",NA,NA,NA,NA
721754,"55 HIDDEN VALLEY ROAD","SHOSHONI","WY",82649,43.134805724,-108.219606721,254,"55 HIDDEN VALLEY ROAD, SHOSHONI, WY, 82649","Match","Non_Exact","55 N HIDDEN VALLEY RD, SHOSHONI, WY, 82649",148472684,"L"
721755,"55 HIGH BANK DR","MISSOURI CITY","TX",77459,NA,NA,255,"55 HIGH BANK DR, MISSOURI CITY, TX, 77459","No_Match",NA,NA,NA,NA
721756,"55 HIGHLAND AVENUE","SUDBURY","MA",1776,42.3581904070001,-71.431969065,256,"55 HIGHLAND AVENUE, SUDBURY, MA, 1776","Match","Exact","55 HIGHLAND AVE, SUDBURY, MA, 01776",645360847,"R"
721757,"55 HIGHLAND TERRACE","FORDS","NJ",8863,40.5435626730001,-74.315705685,257,"55 HIGHLAND TERRACE, FORDS, NJ, 8863","Match","Exact","55 HIGHLAND TER, FORDS, NJ, 08863",60362339,"L"
721758,"55 HIGHWOOD ROAD","WEST ORANGE","NJ",7052,40.7805214810001,-74.254112462,258,"55 HIGHWOOD ROAD, WEST ORANGE, NJ, 7052","Match","Exact","55 HIGHWOOD RD, WEST ORANGE, NJ, 07052",63495526,"R"
721759,"55 HILL ROAD APT 603","BELMONT","MA",2478,42.3975709420001,-71.157535334,259,"55 HILL ROAD APT 603, BELMONT, MA, 2478","Match","Exact","55 HILL RD, BELMONT, MA, 02478",87127906,"R"
721760,"55 HILLCROFT WAY","WALNUT CREEK","CA",94597,37.8996799270001,-122.079563534,260,"55 HILLCROFT WAY, WALNUT CREEK, CA, 94597","Match","Exact","55 HILLCROFT WAY, WALNUT CREEK, CA, 94597",192049954,"L"
721761,"55 HILLHOUSE AVENUE","NEW HAVEN","CT",6511,41.3145455490001,-72.923158126,261,"55 HILLHOUSE AVENUE, NEW HAVEN, CT, 6511","Match","Exact","55 HILLHOUSE AVE, NEW HAVEN, CT, 06511",3701169,"R"
721762,"55 HOLLAND AVENUE APT 10A","STATEN ISLAND","NY",10303,40.6390942630001,-74.171243648,262,"55 HOLLAND AVENUE APT 10A, STATEN ISLAND, NY, 10303","Match","Exact","55 HOLLAND AVE, STATEN ISLAND, NY, 10303",612288482,"R"
721763,"55 HOLLOWAY RD","ROBBINSVILLE","NC",28771,35.3522916380001,-83.787826883,263,"55 HOLLOWAY RD, ROBBINSVILLE, NC, 28771","Match","Exact","55 HOLLOWAY RD, ROBBINSVILLE, NC, 28771",35962242,"L"
721764,"55 HOLLY RIDGE DRIVE","WASHINGTON","PA",15301,40.1552166390001,-80.239812732,264,"55 HOLLY RIDGE DRIVE, WASHINGTON, PA, 15301","Match","Non_Exact","55 HOLLY RIDGE RD, WASHINGTON, PA, 15301",645488355,"L"
721765,"55 HOLLYHOCK","LEVITTOWN","NY",11756,40.735240774,-73.526665269,265,"55 HOLLYHOCK, LEVITTOWN, NY, 11756","Match","Non_Exact","55 HOLLYHOCK RD, LEVITTOWN, NY, 11756",147633581,"L"
721766,"55 HOMESTEAD RD NE","NELSON","MN",56355,45.8900381540001,-95.279267413,266,"55 HOMESTEAD RD NE, NELSON, MN, 56355","Match","Exact","55 HOMESTEAD RD NE, NELSON, MN, 56355",204651963,"R"
721767,"55 HOPI TRAIL","OAK RIDGE","NJ",7438,41.0138038270001,-74.519114987,267,"55 HOPI TRAIL, OAK RIDGE, NJ, 7438","Match","Exact","55 HOPI TRL, OAK RIDGE, NJ, 07438",60426072,"L"
721768,"55 HOSMER ST","WEST BOYLSTON","MA",1583,42.394884145,-71.803557424,268,"55 HOSMER ST, WEST BOYLSTON, MA, 1583","Match","Exact","55 HOSMER ST, WEST BOYLSTON, MA, 01583",645570383,"L"
721769,"55 HOSMER STREET","WEST BOYLSTON","MA",1583,42.394884145,-71.803557424,269,"55 HOSMER STREET, WEST BOYLSTON, MA, 1583","Match","Exact","55 HOSMER ST, WEST BOYLSTON, MA, 01583",645570383,"L"
721770,"55 HOULIHAN RD","CARLISLE","WY",82721,NA,NA,270,"55 HOULIHAN RD, CARLISLE, WY, 82721","No_Match",NA,NA,NA,NA
721771,"55 HUDSON AVE","MAPLEWOOD","NJ",7040,40.734442534,-74.252797217,271,"55 HUDSON AVE, MAPLEWOOD, NJ, 7040","Match","Exact","55 HUDSON AVE, MAPLEWOOD, NJ, 07040",63463073,"R"
721772,"55 HUMINGBIRD LANE","NEWPORT","PA",17074,40.4975172810001,-77.057900092,272,"55 HUMINGBIRD LANE, NEWPORT, PA, 17074","Match","Non_Exact","55 HUMMINGBIRD LN, NEWPORT, PA, 17074",61083504,"L"
721773,"55 HUMMINGBIRD LANE","ORMOND BEACH","FL",32174,29.2740318510001,-81.1025052109999,273,"55 HUMMINGBIRD LANE, ORMOND BEACH, FL, 32174","Match","Exact","55 HUMMINGBIRD LN, ORMOND BEACH, FL, 32174",94515930,"R"
721774,"55 HUNDREDS RD","WESTBOROUGH","MA",1581,42.2843339560001,-71.5894083319999,274,"55 HUNDREDS RD, WESTBOROUGH, MA, 1581","Match","Exact","55 HUNDREDS RD, WESTBOROUGH, MA, 01581",40098149,"R"
721775,"55 HUNTERS TRAIL ROAD","WELLSBORO","PA",16901,NA,NA,275,"55 HUNTERS TRAIL ROAD, WELLSBORO, PA, 16901","No_Match",NA,NA,NA,NA
721776,"55 ILIMA KUAHIWI PL","KULA","HI",96790,20.7284349510001,-156.352349624,276,"55 ILIMA KUAHIWI PL, KULA, HI, 96790","Match","Exact","55 ILIMA KUAHIWI PL, KULA, HI, 96790",85102706,"L"
721777,"55 ILION ST","TONAWANDA","NY",14150,43.0034084760001,-78.872574769,277,"55 ILION ST, TONAWANDA, NY, 14150","Match","Exact","55 ILION ST, TONAWANDA, NY, 14150",48287527,"L"
721778,"55 ILION STREET","TONAWANDA","NY",14150,43.0034084760001,-78.872574769,278,"55 ILION STREET, TONAWANDA, NY, 14150","Match","Exact","55 ILION ST, TONAWANDA, NY, 14150",48287527,"L"
721779,"55 ILLINOIS ST","WORCESTER","MA",1610,42.2464511470001,-71.820436676,279,"55 ILLINOIS ST, WORCESTER, MA, 1610","Match","Exact","55 ILLINOIS ST, WORCESTER, MA, 01610",642605699,"L"
721780,"55 INDEPENDENCE AVE","STOUGHTON","MA",2072,42.1091354600001,-71.0811389959999,280,"55 INDEPENDENCE AVE, STOUGHTON, MA, 2072","Match","Exact","55 INDEPENDENCE AVE, STOUGHTON, MA, 02072",87267879,"R"
721781,"55 INDEPENDENCE DRIVE","EAST BRUNSWICK","NJ",8816,40.413394393,-74.434701796,281,"55 INDEPENDENCE DRIVE, EAST BRUNSWICK, NJ, 8816","Match","Exact","55 INDEPENDENCE DR, E BRUNSWICK, NJ, 08816",60361251,"L"
721782,"55 ISAACS AVENUE","PITTSGROVE","NJ",8318,39.517089008,-75.0861056219999,282,"55 ISAACS AVENUE, PITTSGROVE, NJ, 8318","Match","Exact","55 ISAACS AVE, PITTSGROVE, NJ, 08318",174413281,"R"
721783,"55 ISLE OF PARADISE ROAD","CRAWFORDVILLE","FL",32327,30.143100631,-84.29836783,283,"55 ISLE OF PARADISE ROAD, CRAWFORDVILLE, FL, 32327","Match","Exact","55 ISLE OF PARADISE RD, CRAWFORDVILLE, FL, 32327",83039326,"L"
721784,"55 JACQUES LANE","WINDHAM","ME",4062,43.7113621710001,-70.377501273,284,"55 JACQUES LANE, WINDHAM, ME, 4062","Match","Exact","55 JACQUES LN, WINDHAM, ME, 04062",635471107,"L"
721785,"55 JAMES NECK","SAINT JAMES","NY",11780,40.903997501,-73.2097822859999,285,"55 JAMES NECK, SAINT JAMES, NY, 11780","Match","Exact","55 JAMES NCK, SAINT JAMES, NY, 11780",625844067,"R"
721786,"55 JANE DR","ST. PETERS","MO",63376,38.778511591,-90.618267299,286,"55 JANE DR, ST. PETERS, MO, 63376","Match","Exact","55 JANE DR, SAINT PETERS, MO, 63376",100016907,"L"
721787,"55 JANELLE COURT","BEDMINSTER","NJ",7921,40.641777533,-74.6956194099999,287,"55 JANELLE COURT, BEDMINSTER, NJ, 7921","Match","Exact","55 JANELLE CT, BEDMINSTER, NJ, 07921",59961855,"L"
721788,"55 JANET PLACE","VALLEY STREAM","NY",11581,40.6480639870001,-73.7152805229999,288,"55 JANET PLACE, VALLEY STREAM, NY, 11581","Match","Exact","55 JANET PL, VALLEY STREAM, NY, 11581",147677150,"L"
721789,"55 JAPONICA CT","LAKE JACKSON","TX",77566,29.0419556780001,-95.4156323189999,289,"55 JAPONICA CT, LAKE JACKSON, TX, 77566","Match","Exact","55 JAPONICA CT, LAKE JACKSON, TX, 77566",116579976,"L"
721790,"55 JASTRAM STREET","PROVIDENCE","RI",2908,41.8366453720001,-71.442305214,290,"55 JASTRAM STREET, PROVIDENCE, RI, 2908","Match","Exact","55 JASTRAM ST, PROVIDENCE, RI, 02908",47495718,"R"
721791,"55 Jeffrey Drive","Amherst","NY",14228,43.031275388,-78.797469599,291,"55 Jeffrey Drive, Amherst, NY, 14228","Match","Exact","55 JEFFREY DR, AMHERST, NY, 14228",48284968,"R"
721792,"55 JEFFREY DRIVE","AMHERST","NY",14228,43.031275388,-78.797469599,292,"55 JEFFREY DRIVE, AMHERST, NY, 14228","Match","Exact","55 JEFFREY DR, AMHERST, NY, 14228",48284968,"R"
721793,"55 Jensen Rd","SAYREVILLE","NJ",8872,40.456782251,-74.3489343859999,293,"55 Jensen Rd, SAYREVILLE, NJ, 8872","Match","Exact","55 JENSEN RD, SAYREVILLE, NJ, 08872",60281994,"R"
721794,"55 JENSEN RD","SAYREVILLE","NJ",8872,40.456782251,-74.3489343859999,294,"55 JENSEN RD, SAYREVILLE, NJ, 8872","Match","Exact","55 JENSEN RD, SAYREVILLE, NJ, 08872",60281994,"R"
721795,"55 JOHN CLARKE ROAD SUITE B1","MIDDLETOWN","RI",2842,41.5021033100001,-71.286362012,295,"55 JOHN CLARKE ROAD SUITE B1, MIDDLETOWN, RI, 2842","Match","Exact","55 JOHN CLARKE RD, MIDDLETOWN, RI, 02842",47353993,"R"
721796,"55 JOHNSWOOD RD","ROSLINDALE","MA",2131,42.282521316,-71.122861724,296,"55 JOHNSWOOD RD, ROSLINDALE, MA, 2131","Match","Exact","55 JOHNSWOOD RD, ROSLINDALE, MA, 02131",85724611,"R"
721797,"55 JUNIPER RD","CENTERVILLE","MA",2632,41.6609060640001,-70.3394566709999,297,"55 JUNIPER RD, CENTERVILLE, MA, 2632","Match","Exact","55 JUNIPER RD, CENTERVILLE, MA, 02632",121556377,"L"
721798,"55 JUNIPER STREET","BEVERLY","MA",1915,42.568052381,-70.8065406549999,298,"55 JUNIPER STREET, BEVERLY, MA, 1915","Match","Exact","55 JUNIPER ST, BEVERLY, MA, 01915",86695949,"R"
721799,"55 KANON COURT","NEWTOWN","PA",18940,40.2216847120001,-74.9223865929999,299,"55 KANON COURT, NEWTOWN, PA, 18940","Match","Exact","55 KANON CT, NEWTOWN, PA, 18940",134731409,"R"
721800,"55 KATHY COURT","CANTON","GA",30114,34.1551056550001,-84.5219788369999,300,"55 KATHY COURT, CANTON, GA, 30114","Match","Exact","55 KATHY CT, CANTON, GA, 30114",68832877,"R"
721801,"55 KELLY RD","RED HOOK","NY",12571,42.0155574340001,-73.90282476,301,"55 KELLY RD, RED HOOK, NY, 12571","Match","Exact","55 KELLY RD, RED HOOK, NY, 12571",4164322,"R"
721802,"55 KELLY STREET","GATES","NC",27937,36.501380528,-76.7259696359999,302,"55 KELLY STREET, GATES, NC, 27937","Match","Exact","55 KELLY ST, GATES, NC, 27937",18581882,"R"
721803,"55 KENT STREET","TEWKSBURY","MA",1876,42.5906483900001,-71.226639548,303,"55 KENT STREET, TEWKSBURY, MA, 1876","Match","Exact","55 KENT ST, TEWKSBURY, MA, 01876",86907663,"R"
721804,"55 KEYSTONE DR","BELGRADE","MT",59714,45.7852269700001,-111.227511667,304,"55 KEYSTONE DR, BELGRADE, MT, 59714","Match","Exact","55 KEYSTONE DR, BELGRADE, MT, 59714",638536962,"L"
721805,"55 KING AVENUE","MALTON","NJ",8053,39.8990077550001,-74.925103228,305,"55 KING AVENUE, MALTON, NJ, 8053","Match","Non_Exact","55 KING AVE, MARLTON, NJ, 08053",134036693,"R"
721806,"55 KINGSBURY DRIVE","HOLLISTON","MA",1746,42.184399544,-71.4550801409999,306,"55 KINGSBURY DRIVE, HOLLISTON, MA, 1746","Match","Exact","55 KINGSBURY DR, HOLLISTON, MA, 01746",616538367,"L"
721807,"55 KLEIN STREET","WALTERBORO","SC",29488,32.902160237,-80.6687052509999,307,"55 KLEIN STREET, WALTERBORO, SC, 29488","Match","Exact","55 KLEIN ST, WALTERBORO, SC, 29488",19156089,"R"
721808,"55 KNOLLS CRESCENT APT 11J","BRONX","NY",10463,40.878848453,-73.918293532,308,"55 KNOLLS CRESCENT APT 11J, BRONX, NY, 10463","Match","Exact","55 KNOLLS CRES, BRONX, NY, 10463",80312926,"L"
721809,"55 LA BARRANCA","SEDONA","AZ",86351,NA,NA,309,"55 LA BARRANCA, SEDONA, AZ, 86351","Tie",NA,NA,NA,NA
721810,"55 LA SALLE STREET APT 20A","NEW YORK","NY",10027,40.8127630980001,-73.957172698,310,"55 LA SALLE STREET APT 20A, NEW YORK, NY, 10027","Match","Non_Exact","55 LA SALLE ST, NEW YORK, NY, 10027",610217344,"R"
721811,"55 LAFAYETTE ROAD","NORTH HAMPTON","NH",3862,42.997536558,-70.815996884,311,"55 LAFAYETTE ROAD, NORTH HAMPTON, NH, 3862","Match","Non_Exact","55 LAFAYETTE TER, NORTH HAMPTON, NH, 03862",113675616,"R"
721812,"55 LAFAYETTE STREET","HUNTINGTON","NY",11743,40.84349301,-73.369523548,312,"55 LAFAYETTE STREET, HUNTINGTON, NY, 11743","Match","Exact","55 LAFAYETTE ST, HUNTINGTON, NY, 11743",113968170,"L"
721813,"55 LAFAYETTE","ATLANTA","GA",30309,NA,NA,313,"55 LAFAYETTE, ATLANTA, GA, 30309","No_Match",NA,NA,NA,NA
721814,"55 LAKE DELAWARE DRIVE","DELHI","NY",13753,42.2464596890001,-74.8285445559999,314,"55 LAKE DELAWARE DRIVE, DELHI, NY, 13753","Match","Exact","55 LAKE DELAWARE DR, DELHI, NY, 13753",41567057,"R"
721815,"55 LAKE DRIVE WEST","WESTMINSTER","MA",1473,42.536682555,-71.942095912,315,"55 LAKE DRIVE WEST, WESTMINSTER, MA, 1473","Match","Exact","55 LAKE DR W, WESTMINSTER, MA, 01473",40094986,"R"
721816,"55 LAKE HAVASU AVE S F165","LAKE HAVASU CITY","AZ",86403,34.4730734880001,-114.342996279,316,"55 LAKE HAVASU AVE S F165, LAKE HAVASU CITY, AZ, 86403","Match","Exact","55 LAKE HAVASU AVE S, LAKE HAVASU CITY, AZ, 86403",608968526,"L"
721817,"55 LAKE HAVASU AVE S SUITE F-204","LAKE HAVASU CITY","AZ",86403,34.4730734880001,-114.342996279,317,"55 LAKE HAVASU AVE S SUITE F-204, LAKE HAVASU CITY, AZ, 86403","Match","Exact","55 LAKE HAVASU AVE S, LAKE HAVASU CITY, AZ, 86403",608968526,"L"
721818,"55 LAKESIDE RD","MAHOPAC","NY",10541,41.381991188,-73.757331785,318,"55 LAKESIDE RD, MAHOPAC, NY, 10541","Match","Exact","55 LAKESIDE RD, MAHOPAC, NY, 10541",139699878,"R"
721819,"55 LAKESIDE ROAD","MOUNT DESERT","ME",4660,44.3361393120001,-68.345120767,319,"55 LAKESIDE ROAD, MOUNT DESERT, ME, 4660","Match","Exact","55 LAKESIDE RD, MOUNT DESERT, ME, 04660",624893417,"R"
721820,"55 LAKEVIEW AVENUE","CASSADAGA","NY",14718,42.342073692,-79.316656899,320,"55 LAKEVIEW AVENUE, CASSADAGA, NY, 14718","Match","Exact","55 LAKEVIEW AVE, CASSADAGA, NY, 14718",120788540,"R"
721821,"55 LANDS END WAY","SWANSEA","MA",2777,41.721726554,-71.196891184,321,"55 LANDS END WAY, SWANSEA, MA, 2777","Match","Exact","55 LANDS END WAY, SWANSEA, MA, 02777",46767265,"L"
721822,"55 LANE ROAD","FAIRFIELD","NJ",7004,40.8959241750001,-74.279023885,322,"55 LANE ROAD, FAIRFIELD, NJ, 7004","Match","Exact","55 LANE RD, FAIRFIELD, NJ, 07004",63487303,"L"
721823,"55 LANG ROAD","RYE","NH",3870,43.0150813660001,-70.772676459,323,"55 LANG ROAD, RYE, NH, 3870","Match","Exact","55 LANG RD, RYE, NH, 03870",113667178,"L"
721824,"55 LANGLEY ROAD","KEENE","NH",3431,42.91944247,-72.351141664,324,"55 LANGLEY ROAD, KEENE, NH, 3431","Match","Exact","55 LANGLEY RD, KEENE, NH, 03431",124078627,"L"
721825,"55 LANIER RIDGE","ACWORTH","GA",30101,34.044927193,-84.7613209739999,325,"55 LANIER RIDGE, ACWORTH, GA, 30101","Match","Exact","55 LANIER RIDGE, ACWORTH, GA, 30101",645834168,"L"
721826,"55 LANIER RIDGE","ACWORTH","GU",30101,NA,NA,326,"55 LANIER RIDGE, ACWORTH, GU, 30101","No_Match",NA,NA,NA,NA
721827,"55 LARKSPUR LANE","ELIZABETHTOWN","PA",17022,40.137270179,-76.581454869,327,"55 LARKSPUR LANE, ELIZABETHTOWN, PA, 17022","Match","Exact","55 LARKSPUR LN, ELIZABETHTOWN, PA, 17022",179657410,"R"
721828,"55 LAS CASAS DRIVE","SAN RAFAEL","CA",94901,37.9792222020001,-122.493395919,328,"55 LAS CASAS DRIVE, SAN RAFAEL, CA, 94901","Match","Exact","55 LAS CASAS DR, SAN RAFAEL, CA, 94901",192767781,"L"
721829,"55 LASALLE STREET","NEW YORK","NY",10027,NA,NA,329,"55 LASALLE STREET, NEW YORK, NY, 10027","No_Match",NA,NA,NA,NA
721830,"55 LATO RD","PHENIX CITY","AL",36875,32.339250217,-85.1096706929999,330,"55 LATO RD, PHENIX CITY, AL, 36875","Match","Non_Exact","55 LATO RD, SEALE, AL, 36875",69282036,"R"
721831,"55 LAUREL LANE","LEVITTOWN","PA",19054,40.15266086,-74.815232913,331,"55 LAUREL LANE, LEVITTOWN, PA, 19054","Match","Exact","55 LAUREL LN, LEVITTOWN, PA, 19054",134737519,"L"
721832,"55 LEDRICK CIRCLE","MAYFLOWER","AR",72106,34.960064383,-92.429209306,332,"55 LEDRICK CIRCLE, MAYFLOWER, AR, 72106","Match","Exact","55 LEDRICK CIR, MAYFLOWER, AR, 72106",627036314,"L"
721833,"55 LEHIGH STREET APT 10","MACUNGIE","PA",18062,40.5168529380001,-75.555316096,333,"55 LEHIGH STREET APT 10, MACUNGIE, PA, 18062","Match","Exact","55 LEHIGH ST, MACUNGIE, PA, 18062",80765953,"L"
721834,"55 LENNOX RD","BROOKLYN","NY",11226,40.6536920840001,-73.957665307,334,"55 LENNOX RD, BROOKLYN, NY, 11226","Match","Non_Exact","55 LENOX RD, BROOKLYN, NY, 11226",59079526,"L"
721835,"55 LEWISTON ST","BROCKTON","MA",2302,42.0786670200001,-70.981423537,335,"55 LEWISTON ST, BROCKTON, MA, 2302","Match","Exact","55 LEWISTON ST, BROCKTON, MA, 02302",87483135,"R"
721836,"55 LIGHTHOUSE COURT","ATLANTIC CITY","NJ",8401,39.3746261420001,-74.419965384,336,"55 LIGHTHOUSE COURT, ATLANTIC CITY, NJ, 8401","Match","Exact","55 LIGHTHOUSE CT, ATLANTIC CITY, NJ, 08401",636219374,"R"
721837,"55 LINCOLCDALE DR","SAINT ALBANS","NY",11412,NA,NA,337,"55 LINCOLCDALE DR, SAINT ALBANS, NY, 11412","No_Match",NA,NA,NA,NA
721838,"55 LINCOLCDALE DR","WATERBURY","CT",6704,NA,NA,338,"55 LINCOLCDALE DR, WATERBURY, CT, 6704","No_Match",NA,NA,NA,NA
721839,"55 LINCOLN PARKWAY","LOWELL","MA",1851,42.628808065,-71.3416341659999,339,"55 LINCOLN PARKWAY, LOWELL, MA, 1851","Match","Exact","55 LINCOLN PKWY, LOWELL, MA, 01851",648061017,"R"
721840,"55 LINDEN BLVD 4K","BROOKLYN","NY",11226,40.652273608,-73.956919726,340,"55 LINDEN BLVD 4K, BROOKLYN, NY, 11226","Match","Exact","55 LINDEN BLVD, BROOKLYN, NY, 11226",59081355,"L"
721841,"55 LINDEN BLVD APT 4K","BROOKLYN","NY",11226,40.652273608,-73.956919726,341,"55 LINDEN BLVD APT 4K, BROOKLYN, NY, 11226","Match","Exact","55 LINDEN BLVD, BROOKLYN, NY, 11226",59081355,"L"
721842,"55 LINDEN BLVD SUITE 5R","BROOKLYN","NY",11226,40.652273608,-73.956919726,342,"55 LINDEN BLVD SUITE 5R, BROOKLYN, NY, 11226","Match","Exact","55 LINDEN BLVD, BROOKLYN, NY, 11226",59081355,"L"
721843,"55 LINDSEY LN","SHARPSBURG","GA",30277,33.3428776710001,-84.6662082939999,343,"55 LINDSEY LN, SHARPSBURG, GA, 30277","Match","Exact","55 LINDSEY LN, SHARPSBURG, GA, 30277",9335440,"R"
721844,"55 LINGAN STREET","HALIFAX","MA",2338,41.9991351240001,-70.849467593,344,"55 LINGAN STREET, HALIFAX, MA, 2338","Match","Exact","55 LINGAN ST, HALIFAX, MA, 02338",87446997,"R"
721845,"55 LITTLE CITY ROAD","KILLINGSWORTH","CT",6419,41.4223120390001,-72.6118884639999,345,"55 LITTLE CITY ROAD, KILLINGSWORTH, CT, 6419","Match","Non_Exact","55 LITTLE CITY RD, KILLINGWORTH, CT, 06419",636463042,"L"
721846,"55 LITTLE COMFORT ROAD","SAVANNAH","GA",31411,31.928619477,-81.0368493559999,346,"55 LITTLE COMFORT ROAD, SAVANNAH, GA, 31411","Match","Exact","55 LITTLE COMFORT RD, SAVANNAH, GA, 31411",6198052,"R"
721847,"55 LOBO ROAD","HARRINGTON","DE",19952,38.887200701,-75.661608433,347,"55 LOBO ROAD, HARRINGTON, DE, 19952","Match","Exact","55 LOBO RD, HARRINGTON, DE, 19952",68081458,"L"
721848,"55 LONE TREE ROAD","DENNISPORT","MA",2639,41.6646099500001,-70.146383881,348,"55 LONE TREE ROAD, DENNISPORT, MA, 2639","Match","Exact","55 LONE TREE RD, DENNISPORT, MA, 02639",121670421,"L"
721849,"55 LONG BOW CIR","MONUMENT","CO",80132,39.1126906380001,-104.82639385,349,"55 LONG BOW CIR, MONUMENT, CO, 80132","Match","Exact","55 LONG BOW CIR, MONUMENT, CO, 80132",105508189,"L"
721850,"55 LONG CREEK DRIVE","COVINGTON","GA",30016,33.535431067,-83.919511444,350,"55 LONG CREEK DRIVE, COVINGTON, GA, 30016","Match","Exact","55 LONG CREEK DR, COVINGTON, GA, 30016",638240119,"L"
721851,"55 LONG HILL TERRACE","NEW HAVEN","CT",6515,41.3282816760001,-72.98488378,351,"55 LONG HILL TERRACE, NEW HAVEN, CT, 6515","Match","Exact","55 LONG HILL TER, NEW HAVEN, CT, 06515",3697165,"R"
721852,"55 LONG RIDGE ROAD","SANBORNVILLE","NH",3872,43.614957415,-71.044902572,352,"55 LONG RIDGE ROAD, SANBORNVILLE, NH, 3872","Match","Exact","55 LONG RIDGE RD, SANBORNVILLE, NH, 03872",648965305,"L"
721853,"55 LONG VIEW CIRCLE","PELHAM","NH",3076,42.755021324,-71.360331615,353,"55 LONG VIEW CIRCLE, PELHAM, NH, 3076","Match","Non_Exact","55 LONGVIEW CIR, PELHAM, NH, 03076",113577124,"L"
721854,"55 LONGFELLOW DR","TIFFIN","OH",44883,41.1018919910001,-83.1940872929999,354,"55 LONGFELLOW DR, TIFFIN, OH, 44883","Match","Exact","55 LONGFELLOW DR, TIFFIN, OH, 44883",12966740,"R"
721855,"55 LONGFELLOW DRIVE","PALM COAST","FL",32137,29.6043014840001,-81.272188832,355,"55 LONGFELLOW DRIVE, PALM COAST, FL, 32137","Match","Exact","55 LONGFELLOW DR, PALM COAST, FL, 32137",636361133,"L"
721856,"55 LONGVIEW DRIVE","GENESEO","IL",61254,41.507780595,-90.1904579819999,356,"55 LONGVIEW DRIVE, GENESEO, IL, 61254","Match","Exact","55 LONGVIEW DR, GENESEO, IL, 61254",8916440,"R"
721857,"55 LUCE DEL SOLE","HENDERSON","NV",89011,36.11353215,-114.925708697,357,"55 LUCE DEL SOLE, HENDERSON, NV, 89011","Match","Exact","55 LUCE DEL SOLE, HENDERSON, NV, 89011",612988034,"R"
721858,"55 LUKE LANE","COVINGTON","GA",30014,NA,NA,358,"55 LUKE LANE, COVINGTON, GA, 30014","No_Match",NA,NA,NA,NA
721859,"55 LURE LANE","WENATCHEE","WA",98801,NA,NA,359,"55 LURE LANE, WENATCHEE, WA, 98801","No_Match",NA,NA,NA,NA
721860,"55 LUZANNE CIRCLE","SAN ANSELMO","CA",94960,38.0119048,-122.580791249,360,"55 LUZANNE CIRCLE, SAN ANSELMO, CA, 94960","Match","Exact","55 LUZANNE CIR, SAN ANSELMO, CA, 94960",605759966,"L"
721861,"55 LYDGATE","MEMPHIS","TN",38109,35.0374999790001,-90.063375053,361,"55 LYDGATE, MEMPHIS, TN, 38109","Match","Non_Exact","55 LYDGATE AVE, MEMPHIS, TN, 38109",72907186,"R"
721862,"55 LYNN STREET","AUSTIN","TX",78702,30.25259727,-97.725156532,362,"55 LYNN STREET, AUSTIN, TX, 78702","Match","Exact","55 LYNN ST, AUSTIN, TX, 78702",63948536,"R"
721863,"55 M ST NE APT 401","WASHINGTON","DC",20002,NA,NA,363,"55 M ST NE APT 401, WASHINGTON, DC, 20002","No_Match",NA,NA,NA,NA
721864,"55 M ST SE SUITE 103","WASHINGTON","DC",20003,NA,NA,364,"55 M ST SE SUITE 103, WASHINGTON, DC, 20003","No_Match",NA,NA,NA,NA
721865,"55 M STREET NE APT 108","WASHINGTON","DC",20002,38.905638407,-77.0072704849999,365,"55 M STREET NE APT 108, WASHINGTON, DC, 20002","Match","Exact","55 M ST NE, WASHINGTON, DC, 20002",638036723,"R"
721866,"55 M STREET NE UNIT 1030","WASHINGTON","DC",20002,38.905638407,-77.0072704849999,366,"55 M STREET NE UNIT 1030, WASHINGTON, DC, 20002","Match","Exact","55 M ST NE, WASHINGTON, DC, 20002",638036723,"R"
721867,"55 M STREET SE","WASHINGTON","DC",20003,38.876478144,-77.0068740579999,367,"55 M STREET SE, WASHINGTON, DC, 20003","Match","Exact","55 M ST SE, WASHINGTON, DC, 20003",76227222,"R"
721868,"55 MACOMB ROAD","WHITESBORO","TX",76273,NA,NA,368,"55 MACOMB ROAD, WHITESBORO, TX, 76273","No_Match",NA,NA,NA,NA
721869,"55 MADISION AVENUE SUITE 320A","MORRISTOWN","NJ",7960,NA,NA,369,"55 MADISION AVENUE SUITE 320A, MORRISTOWN, NJ, 7960","Tie",NA,NA,NA,NA
721870,"55 MADISON AVE STE 424","MORRISTOWN","NJ",7960,NA,NA,370,"55 MADISON AVE STE 424, MORRISTOWN, NJ, 7960","Tie",NA,NA,NA,NA
721871,"55 MADISON AVE SUITE 320A","MORRISTOWN","NJ",7960,NA,NA,371,"55 MADISON AVE SUITE 320A, MORRISTOWN, NJ, 7960","Tie",NA,NA,NA,NA
721872,"55 MADISON AVENUE SUITE 400","MORRISTOWN","NJ",7960,NA,NA,372,"55 MADISON AVENUE SUITE 400, MORRISTOWN, NJ, 7960","Tie",NA,NA,NA,NA
721873,"55 MAGAZINE STREET APT 62","CAMBRIDGE","MA",2139,42.3625008390001,-71.107356394,373,"55 MAGAZINE STREET APT 62, CAMBRIDGE, MA, 2139","Match","Exact","55 MAGAZINE ST, CAMBRIDGE, MA, 02139",86869855,"R"
721874,"55 MAIN SREET","EAST ROCHESTER","NH",3868,NA,NA,374,"55 MAIN SREET, EAST ROCHESTER, NH, 3868","No_Match",NA,NA,NA,NA
721875,"55 MAIN ST APT 11","MEDWAY","MA",2053,42.1537214840001,-71.4025183919999,375,"55 MAIN ST APT 11, MEDWAY, MA, 2053","Match","Exact","55 MAIN ST, MEDWAY, MA, 02053",87238781,"R"
721876,"55 MAIN ST","WICKFORD","RI",2852,41.5717766720001,-71.4501415839999,376,"55 MAIN ST, WICKFORD, RI, 2852","Match","Non_Exact","55 MAIN ST, NORTH KINGSTOWN, RI, 02852",58905289,"R"
721877,"55 MAIN STREET SUITE 104","WOONSOCKET","RI",2895,42.0016901650001,-71.5152019829999,377,"55 MAIN STREET SUITE 104, WOONSOCKET, RI, 2895","Match","Exact","55 MAIN ST, WOONSOCKET, RI, 02895",47489689,"R"
721878,"55 MAIN STREET UNIT 2","CHARLESTOWN","MA",2129,42.373404776,-71.0622992199999,378,"55 MAIN STREET UNIT 2, CHARLESTOWN, MA, 2129","Match","Exact","55 MAIN ST, CHARLESTOWN, MA, 02129",85709203,"R"
721879,"55 MAIN STREET","BINGHAMTON","NY",13905,42.099342758,-75.9205387439999,379,"55 MAIN STREET, BINGHAMTON, NY, 13905","Match","Exact","55 MAIN ST, BINGHAMTON, NY, 13905",46342254,"L"
721880,"55 MAIN STREET","BLOOMFIELD","NY",14469,42.9001199800001,-77.4254696369999,380,"55 MAIN STREET, BLOOMFIELD, NY, 14469","Match","Exact","55 MAIN ST, BLOOMFIELD, NY, 14469",13470889,"L"
721881,"55 MAIN STREET","EAST ROCHESTER","NH",3868,NA,NA,381,"55 MAIN STREET, EAST ROCHESTER, NH, 3868","No_Match",NA,NA,NA,NA
721882,"55 MALLORY AVENUE UNIT 60","JERSEY CITY","NJ",7305,NA,NA,382,"55 MALLORY AVENUE UNIT 60, JERSEY CITY, NJ, 7305","No_Match",NA,NA,NA,NA
721883,"55 MANN ROAD","WETUMPKA","AL",36092,32.684569821,-86.105120648,383,"55 MANN ROAD, WETUMPKA, AL, 36092","Match","Exact","55 MANN RD, WETUMPKA, AL, 36092",635634804,"L"
721884,"55 MANOR DR","BURLINGTON","NJ",8016,40.0899039540001,-74.809370222,384,"55 MANOR DR, BURLINGTON, NJ, 8016","Match","Exact","55 MANOR DR, BURLINGTON, NJ, 08016",134072848,"R"
721885,"55 MANOR DRIVE","SHIRLEY","NY",11967,40.750546758,-72.8776389069999,385,"55 MANOR DRIVE, SHIRLEY, NY, 11967","Match","Exact","55 MANOR DR, SHIRLEY, NY, 11967",114023438,"L"
721886,"55 MANSFIELD AVE","ROOSEVELT","NY",11575,40.6803102480001,-73.588092124,386,"55 MANSFIELD AVE, ROOSEVELT, NY, 11575","Match","Exact","55 MANSFIELD AVE, ROOSEVELT, NY, 11575",147828679,"L"
721887,"55 MAPLE ST APT 7","SPRINGFIELD","MA",1105,42.102042404,-72.5825937559999,387,"55 MAPLE ST APT 7, SPRINGFIELD, MA, 1105","Match","Exact","55 MAPLE ST, SPRINGFIELD, MA, 01105",4035181,"L"
721888,"55 MAPLE STREET APT 415","ATLANTA","GA",30314,33.757511558,-84.4053494469999,388,"55 MAPLE STREET APT 415, ATLANTA, GA, 30314","Match","Non_Exact","55 MAPLE ST NW, ATLANTA, GA, 30314",17342930,"R"
721889,"55 MAPLE STREET NW","ATLANTA","GA",30314,33.757511558,-84.4053494469999,389,"55 MAPLE STREET NW, ATLANTA, GA, 30314","Match","Exact","55 MAPLE ST NW, ATLANTA, GA, 30314",17342930,"R"
721890,"55 MAPLE STREET","DOBBS FERRY","NY",10522,41.016988864,-73.866577907,390,"55 MAPLE STREET, DOBBS FERRY, NY, 10522","Match","Exact","55 MAPLE ST, DOBBS FERRY, NY, 10522",139732185,"L"
721891,"55 MAPLE STREET","MILFORD","CT",6460,41.2292191490001,-73.0616192319999,391,"55 MAPLE STREET, MILFORD, CT, 6460","Match","Exact","55 MAPLE ST, MILFORD, CT, 06460",3742421,"L"
721892,"55 MAPLEHURST DR","NARRAGANSETT","RI",2882,41.4197183250001,-71.4800780899999,392,"55 MAPLEHURST DR, NARRAGANSETT, RI, 2882","Match","Exact","55 MAPLEHURST DR, NARRAGANSETT, RI, 02882",640067064,"L"
721893,"55 MAPLEWOOD COURT","DELMONT","PA",15626,40.4111196860001,-79.59012726,393,"55 MAPLEWOOD COURT, DELMONT, PA, 15626","Match","Exact","55 MAPLEWOOD CT, DELMONT, PA, 15626",52970731,"R"
721894,"55 MARA ROAD","LAKE HIAWATHA","NJ",7034,40.88762495,-74.3840602349999,394,"55 MARA ROAD, LAKE HIAWATHA, NJ, 7034","Match","Exact","55 MARA RD, LAKE HIAWATHA, NJ, 07034",60446006,"R"
721895,"55 MARBELLA DRIVE","RANCHO MIRAGE","CA",92270,33.7361569760001,-116.401003446,395,"55 MARBELLA DRIVE, RANCHO MIRAGE, CA, 92270","Match","Exact","55 MARBELLA DR, RANCHO MIRAGE, CA, 92270",194769277,"L"
721896,"55 MARBLE HOUSE DR","BEAR","DE",19701,39.5782486150001,-75.731399972,396,"55 MARBLE HOUSE DR, BEAR, DE, 19701","Match","Exact","55 MARBLE HOUSE DR, BEAR, DE, 19701",605777148,"L"
721897,"55 MARIETTA ST SUITE 1555","ATLANTA","AA",30303,NA,NA,397,"55 MARIETTA ST SUITE 1555, ATLANTA, AA, 30303","No_Match",NA,NA,NA,NA
721898,"55 MARILYN CIRCLE","RINGGOLD","GA",30736,34.917063682,-85.1040659179999,398,"55 MARILYN CIRCLE, RINGGOLD, GA, 30736","Match","Exact","55 MARILYN CIR, RINGGOLD, GA, 30736",636705677,"R"
721899,"55 MARKET STREET","PORTSMOUTH","NH",3801,43.0779346840001,-70.7574797779999,399,"55 MARKET STREET, PORTSMOUTH, NH, 3801","Match","Exact","55 MARKET ST, PORTSMOUTH, NH, 03801",113667220,"R"
721900,"55 MARLOW DR APT 3","OAKLAND","CA",94605,37.735776431,-122.138686952,400,"55 MARLOW DR APT 3, OAKLAND, CA, 94605","Match","Exact","55 MARLOW DR, OAKLAND, CA, 94605",606085174,"L"
721901,"55 MARMION STREET UNIT 2","BOSTON","MA",2130,42.313242159,-71.102658001,401,"55 MARMION STREET UNIT 2, BOSTON, MA, 2130","Match","Exact","55 MARMION ST, BOSTON, MA, 02130",85699827,"R"
721902,"55 MARTHA AVE","BUFFALO","NY",14215,42.934403876,-78.8115613419999,402,"55 MARTHA AVE, BUFFALO, NY, 14215","Match","Exact","55 MARTHA AVE, BUFFALO, NY, 14215",48297069,"R"
721903,"55 MARVIN AVENUE","HEMPSTEAD","NY",11550,40.699341374,-73.621277957,403,"55 MARVIN AVENUE, HEMPSTEAD, NY, 11550","Match","Exact","55 MARVIN AVE, HEMPSTEAD, NY, 11550",147628797,"L"
721904,"55 MATHER STREET","BOSTON","MA",2124,42.2937949820001,-71.06667248,404,"55 MATHER STREET, BOSTON, MA, 2124","Match","Exact","55 MATHER ST, BOSTON, MA, 02124",85702353,"R"
721905,"55 MAYFAIR AVENUE","FLORAL PARK","NY",11001,40.7191956890001,-73.712180576,405,"55 MAYFAIR AVENUE, FLORAL PARK, NY, 11001","Match","Exact","55 MAYFAIR AVE, FLORAL PARK, NY, 11001",147665138,"R"
721906,"55 MCKINLEY AVE","WHITE PLAINS","NY",10606,41.032250407,-73.7824114699999,406,"55 MCKINLEY AVE, WHITE PLAINS, NY, 10606","Match","Exact","55 MCKINLEY AVE, WHITE PLAINS, NY, 10606",139738867,"R"
721907,"55 MCKINLEY AVENUE","WHITE PLAINS","NY",10606,41.032250407,-73.7824114699999,407,"55 MCKINLEY AVENUE, WHITE PLAINS, NY, 10606","Match","Exact","55 MCKINLEY AVE, WHITE PLAINS, NY, 10606",139738867,"R"
721908,"55 MEADOW ROSE DRIVE","TRAVELERS REST","SC",29690,34.966180519,-82.4112895979999,408,"55 MEADOW ROSE DRIVE, TRAVELERS REST, SC, 29690","Match","Exact","55 MEADOW ROSE DR, TRAVELERS REST, SC, 29690",614102340,"L"
721909,"55 MEADOW STREET SUITE 222","BROOKLYN","NY",11206,40.711047792,-73.9350597059999,409,"55 MEADOW STREET SUITE 222, BROOKLYN, NY, 11206","Match","Exact","55 MEADOW ST, BROOKLYN, NY, 11206",59077343,"L"
721910,"55 MEADOWBROOK DRIVE","MCDONOUGH","GA",30253,33.47916443,-84.2146021139999,410,"55 MEADOWBROOK DRIVE, MCDONOUGH, GA, 30253","Match","Exact","55 MEADOWBROOK DR, MCDONOUGH, GA, 30253",23189625,"L"
721911,"55 MEADOWBROOK ROAD","CHELMSFORD","MA",1863,42.6268515350001,-71.3955881969999,411,"55 MEADOWBROOK ROAD, CHELMSFORD, MA, 1863","Match","Non_Exact","55 MEADOWBROOK RD, N CHELMSFORD, MA, 01863",646877025,"R"
721912,"55 MEADOWGATE BLVD","BEDFORD","OH",44146,41.4080413070001,-81.534849661,412,"55 MEADOWGATE BLVD, BEDFORD, OH, 44146","Match","Exact","55 MEADOWGATE BLVD, BEDFORD, OH, 44146",61130231,"L"
721913,"55 MEADOWVIEW DR","NORTHFIELD","IL",60093,42.0924384910001,-87.755332048,413,"55 MEADOWVIEW DR, NORTHFIELD, IL, 60093","Match","Exact","55 MEADOWVIEW DR, NORTHFIELD, IL, 60093",605012314,"R"
721914,"55 MELBOURNE ROAD","HYANNIS","MA",2601,41.6433463810001,-70.31241106,414,"55 MELBOURNE ROAD, HYANNIS, MA, 2601","Match","Exact","55 MELBOURNE RD, HYANNIS, MA, 02601",121557033,"L"
721915,"55 MERCHANT STREET     SUITE 1930","HONOLULU","HI",96813,21.309186019,-157.863065597,415,"55 MERCHANT STREET     SUITE 1930, HONOLULU, HI, 96813","Match","Exact","55 MERCHANT ST, HONOLULU, HI, 96813",203235966,"R"
721916,"55 MERCURY CIRCLE","SOUTH AMBOY","NJ",8879,40.4300283900001,-74.2895688999999,416,"55 MERCURY CIRCLE, SOUTH AMBOY, NJ, 8879","Match","Exact","55 MERCURY CIR, SOUTH AMBOY, NJ, 08879",60285946,"R"
721917,"55 MERIDIAN PARKWAY SUITE 103","MARTINSBURG","WV",25404,NA,NA,417,"55 MERIDIAN PARKWAY SUITE 103, MARTINSBURG, WV, 25404","No_Match",NA,NA,NA,NA
721918,"55 MILLWOOD DRIVE","MIDDLETOWN","DE",19709,39.522383785,-75.771587951,418,"55 MILLWOOD DRIVE, MIDDLETOWN, DE, 19709","Match","Exact","55 MILLWOOD DR, MIDDLETOWN, DE, 19709",187292272,"R"
721919,"55 MINERVA STREET","SAN FRANCISCO","CA",94112,37.7157434980001,-122.454429413,419,"55 MINERVA STREET, SAN FRANCISCO, CA, 94112","Match","Exact","55 MINERVA ST, SAN FRANCISCO, CA, 94112",192299354,"L"
721920,"55 MITCHELL BLVD  SUITE 16","SAN RAFAEL","CA",94903,38.0169200510001,-122.53827438,420,"55 MITCHELL BLVD  SUITE 16, SAN RAFAEL, CA, 94903","Match","Exact","55 MITCHELL BLVD, SAN RAFAEL, CA, 94903",192762421,"L"
721921,"55 MITCHELL BLVD SUITE 16","SAN RAFAEL","CA",94903,38.0169200510001,-122.53827438,421,"55 MITCHELL BLVD SUITE 16, SAN RAFAEL, CA, 94903","Match","Exact","55 MITCHELL BLVD, SAN RAFAEL, CA, 94903",192762421,"L"
721922,"55 MOHAWK PATH TRL","THE WOODLANDS","TX",77389,30.1412721350001,-95.52448255,422,"55 MOHAWK PATH TRL, THE WOODLANDS, TX, 77389","Match","Exact","55 MOHAWK PATH TRL, THE WOODLANDS, TX, 77389",624605806,"R"
721923,"55 MOLLIE RD","PONCE DE LEON","FL",32455,30.4301503090001,-85.983563492,423,"55 MOLLIE RD, PONCE DE LEON, FL, 32455","Match","Non_Exact","55 MOLLIE LN, PONCE DE LEON, FL, 32455",32998690,"L"
721924,"55 MONTGOMERY STREET","PARISH","NY",13131,43.402485723,-76.12980397,424,"55 MONTGOMERY STREET, PARISH, NY, 13131","Match","Exact","55 MONTGOMERY ST, PARISH, NY, 13131",57806565,"L"
721925,"55 MONUMENT WALK","BROOKLYN","NY",11206,40.6959249650001,-73.979487432,425,"55 MONUMENT WALK, BROOKLYN, NY, 11206","Match","Non_Exact","55 MONUMENT WALK, BROOKLYN, NY, 11205",59100588,"L"
721926,"55 MORAN PLACE","LARCHMONT","NY",10538,40.9202564650001,-73.763763852,426,"55 MORAN PLACE, LARCHMONT, NY, 10538","Match","Exact","55 MORAN PL, LARCHMONT, NY, 10538",139752631,"R"
721927,"55 MORNINGSIDE DRIVE","LONGMEADOW","MA",1106,42.045717241,-72.580072812,427,"55 MORNINGSIDE DRIVE, LONGMEADOW, MA, 1106","Match","Exact","55 MORNINGSIDE DR, LONGMEADOW, MA, 01106",4038133,"R"
721928,"55 MORRILL RD","CANTERBURY","NH",3224,43.3294626790001,-71.556882252,428,"55 MORRILL RD, CANTERBURY, NH, 3224","Match","Exact","55 MORRILL RD, CANTERBURY, NH, 03224",117734570,"L"
721929,"55 MOSHOLU PKWY NORTH APT 5D","BRONX","NY",10467,40.8793075290001,-73.883153137,429,"55 MOSHOLU PKWY NORTH APT 5D, BRONX, NY, 10467","Match","Exact","55 MOSHOLU PKWY N, BRONX, NY, 10467",80296693,"L"
721930,"55 MULBERRY ROAD","BRISTOL","RI",2809,41.693679522,-71.28778477,430,"55 MULBERRY ROAD, BRISTOL, RI, 2809","Match","Exact","55 MULBERRY RD, BRISTOL, RI, 02809",46480675,"L"
721931,"55 MURRAY STREET","PROVIDENCE","RI",2909,41.8089520730001,-71.459999222,431,"55 MURRAY STREET, PROVIDENCE, RI, 2909","Match","Exact","55 MURRAY ST, PROVIDENCE, RI, 02909",47459376,"R"
721932,"55 MYRTLE AVENUE","MONTCLAIR","NJ",7042,40.813539727,-74.224392135,432,"55 MYRTLE AVENUE, MONTCLAIR, NJ, 7042","Match","Exact","55 MYRTLE AVE, MONTCLAIR, NJ, 07042",63448179,"R"
721933,"55 N 13ST  A","SAN JOSE","CA",95122,NA,NA,433,"55 N 13ST  A, SAN JOSE, CA, 95122","No_Match",NA,NA,NA,NA
721934,"55 N 5000 W RD","KANKAKEE","IL",60901,41.1192099890001,-87.971481387,434,"55 N 5000 W RD, KANKAKEE, IL, 60901","Match","Non_Exact","55 N 5000W RD, KANKAKEE, IL, 60901",637786433,"R"
721935,"55 N ARBOR TRAIL  UNIT 507","PARK FOREST","IL",60466,NA,NA,435,"55 N ARBOR TRAIL  UNIT 507, PARK FOREST, IL, 60466","Tie",NA,NA,NA,NA
721936,"55 N ARCADIAN CIRCLE APT 104","MEMPHIS","TN",38103,NA,NA,436,"55 N ARCADIAN CIRCLE APT 104, MEMPHIS, TN, 38103","Tie",NA,NA,NA,NA
721937,"55 N BROAD ST","PHILADELPHIA","PA",19107,39.9536651330001,-75.1632412879999,437,"55 N BROAD ST, PHILADELPHIA, PA, 19107","Match","Exact","55 N BROAD ST, PHILADELPHIA, PA, 19107",131407678,"R"
721938,"55 N HEREFORD LN","MADISON","IN",47250,38.7400747520001,-85.485784955,438,"55 N HEREFORD LN, MADISON, IN, 47250","Match","Exact","55 N HEREFORD LN, MADISON, IN, 47250",31396839,"L"
721939,"55 N HILLSIDE RD","CANFIELD","OH",44406,41.026457259,-80.74996299,439,"55 N HILLSIDE RD, CANFIELD, OH, 44406","Match","Exact","55 N HILLSIDE RD, CANFIELD, OH, 44406",64593098,"L"
721940,"55 N LOUDVILLE ROAD","FLORENCE","MA",1062,NA,NA,440,"55 N LOUDVILLE ROAD, FLORENCE, MA, 1062","Tie",NA,NA,NA,NA
721941,"55 N MEADOWBROOK DRIVE","ALPINE","UT",84004,40.454042615,-111.761643333,441,"55 N MEADOWBROOK DRIVE, ALPINE, UT, 84004","Match","Exact","55 N MEADOWBROOK DR, ALPINE, UT, 84004",134256981,"R"
721942,"55 N PARK AVE UNIT 3402","TUCSON","AZ",85719,32.2217203660001,-110.956349387,442,"55 N PARK AVE UNIT 3402, TUCSON, AZ, 85719","Match","Non_Exact","55 N PARK AVE, TUCSON, AZ, 85719",121171383,"L"
721943,"55 N PLEASANT ST","MIDDLEBURY","VT",5753,44.017814919,-73.166661103,443,"55 N PLEASANT ST, MIDDLEBURY, VT, 5753","Match","Exact","55 N PLEASANT ST, MIDDLEBURY, VT, 05753",136445354,"R"
721944,"55 N RANCHWOOD BLVD 210","YUKON","OK",73099,35.5083482900001,-97.738669013,444,"55 N RANCHWOOD BLVD 210, YUKON, OK, 73099","Match","Non_Exact","55 N RANCHWOOD BLVD, YUKON, OK, 73099",92556417,"R"
721945,"55 N ROUTE O","ROCHEPORT","MO",65279,38.9548407520001,-92.49607101,445,"55 N ROUTE O, ROCHEPORT, MO, 65279","Match","Exact","55 RTE O, ROCHEPORT, MO, 65279",633440721,"R"
721946,"55 NASH ST","NEW HAVEN","CT",6511,41.3176148910001,-72.9093159719999,446,"55 NASH ST, NEW HAVEN, CT, 6511","Match","Exact","55 NASH ST, NEW HAVEN, CT, 06511",3702904,"R"
721947,"55 NASSAU ST","DRACUT","MA",1826,42.6599279430001,-71.272187388,447,"55 NASSAU ST, DRACUT, MA, 1826","Match","Exact","55 NASSAU ST, DRACUT, MA, 01826",86878086,"R"
721948,"55 NELSON LANE","CHICO","TX",76431,NA,NA,448,"55 NELSON LANE, CHICO, TX, 76431","No_Match",NA,NA,NA,NA
721949,"55 NEWTON SPARTA RD UNIT 107","NEWTON","NJ",7860,41.042468043,-74.7337803579999,449,"55 NEWTON SPARTA RD UNIT 107, NEWTON, NJ, 7860","Match","Exact","55 NEWTON SPARTA RD, NEWTON, NJ, 07860",98003713,"R"
721950,"55 NICOLE DRIVE","DECATUR","AL",35603,34.516855826,-86.8890966009999,450,"55 NICOLE DRIVE, DECATUR, AL, 35603","Match","Exact","55 NICOLE DR, DECATUR, AL, 35603",623845184,"R"
721951,"55 NICOLE DRIVE","INDEPENDENCE","KY",41051,38.952868063,-84.5448348359999,451,"55 NICOLE DRIVE, INDEPENDENCE, KY, 41051","Match","Exact","55 NICOLE DR, INDEPENDENCE, KY, 41051",641546331,"R"
721952,"55 NIGHTINGALE TRAIL","ENON","OH",45323,39.8438208220001,-83.9300739989999,452,"55 NIGHTINGALE TRAIL, ENON, OH, 45323","Match","Exact","55 NIGHTINGALE TRL, ENON, OH, 45323",135014186,"L"
721953,"55 NINTH ST APT 1505","SAN FRANCISCO","CA",94103,37.776952614,-122.415602772,453,"55 NINTH ST APT 1505, SAN FRANCISCO, CA, 94103","Match","Exact","55 9TH ST, SAN FRANCISCO, CA, 94103",640935878,"L"
721954,"55 NOMAD TRAIL","CAMDEN","DE",19934,39.1054023890001,-75.535262298,454,"55 NOMAD TRAIL, CAMDEN, DE, 19934","Match","Exact","55 NOMAD TRL, CAMDEN, DE, 19934",68105845,"L"
721955,"55 NORMAN ROAD","NEW ROCHELLE","NY",10804,40.9364758,-73.799219004,455,"55 NORMAN ROAD, NEW ROCHELLE, NY, 10804","Match","Exact","55 NORMAN RD, NEW ROCHELLE, NY, 10804",139749439,"R"
721956,"55 NORTH 25TH ST","BATTLE CREEK","MI",49015,42.306852233,-85.225167965,456,"55 NORTH 25TH ST, BATTLE CREEK, MI, 49015","Match","Exact","55 N 25TH ST, BATTLE CREEK, MI, 49015",11711557,"L"
721957,"55 NORTH 5 TH","BROOKLYN","NY",11249,40.7184889800001,-73.9617141269999,457,"55 NORTH 5 TH, BROOKLYN, NY, 11249","Match","Non_Exact","55 N 5TH ST, BROOKLYN, NY, 11249",59075919,"L"
721958,"55 NORTH 6TH STREET","NEWARK","NJ",7107,40.7503232780001,-74.191731066,458,"55 NORTH 6TH STREET, NEWARK, NJ, 7107","Match","Exact","55 N 6TH ST, NEWARK, NJ, 07107",63472143,"R"
721959,"55 NORTH CHURCH STREET","FAIRHOPE","AL",36532,30.52501031,-87.904798398,459,"55 NORTH CHURCH STREET, FAIRHOPE, AL, 36532","Match","Exact","55 N CHURCH ST, FAIRHOPE, AL, 36532",131649504,"R"
721960,"55 NORTH POINT DRIVE","MOUNTAIN HOME","AR",72653,NA,NA,460,"55 NORTH POINT DRIVE, MOUNTAIN HOME, AR, 72653","No_Match",NA,NA,NA,NA
721961,"55 NORTH ROOSEVELT AVE","BEXLEY","OH",43209,39.9719125820001,-82.925667877,461,"55 NORTH ROOSEVELT AVE, BEXLEY, OH, 43209","Match","Exact","55 N ROOSEVELT AVE, BEXLEY, OH, 43209",135590791,"L"
721962,"55 NORTH WATER ST APT 410","NORWALK","CT",6854,41.099715577,-73.416207879,462,"55 NORTH WATER ST APT 410, NORWALK, CT, 6854","Match","Exact","55 N WATER ST, NORWALK, CT, 06854",3251265,"R"
721963,"55 NORTH WEED BLVD","WEED","CA",96094,41.422218892,-122.386231113,463,"55 NORTH WEED BLVD, WEED, CA, 96094","Match","Exact","55 N WEED BLVD, WEED, CA, 96094",647747582,"R"
721964,"55 NORTHWOOD DRIVE  APT 39","SANDY SPRINGS","GA",30342,33.9110819360001,-84.3858516179999,464,"55 NORTHWOOD DRIVE  APT 39, SANDY SPRINGS, GA, 30342","Match","Non_Exact","55 NORTHWOOD DR NE, SANDY SPRINGS, GA, 30342",650228235,"R"
721965,"55 NULL LANE","DAVISVILLE","WV",26142,39.200072409,-81.4577704499999,465,"55 NULL LANE, DAVISVILLE, WV, 26142","Match","Exact","55 NULL LN, DAVISVILLE, WV, 26142",90916128,"R"
721966,"55 OAK GROVE DRIVE","BYHALIA","MS",38611,34.9929811120001,-89.686899554,466,"55 OAK GROVE DRIVE, BYHALIA, MS, 38611","Match","Exact","55 OAK GROVE DR, BYHALIA, MS, 38611",72840019,"L"
721967,"55 OAK MANOR WAY","SACRAMENTO","CA",95838,38.6371424880001,-121.467474148,467,"55 OAK MANOR WAY, SACRAMENTO, CA, 95838","Match","Exact","55 OAK MANOR WAY, SACRAMENTO, CA, 95838",618062807,"L"
721968,"55 OAK ST","MILFORD","NH",3055,42.8285178460001,-71.650642236,468,"55 OAK ST, MILFORD, NH, 3055","Match","Exact","55 OAK ST, MILFORD, NH, 03055",113542408,"R"
721969,"55 OAK STREET","NORWOOD","NJ",7648,40.9969485390001,-73.953446965,469,"55 OAK STREET, NORWOOD, NJ, 7648","Match","Exact","55 OAK ST, NORWOOD, NJ, 07648",638992913,"L"
721970,"55 OAK TREE CIRCLE","CONWAY","AR",72032,35.0826983760001,-92.3449078849999,470,"55 OAK TREE CIRCLE, CONWAY, AR, 72032","Match","Exact","55 OAK TREE CIR, CONWAY, AR, 72032",627649676,"R"
721971,"55 OAKHILL DRIVE","BELLEVILLE","IL",62223,38.557925396,-90.056312028,471,"55 OAKHILL DRIVE, BELLEVILLE, IL, 62223","Match","Non_Exact","55 OAK HILL DR, BELLEVILLE, IL, 62223",647671177,"R"
721972,"55 OAKLAND AVE","LYNN","MA",1905,42.4626959660001,-70.9877584659999,472,"55 OAKLAND AVE, LYNN, MA, 1905","Match","Exact","55 OAKLAND AVE, LYNN, MA, 01905",86675738,"R"
721973,"55 OAKLAWN DRIVE","COVINGTON","LA",70433,30.425476369,-90.114643761,473,"55 OAKLAWN DRIVE, COVINGTON, LA, 70433","Match","Exact","55 OAKLAWN DR, COVINGTON, LA, 70433",111306104,"R"
721974,"55 OAKWOOD BLVD","POUGHKEEPSIE","NY",12603,41.683980547,-73.913403267,474,"55 OAKWOOD BLVD, POUGHKEEPSIE, NY, 12603","Match","Exact","55 OAKWOOD BLVD, POUGHKEEPSIE, NY, 12603",4168405,"L"
721975,"55 OIL MILL ROAD NO 12","DANBURY","CT",6810,41.388043607,-73.537300488,475,"55 OIL MILL ROAD NO 12, DANBURY, CT, 6810","Match","Non_Exact","55 MILL RD, DANBURY, CT, 06810",625077033,"L"
721976,"55 OLCOTT AVE","CROTON-ON-HUDSON","NY",10520,41.202631554,-73.882318533,476,"55 OLCOTT AVE, CROTON-ON-HUDSON, NY, 10520","Match","Exact","55 OLCOTT AVE, CROTON ON HUDSON, NY, 10520",139726036,"L"
721977,"55 OLD FORT DRIVE","HILTON HEAD ISLAND","SC",29926,32.251150743,-80.7379968659999,477,"55 OLD FORT DRIVE, HILTON HEAD ISLAND, SC, 29926","Match","Exact","55 OLD FORT DR, HILTON HEAD ISLAND, SC, 29926",614689229,"L"
721978,"55 OLD FORT RD","HILTON HEAD","SC",29926,NA,NA,478,"55 OLD FORT RD, HILTON HEAD, SC, 29926","Tie",NA,NA,NA,NA
721979,"55 OLD FREDERICK RD","ARNOLD","MD",21012,39.027054859,-76.4958114139999,479,"55 OLD FREDERICK RD, ARNOLD, MD, 21012","Match","Exact","55 OLD FREDERICK RD, ARNOLD, MD, 21012",606920593,"R"
721980,"55 OLD GOLDEN BLUE LANE","MORGANTOWN","WV",26505,39.639369108,-79.954119581,480,"55 OLD GOLDEN BLUE LANE, MORGANTOWN, WV, 26505","Match","Exact","55 OLD GOLDEN BLUE LN, MORGANTOWN, WV, 26505",648488946,"L"
721981,"55 OLD HANCOCK ROAD","HANOCK","NH",3449,42.966053813,-71.9795302329999,481,"55 OLD HANCOCK ROAD, HANOCK, NH, 3449","Match","Non_Exact","55 OLD HANCOCK RD, HANCOCK, NH, 03449",113563765,"L"
721982,"55 OLD ROUTE 89","LEBANON","CT",6249,41.674729692,-72.232044958,482,"55 OLD ROUTE 89, LEBANON, CT, 6249","Match","Exact","55 OLD RTE 89, LEBANON, CT, 06249",56867116,"L"
721983,"55 OLD STAGE COACH ROAD","ANDVOER","NJ",7821,40.972080722,-74.7220801459999,483,"55 OLD STAGE COACH ROAD, ANDVOER, NJ, 7821","Match","Non_Exact","55 OLD STAGE COACH RD, ANDOVER, NJ, 07821",636498348,"R"
721984,"55 ORIOLE DRIVE","STEVENS","PA",17578,40.218412148,-76.12613005,484,"55 ORIOLE DRIVE, STEVENS, PA, 17578","Match","Exact","55 ORIOLE DR, STEVENS, PA, 17578",179690959,"R"
721985,"55 OTTAWA AVE SW STE 516","GRAND RAPIDS","MI",49503,42.96142852,-85.672307884,485,"55 OTTAWA AVE SW STE 516, GRAND RAPIDS, MI, 49503","Match","Exact","55 OTTAWA AVE SW, GRAND RAPIDS, MI, 49503",636531764,"L"
721986,"55 OTTAWA SW APT 606","GRAND RAPIDS","MI",49503,42.96142852,-85.672307884,486,"55 OTTAWA SW APT 606, GRAND RAPIDS, MI, 49503","Match","Non_Exact","55 OTTAWA AVE SW, GRAND RAPIDS, MI, 49503",636531764,"L"
721987,"55 OVERLOOK DRIVE","GROTON","MA",1450,42.652596531,-71.564422715,487,"55 OVERLOOK DRIVE, GROTON, MA, 1450","Match","Exact","55 OVERLOOK DR, GROTON, MA, 01450",86932051,"L"
721988,"55 OVERLOOK DRIVE","JACKSON","NJ",8527,40.1257145210001,-74.3828844939999,488,"55 OVERLOOK DRIVE, JACKSON, NJ, 8527","Match","Exact","55 OVERLOOK DR, JACKSON, NJ, 08527",642917370,"L"
721989,"55 OVERLOOK DRIVE","WOODSTOCK","NY",12498,42.0364673920001,-74.148699413,489,"55 OVERLOOK DRIVE, WOODSTOCK, NY, 12498","Match","Exact","55 OVERLOOK DR, WOODSTOCK, NY, 12498",41860301,"L"
721990,"55 OVERLOOK RD","MORRISTOWN","NJ",7960,40.7852536460001,-74.48442027,490,"55 OVERLOOK RD, MORRISTOWN, NJ, 7960","Match","Exact","55 OVERLOOK RD, MORRISTOWN, NJ, 07960",643822169,"R"
721991,"55 OVERWOOD ROAD","AKRON","OH",44313,41.1196325280001,-81.5892553529999,491,"55 OVERWOOD ROAD, AKRON, OH, 44313","Match","Exact","55 OVERWOOD RD, AKRON, OH, 44313",61337280,"R"
721992,"55 PACHET BROOK","LITTLE COMPTON","RI",2837,41.549310178,-71.17203037,492,"55 PACHET BROOK, LITTLE COMPTON, RI, 2837","Match","Non_Exact","55 PACHET BROOK RD, LITTLE COMPTON, RI, 02837",47345783,"L"
721993,"55 PADEREWSKI RD","OAK RIDGE","NJ",7438,40.998490545,-74.5297408449999,493,"55 PADEREWSKI RD, OAK RIDGE, NJ, 7438","Match","Exact","55 PADEREWSKI RD, OAK RIDGE, NJ, 07438",60472604,"R"
721994,"55 PALISADE DR","ST AUGUSTINE","FL",32092,NA,NA,494,"55 PALISADE DR, ST AUGUSTINE, FL, 32092","No_Match",NA,NA,NA,NA
721995,"55 PAMELA DRIVE","LAKEWOOD","NJ",8701,40.1011753330001,-74.251677276,495,"55 PAMELA DRIVE, LAKEWOOD, NJ, 8701","Match","Exact","55 PAMELA DR, LAKEWOOD, NJ, 08701",617585577,"R"
721996,"55 PARADE PLACE APT F8","BROOKLYN","NY",11226,40.65167662,-73.9651850559999,496,"55 PARADE PLACE APT F8, BROOKLYN, NY, 11226","Match","Exact","55 PARADE PL, BROOKLYN, NY, 11226",59080866,"L"
721997,"55 PARISH RD","NEW CANAAN","CT",6840,NA,NA,497,"55 PARISH RD, NEW CANAAN, CT, 6840","Tie",NA,NA,NA,NA
721998,"55 PARK PLACE","ATLANTA","GA",30303,33.756050148,-84.387671217,498,"55 PARK PLACE, ATLANTA, GA, 30303","Match","Non_Exact","55 PARK PL NE, ATLANTA, GA, 30303",17344550,"R"
721999,"55 PARK TER","MOUNTAIN TOP","PA",18707,41.1563272120001,-75.944897113,499,"55 PARK TER, MOUNTAIN TOP, PA, 18707","Match","Exact","55 PARK TER, MOUNTAIN TOP, PA, 18707",80921060,"R"
722000,"55 PARK TERRACE EAST APT B30","NEW YORK","NY",10034,40.870688505,-73.916246598,500,"55 PARK TERRACE EAST APT B30, NEW YORK, NY, 10034","Match","Exact","55 PARK TER E, NEW YORK, NY, 10034",59658928,"L"
