"ID","Address","City","State","Zip","lat","long","id","input_address","match_indicator","match_type","matched_address","tiger_line_id","tiger_side"
507001,"3208 THATCHER AVENUE","MARINA DEL REY","CA",90292,33.986572972,-118.448320806,1,"3208 THATCHER AVENUE, MARINA DEL REY, CA, 90292","Match","Exact","3208 THATCHER AVE, MARINA DEL REY, CA, 90292",141577135,"L"
507002,"3208 TOWNVIEW AVENUE","SAINT ANTHONY","MN",55418,45.025055077,-93.215421448,2,"3208 TOWNVIEW AVENUE, SAINT ANTHONY, MN, 55418","Match","Non_Exact","3208 TOWNVIEW AVE NE, SAINT ANTHONY, MN, 55418",43836234,"R"
507003,"3208 TREEWOOD LANE","CARY","NC",27539,35.694251765,-78.7760914949999,3,"3208 TREEWOOD LANE, CARY, NC, 27539","Match","Non_Exact","3208 TREEWOOD LN, APEX, NC, 27539",72536152,"L"
507004,"3208 UNDERWOOD DRIVE","WHITELAND","IN",46184,39.5739788970001,-86.1246892189999,4,"3208 UNDERWOOD DRIVE, WHITELAND, IN, 46184","Match","Exact","3208 UNDERWOOD DR, WHITELAND, IN, 46184",641441010,"R"
507005,"3208 VALLEY WOOD DR","COLUMBUS","OH",43223,39.9188508070001,-83.078953025,5,"3208 VALLEY WOOD DR, COLUMBUS, OH, 43223","Match","Non_Exact","3208 VALLEYWOOD DR, COLUMBUS, OH, 43223",218676310,"R"
507006,"3208 VALLEYVIEW","COLUMBUS","OH",43223,NA,NA,6,"3208 VALLEYVIEW, COLUMBUS, OH, 43223","No_Match",NA,NA,NA,NA
507007,"3208 W GADSDEN STREET","PENSACOLA","FL",32505,30.4202458300001,-87.2538060099999,7,"3208 W GADSDEN STREET, PENSACOLA, FL, 32505","Match","Exact","3208 W GADSDEN ST, PENSACOLA, FL, 32505",93215138,"R"
507008,"3208 W GLENROSA AVE","PHOENIX","AZ",85017,33.498587335,-112.128091831,8,"3208 W GLENROSA AVE, PHOENIX, AZ, 85017","Match","Exact","3208 W GLENROSA AVE, PHOENIX, AZ, 85017",128199260,"R"
507009,"3208 W LISBON LN","PHOENIX","AZ",85053,33.619642222,-112.127314816,9,"3208 W LISBON LN, PHOENIX, AZ, 85053","Match","Exact","3208 W LISBON LN, PHOENIX, AZ, 85053",639809766,"R"
507010,"3208 W LOWER BUCKEYE ROAD","PHOENIX","AZ",85009,33.4224468850001,-112.130711076,10,"3208 W LOWER BUCKEYE ROAD, PHOENIX, AZ, 85009","Match","Exact","3208 W LOWER BUCKEYE RD, PHOENIX, AZ, 85009",638286400,"R"
507011,"3208 W OXFORD ST","PHILADELPHIA","PA",19121,39.9810460400001,-75.1873584269999,11,"3208 W OXFORD ST, PHILADELPHIA, PA, 19121","Match","Exact","3208 W OXFORD ST, PHILADELPHIA, PA, 19121",131403485,"L"
507012,"3208 W ROSEBURY LN","DUNLAP","IL",61525,40.821617733,-89.642132227,12,"3208 W ROSEBURY LN, DUNLAP, IL, 61525","Match","Exact","3208 W ROSEBURY LN, DUNLAP, IL, 61525",617273778,"L"
507013,"3208 W SUBLET ROAD","ARLINGTON","TX",76017,32.6486284900001,-97.158350825,13,"3208 W SUBLET ROAD, ARLINGTON, TX, 76017","Match","Non_Exact","3208 W SUBLETT RD, ARLINGTON, TX, 76017",102130789,"L"
507014,"3208 W WABANSIA AVE APT 1E","CHICAGO","IL",60647,41.9119417430001,-87.707319356,14,"3208 W WABANSIA AVE APT 1E, CHICAGO, IL, 60647","Match","Non_Exact","3208 W WABANSIA AVE, CHICAGO, IL, 60647",616791086,"R"
507015,"3208 WAIALAE AV","HONOLULU","HI",96816,21.287223651,-157.807739092,15,"3208 WAIALAE AV, HONOLULU, HI, 96816","Match","Exact","3208 WAIALAE AVE, HONOLULU, HI, 96816",203242407,"L"
507016,"3208 WEST LISBON AVE","MILWAUKEE","WI",53206,43.054276992,-87.954245051,16,"3208 WEST LISBON AVE, MILWAUKEE, WI, 53206","Match","Non_Exact","3208 W LISBON AVE, MILWAUKEE, WI, 53208",635660998,"R"
507017,"3208 WEST TYLER AVE","FAIRFIELD","IA",52556,40.9979832400001,-92.0019555389999,17,"3208 WEST TYLER AVE, FAIRFIELD, IA, 52556","Match","Exact","3208 W TYLER AVE, FAIRFIELD, IA, 52556",84427434,"L"
507018,"3208 WESTCHESTER CT","SAINT CHARLES","MO",63033,NA,NA,18,"3208 WESTCHESTER CT, SAINT CHARLES, MO, 63033","No_Match",NA,NA,NA,NA
507019,"3208 WILD OAK TRAIL","GRAPEVINE","TX",76051,32.89525337,-97.11391746,19,"3208 WILD OAK TRAIL, GRAPEVINE, TX, 76051","Match","Exact","3208 WILD OAK TRL, GRAPEVINE, TX, 76051",618010152,"R"
507020,"3208 WISTERIA AVENUE","BALTIMORE","MD",21214,39.3503823510001,-76.5575456879999,20,"3208 WISTERIA AVENUE, BALTIMORE, MD, 21214","Match","Exact","3208 WISTERIA AVE, BALTIMORE, MD, 21214",206410825,"L"
507021,"3208-C E COLONIAL DRIVE 288","ORLANDO","FL",32803,28.553246716,-81.3435494839999,21,"3208-C E COLONIAL DRIVE 288, ORLANDO, FL, 32803","Match","Exact","3208 E COLONIAL DR, ORLANDO, FL, 32803",638651831,"R"
507022,"32082 CAMINO CAPISTRANO","SAN JUAN CAPISTRANO","CA",92675,NA,NA,22,"32082 CAMINO CAPISTRANO, SAN JUAN CAPISTRANO, CA, 92675","No_Match",NA,NA,NA,NA
507023,"32084 E STATE HWY 76","ROCKY COMFORT","MO",64861,36.7480609460001,-94.0754386519999,23,"32084 E STATE HWY 76, ROCKY COMFORT, MO, 64861","Match","Exact","32084 STATE HWY 76, ROCKY COMFORT, MO, 64861",49432413,"R"
507024,"32088 HIGHWAY 11","BURAS","LA",70041,29.4103592060001,-89.610961451,24,"32088 HIGHWAY 11, BURAS, LA, 70041","Match","Exact","32088 HWY 11, BURAS, LA, 70041",614425176,"L"
507025,"3209 171ST PL SE","BOTHELL","WA",98012,47.8424053580001,-122.189080622,25,"3209 171ST PL SE, BOTHELL, WA, 98012","Match","Exact","3209 171ST PL SE, BOTHELL, WA, 98012",608928277,"R"
507026,"3209 217TH PLACE SE","BOTHELL","WA",98021,47.8006516820001,-122.18955133,26,"3209 217TH PLACE SE, BOTHELL, WA, 98021","Match","Exact","3209 217TH PL SE, BOTHELL, WA, 98021",636783724,"L"
507027,"3209 21ST ST","SIOUX CITY","IA",51105,42.512707048,-96.368472042,27,"3209 21ST ST, SIOUX CITY, IA, 51105","Match","Exact","3209 21ST ST, SIOUX CITY, IA, 51105",93436143,"L"
507028,"3209 3RD AVE","RICHMOND","VA",23222,37.5721294080001,-77.414975887,28,"3209 3RD AVE, RICHMOND, VA, 23222","Match","Exact","3209 3RD AVE, RICHMOND, VA, 23222",201548175,"R"
507029,"3209 55TH AVE","GULFPORT","MS",39501,30.3895251710001,-89.127661841,29,"3209 55TH AVE, GULFPORT, MS, 39501","Match","Exact","3209 55TH AVE, GULFPORT, MS, 39501",111434415,"L"
507030,"3209 58TH STREET SOUTH APT 136","GULFPORT","FL",33707,27.739268257,-82.711930216,30,"3209 58TH STREET SOUTH APT 136, GULFPORT, FL, 33707","Match","Exact","3209 58TH ST S, GULFPORT, FL, 33707",124708986,"R"
507031,"3209 80TH AVE NORTH","BROOKLYN PARK MINNEA","MN",55443,45.100483196,-93.322493761,31,"3209 80TH AVE NORTH, BROOKLYN PARK MINNEA, MN, 55443","Match","Non_Exact","3209 80TH AVE N, BROOKLYN PARK, MN, 55443",43852187,"L"
507032,"3209 98TH ST SE","ZEELAND","ND",58581,45.9988290380001,-99.7108848459999,32,"3209 98TH ST SE, ZEELAND, ND, 58581","Match","Exact","3209 98TH ST SE, ZEELAND, ND, 58581",198126570,"R"
507033,"3209 AMPERE AVE PVT","BRONX","NY",10465,NA,NA,33,"3209 AMPERE AVE PVT, BRONX, NY, 10465","No_Match",NA,NA,NA,NA
507034,"3209 AMPERE AVE","BRONX","NY",10465,40.8462456410001,-73.820751668,34,"3209 AMPERE AVE, BRONX, NY, 10465","Match","Exact","3209 AMPERE AVE, BRONX, NY, 10465",80306793,"L"
507035,"3209 ATHENS DRIVE","CORINTH","TX",76049,33.131916414,-97.059213397,35,"3209 ATHENS DRIVE, CORINTH, TX, 76049","Match","Non_Exact","3209 ATHENS DR, CORINTH, TX, 76210",103389751,"R"
507036,"3209 AUSTIN","AMARILLO","TX",79109,NA,NA,36,"3209 AUSTIN, AMARILLO, TX, 79109","No_Match",NA,NA,NA,NA
507037,"3209 BISCO DRIVE","KNOXVILLE","TN",37931,35.977534145,-84.120126065,37,"3209 BISCO DRIVE, KNOXVILLE, TN, 37931","Match","Exact","3209 BISCO DR, KNOXVILLE, TN, 37931",42665825,"R"
507038,"3209 BRUNO DR","CHESAPEAKE","VA",23323,36.7820378850001,-76.3563419119999,38,"3209 BRUNO DR, CHESAPEAKE, VA, 23323","Match","Exact","3209 BRUNO DR, CHESAPEAKE, VA, 23323",121768878,"L"
507039,"3209 BRUNO DRIVE","CHESAPEAKE","VA",23323,36.7820378850001,-76.3563419119999,39,"3209 BRUNO DRIVE, CHESAPEAKE, VA, 23323","Match","Exact","3209 BRUNO DR, CHESAPEAKE, VA, 23323",121768878,"L"
507040,"3209 BRYKER DRIVE","AUSTIN","TX",78703,30.304651581,-97.754455558,40,"3209 BRYKER DRIVE, AUSTIN, TX, 78703","Match","Exact","3209 BRYKER DR, AUSTIN, TX, 78703",63942043,"R"
507041,"3209 BUTTERY DR","HUNTSVILLE","AL",35810,34.766642044,-86.639649989,41,"3209 BUTTERY DR, HUNTSVILLE, AL, 35810","Match","Non_Exact","3209 BUTTREY DR NW, HUNTSVILLE, AL, 35810",58112878,"L"
507042,"3209 CAROLINE DR","EAST PETERSBURG","PA",17520,40.1033667520001,-76.349762136,42,"3209 CAROLINE DR, EAST PETERSBURG, PA, 17520","Match","Exact","3209 CAROLINE DR, E PETERSBURG, PA, 17520",179660441,"R"
507043,"3209 CARPENTER CREEK PL","CARY","NC",27519,35.8129218990001,-78.861995909,43,"3209 CARPENTER CREEK PL, CARY, NC, 27519","Match","Exact","3209 CARPENTER CREEK PL, CARY, NC, 27519",651065654,"L"
507044,"3209 CATSKILL CT","/ LEXINGTON,","KY",40515,37.9806908570001,-84.461116304,44,"3209 CATSKILL CT, / LEXINGTON,, KY, 40515","Match","Non_Exact","3209 CATSKILL CT, LEXINGTON, KY, 40515",31928674,"R"
507045,"3209 CENTERVILLE NEWMANS RD","PROSPECT","OH",43302,NA,NA,45,"3209 CENTERVILLE NEWMANS RD, PROSPECT, OH, 43302","No_Match",NA,NA,NA,NA
507046,"3209 CENTERVILLE NEWMANS RD","PROSPECT","OH",43342,40.4941874790001,-83.2061957189999,46,"3209 CENTERVILLE NEWMANS RD, PROSPECT, OH, 43342","Match","Non_Exact","3209 CENTERVILLE NEWMAN RD, PROSPECT, OH, 43342",12704726,"R"
507047,"3209 CHENNAULT ST","BELLEVUE","NE",68147,41.125880943,-95.960416475,47,"3209 CHENNAULT ST, BELLEVUE, NE, 68147","Match","Non_Exact","3209 CHENNAULT ST, BELLEVUE, NE, 68123",28496057,"R"
507048,"3209 COLONEL CIRCLE","GARLAND","TX",75043,32.8779042960001,-96.610728694,48,"3209 COLONEL CIRCLE, GARLAND, TX, 75043","Match","Exact","3209 COLONEL CIR, GARLAND, TX, 75043",102929287,"R"
507049,"3209 COPPER SUNSET AVENUE","NORTH LAS VEGAS","NV",89081,36.2664724260001,-115.102855756,49,"3209 COPPER SUNSET AVENUE, NORTH LAS VEGAS, NV, 89081","Match","Exact","3209 COPPER SUNSET AVE, N LAS VEGAS, NV, 89081",632848307,"R"
507050,"3209 CORNHUSKER DRIVE","OMAHA","NE",68124,41.227899591,-96.047480123,50,"3209 CORNHUSKER DRIVE, OMAHA, NE, 68124","Match","Exact","3209 CORNHUSKER DR, OMAHA, NE, 68124",116981131,"L"
507051,"3209 CR 919","BURLESON","TX",76028,32.526885355,-97.407756992,51,"3209 CR 919, BURLESON, TX, 76028","Match","Exact","3209 CO RD 919, BURLESON, TX, 76028",634282024,"L"
507052,"3209 CROSSPOINT CT N","LAFAYETTE","IN",47909,40.3702768750001,-86.8769404719999,52,"3209 CROSSPOINT CT N, LAFAYETTE, IN, 47909","Match","Exact","3209 CROSSPOINT CT N, LAFAYETTE, IN, 47909",27318776,"R"
507053,"3209 DEKALB BLVD","EAST NORRITON","PA",19401,40.1468363700001,-75.309097524,53,"3209 DEKALB BLVD, EAST NORRITON, PA, 19401","Match","Exact","3209 DEKALB BLVD, EAST NORRITON, PA, 19401",135075914,"R"
507054,"3209 DRAKE SPRINGS LN","PEARLAND","TX",77584,29.550686022,-95.411924955,54,"3209 DRAKE SPRINGS LN, PEARLAND, TX, 77584","Match","Exact","3209 DRAKE SPRINGS LN, PEARLAND, TX, 77584",627492527,"L"
507055,"3209 E 10TH ST APT V14","BLOOMINGTON","IN",47408,NA,NA,55,"3209 E 10TH ST APT V14, BLOOMINGTON, IN, 47408","No_Match",NA,NA,NA,NA
507056,"3209 EAST CANDYTUFT STREET","SALT LAKE CITY","UT",84121,40.621939282,-111.803309082,56,"3209 EAST CANDYTUFT STREET, SALT LAKE CITY, UT, 84121","Match","Exact","3209 E CANDYTUFT ST, SALT LAKE CITY, UT, 84121",176095675,"L"
507057,"3209 EDGEWOOD AVE S","ST. LOUIS PARK","MN",55426,44.9457008730001,-93.361735744,57,"3209 EDGEWOOD AVE S, ST. LOUIS PARK, MN, 55426","Match","Exact","3209 EDGEWOOD AVE S, SAINT LOUIS PARK, MN, 55426",43625574,"L"
507058,"3209 EPWORTH AVE","CINCINNATI","OH",45211,39.1441151390001,-84.600406902,58,"3209 EPWORTH AVE, CINCINNATI, OH, 45211","Match","Exact","3209 EPWORTH AVE, CINCINNATI, OH, 45211",103917662,"L"
507059,"3209 FALCON RIDGE WAY","BILLINGS","MT",59106,45.8035599240001,-108.675334479,59,"3209 FALCON RIDGE WAY, BILLINGS, MT, 59106","Match","Exact","3209 FALCON RIDGE WAY, BILLINGS, MT, 59106",617863305,"L"
507060,"3209 FIR AVE","ALAMEDA","CA",94502,37.733634189,-122.242996099,60,"3209 FIR AVE, ALAMEDA, CA, 94502","Match","Exact","3209 FIR AVE, ALAMEDA, CA, 94502",125007147,"L"
507061,"3209 FORESTBROOK","RICHARDSON","TX",75082,32.9927396640001,-96.6417872599999,61,"3209 FORESTBROOK, RICHARDSON, TX, 75082","Match","Non_Exact","3209 FORESTBROOK DR, RICHARDSON, TX, 75082",638659804,"L"
507062,"3209 FOX HILL RD","SAINT CHARLES","MO",63301,38.8183927370001,-90.488737062,62,"3209 FOX HILL RD, SAINT CHARLES, MO, 63301","Match","Exact","3209 FOX HILL RD, SAINT CHARLES, MO, 63301",100020638,"L"
507063,"3209 GRESHAM LAKE RD SUITE 136","RALEIGH","NC",27615,35.8847952140001,-78.5821807679999,63,"3209 GRESHAM LAKE RD SUITE 136, RALEIGH, NC, 27615","Match","Exact","3209 GRESHAM LAKE RD, RALEIGH, NC, 27615",72506465,"L"
507064,"3209 HARCOURT WAY APT 302","MEMPHIS","TN",38119,35.060762074,-89.800105502,64,"3209 HARCOURT WAY APT 302, MEMPHIS, TN, 38119","Match","Exact","3209 HARCOURT WAY, MEMPHIS, TN, 38119",618412815,"R"
507065,"3209 HASTINGS CROSSING RD","TEXARKANA","AR",71854,33.3924532240001,-93.996200119,65,"3209 HASTINGS CROSSING RD, TEXARKANA, AR, 71854","Match","Exact","3209 HASTINGS CROSSING RD, TEXARKANA, AR, 71854",57287927,"R"
507066,"3209 HAUGHTON DRIVE","TOLEDO","OH",43606,41.680086815,-83.606475055,66,"3209 HAUGHTON DRIVE, TOLEDO, OH, 43606","Match","Exact","3209 HAUGHTON DR, TOLEDO, OH, 43606",33933308,"L"
507067,"3209 HERREN RD","DOYLINE","LA",71023,32.481229652,-93.3654003139999,67,"3209 HERREN RD, DOYLINE, LA, 71023","Match","Exact","3209 HERREN RD, DOYLINE, LA, 71023",73416343,"R"
507068,"3209 HURSTBOURNE SPRINGS D","LOUISVILLE","KY",40220,38.2037252900001,-85.6045693469999,68,"3209 HURSTBOURNE SPRINGS D, LOUISVILLE, KY, 40220","Match","Non_Exact","3209 HURSTBOURNE SPRINGS DR, LOUISVILLE, KY, 40220",96925822,"L"
507069,"3209 ILLINOIS LANE","BELLINGHAM","WA",98226,48.7678823970001,-122.430709476,69,"3209 ILLINOIS LANE, BELLINGHAM, WA, 98226","Match","Exact","3209 ILLINOIS LN, BELLINGHAM, WA, 98226",183772989,"L"
507070,"3209 KERBEY LN","AUSTIN","TX",78703,30.3037977610001,-97.7524460509999,70,"3209 KERBEY LN, AUSTIN, TX, 78703","Match","Exact","3209 KERBEY LN, AUSTIN, TX, 78703",63942333,"R"
507071,"3209 LA CRESTA","BAKERSFIELD","CA",93305,35.405132284,-118.992540941,71,"3209 LA CRESTA, BAKERSFIELD, CA, 93305","Match","Non_Exact","3209 LA CRESTA DR, BAKERSFIELD, CA, 93305",109087647,"R"
507072,"3209 LOCK ERNE AVENUE","KANNAPOLIS","NC",28081,35.463060839,-80.657037804,72,"3209 LOCK ERNE AVENUE, KANNAPOLIS, NC, 28081","Match","Exact","3209 LOCK ERNE AVE, KANNAPOLIS, NC, 28081",618563518,"L"
507073,"3209 MANASSAS RUN SW","DECATUR","AL",35603,34.548853948,-87.016437981,73,"3209 MANASSAS RUN SW, DECATUR, AL, 35603","Match","Exact","3209 MANASSAS RUN SW, DECATUR, AL, 35603",97127945,"R"
507074,"3209 MARTIN ROAD","PLEASANT PLAN","OH",45162,39.238595461,-84.0452797679999,74,"3209 MARTIN ROAD, PLEASANT PLAN, OH, 45162","Match","Non_Exact","3209 MARTIN RD, PLEASANT PLAIN, OH, 45162",118467192,"R"
507075,"3209 MASTERS CV","BRYANT","AR",72022,34.624786882,-92.507479943,75,"3209 MASTERS CV, BRYANT, AR, 72022","Match","Exact","3209 MASTERS COVE, BRYANT, AR, 72022",24208544,"L"
507076,"3209 MAYRIDGE COURT APT 11","CINCINNATI","OH",45211,39.1432123230001,-84.608603446,76,"3209 MAYRIDGE COURT APT 11, CINCINNATI, OH, 45211","Match","Exact","3209 MAYRIDGE CT, CINCINNATI, OH, 45211",640627633,"L"
507077,"3209 MEADOW WALK LANE","MONTGOMERY","AL",36116,32.3202414900001,-86.2423852219999,77,"3209 MEADOW WALK LANE, MONTGOMERY, AL, 36116","Match","Exact","3209 MEADOW WALK LN, MONTGOMERY, AL, 36116",1487105,"R"
507078,"3209 MILFORD AVENUE","BALTIMORE","MD",21207,39.3278044200001,-76.700703555,78,"3209 MILFORD AVENUE, BALTIMORE, MD, 21207","Match","Exact","3209 MILFORD AVE, BALTIMORE, MD, 21207",206430780,"R"
507079,"3209 N 36TH TER","ST JOSEPH","MO",64506,39.7984023540001,-94.804861944,79,"3209 N 36TH TER, ST JOSEPH, MO, 64506","Match","Exact","3209 N 36TH TER, SAINT JOSEPH, MO, 64506",15962509,"R"
507080,"3209 N 85TH STREET","KANSAS CITY","KS",66109,39.145134539,-94.777345756,80,"3209 N 85TH STREET, KANSAS CITY, KS, 66109","Match","Non_Exact","3209 N 85TH PL, KANSAS CITY, KS, 66109",91147491,"R"
507081,"3209 N AUSTRALIAN AVE","WEST PALM BEACH","FL",33407,26.742816455,-80.069843738,81,"3209 N AUSTRALIAN AVE, WEST PALM BEACH, FL, 33407","Match","Exact","3209 N AUSTRALIAN AVE, WEST PALM BEACH, FL, 33407",115277183,"L"
507082,"3209 N PANAMA AVE","CHICAGO","IL",60634,41.9380326040001,-87.828768833,82,"3209 N PANAMA AVE, CHICAGO, IL, 60634","Match","Exact","3209 N PANAMA AVE, CHICAGO, IL, 60634",605254171,"R"
507083,"3209 NANDINA ST","MCKINNEY","TX",75071,33.2218095970001,-96.654588372,83,"3209 NANDINA ST, MCKINNEY, TX, 75071","Match","Exact","3209 NANDINA ST, MCKINNEY, TX, 75071",619905190,"R"
507084,"3209 NANDINA STREAT","MCKINNEY","TX",75071,33.2218095970001,-96.654588372,84,"3209 NANDINA STREAT, MCKINNEY, TX, 75071","Match","Non_Exact","3209 NANDINA ST, MCKINNEY, TX, 75071",619905190,"R"
507085,"3209 NOTTINGHAM LN","COCOA","FL",32926,28.401943547,-80.749005487,85,"3209 NOTTINGHAM LN, COCOA, FL, 32926","Match","Exact","3209 NOTTINGHAM LN, COCOA, FL, 32926",93928754,"L"
507086,"3209 OLD HICKORY DR","LA PORTE","TX",77571,29.6605698980001,-95.067449776,86,"3209 OLD HICKORY DR, LA PORTE, TX, 77571","Match","Exact","3209 OLD HICKORY DR, LA PORTE, TX, 77571",96107266,"R"
507087,"3209 OVERSTREET LANE","ROYSE CITY","TX",75189,32.969938601,-96.296060905,87,"3209 OVERSTREET LANE, ROYSE CITY, TX, 75189","Match","Exact","3209 OVERSTREET LN, ROYSE CITY, TX, 75189",625994878,"L"
507088,"3209 OXFORD DR","DURHAM","NC",27707,35.9643126990001,-78.933943072,88,"3209 OXFORD DR, DURHAM, NC, 27707","Match","Exact","3209 OXFORD DR, DURHAM, NC, 27707",71740135,"L"
507089,"3209 PONTCHARTRAIN COURT","LEXINGTON","KY",40515,37.9850126860001,-84.4544931789999,89,"3209 PONTCHARTRAIN COURT, LEXINGTON, KY, 40515","Match","Exact","3209 PONTCHARTRAIN CT, LEXINGTON, KY, 40515",641325599,"R"
507090,"3209 POPE ST SE","WASHINGTON","DC",20020,38.8740558590001,-76.960425008,90,"3209 POPE ST SE, WASHINGTON, DC, 20020","Match","Exact","3209 POPE ST SE, WASHINGTON, DC, 20020",645508707,"R"
507091,"3209 PREBLE ST","BREMERTON","WA",98312,47.556430242,-122.65887834,91,"3209 PREBLE ST, BREMERTON, WA, 98312","Match","Exact","3209 PREBLE ST, BREMERTON, WA, 98312",616898588,"L"
507092,"3209 PRINCESS STREET","BEDFORD","TX",76021,32.8564553520001,-97.114211004,92,"3209 PRINCESS STREET, BEDFORD, TX, 76021","Match","Exact","3209 PRINCESS ST, BEDFORD, TX, 76021",101871995,"R"
507093,"3209 QUEENSBURY DR","VIRGINIA BEACH","VA",23452,36.856699651,-76.081058113,93,"3209 QUEENSBURY DR, VIRGINIA BEACH, VA, 23452","Match","Exact","3209 QUEENSBURY DR, VA BCH, VA, 23452",122268786,"L"
507094,"3209 RADCLIFF AVENUE","BRONX","NY",10469,40.8715852730001,-73.8603624579999,94,"3209 RADCLIFF AVENUE, BRONX, NY, 10469","Match","Exact","3209 RADCLIFF AVE, BRONX, NY, 10469",80303350,"L"
507095,"3209 REESE LANE","AZLE","TX",76020,32.854139203,-97.561630543,95,"3209 REESE LANE, AZLE, TX, 76020","Match","Exact","3209 REESE LN, AZLE, TX, 76020",103595667,"L"
507096,"3209 RIPPLE ROAD","WINDSOR MILL","MD",21244,39.3435612850001,-76.759563906,96,"3209 RIPPLE ROAD, WINDSOR MILL, MD, 21244","Match","Exact","3209 RIPPLE RD, WINDSOR MILL, MD, 21244",191503363,"R"
507097,"3209 RISING SUN RIDGE","WICKENBURG","AZ",85390,34.0265940670001,-112.800916414,97,"3209 RISING SUN RIDGE, WICKENBURG, AZ, 85390","Match","Exact","3209 RISING SUN RIDGE, WICKENBURG, AZ, 85390",649706556,"L"
507098,"3209 RIVERHEAD DRIVE","DELTONA","FL",32738,28.941891766,-81.174803309,98,"3209 RIVERHEAD DRIVE, DELTONA, FL, 32738","Match","Exact","3209 RIVERHEAD DR, DELTONA, FL, 32738",94504554,"L"
507099,"3209 RIVERSIDE AVE","JACKSONVILLE","FL",32205,30.3014675810001,-81.699481536,99,"3209 RIVERSIDE AVE, JACKSONVILLE, FL, 32205","Match","Exact","3209 RIVERSIDE AVE, JACKSONVILLE, FL, 32205",83913594,"R"
507100,"3209 ROCKY POINT RD NW","BREMERTON","WA",98312,47.5988236320001,-122.668471837,100,"3209 ROCKY POINT RD NW, BREMERTON, WA, 98312","Match","Exact","3209 ROCKY POINT RD NW, BREMERTON, WA, 98312",187640892,"L"
507101,"3209 S MANIFOLD AVE","SIOUX FALLS","SD",57110,43.516044439,-96.655840456,101,"3209 S MANIFOLD AVE, SIOUX FALLS, SD, 57110","Match","Exact","3209 S MANIFOLD AVE, SIOUX FALLS, SD, 57110",648133333,"R"
507102,"3209 S MEMORIAL DRIVE","TULSA","OK",74145,36.116059567,-95.8866128069999,102,"3209 S MEMORIAL DRIVE, TULSA, OK, 74145","Match","Exact","3209 S MEMORIAL DR, TULSA, OK, 74145",166453312,"L"
507103,"3209 S NEWCASTLE CT","SIOUX FALLS","SD",57110,43.5164144250001,-96.666875994,103,"3209 S NEWCASTLE CT, SIOUX FALLS, SD, 57110","Match","Exact","3209 S NEWCASTLE CT, SIOUX FALLS, SD, 57110",34993379,"R"
507104,"3209 S OKLAHOMA AVE","OKLAHOMA CITY","OK",73129,35.433104803,-97.5102800939999,104,"3209 S OKLAHOMA AVE, OKLAHOMA CITY, OK, 73129","Match","Exact","3209 S OKLAHOMA AVE, OKLAHOMA CITY, OK, 73129",100403781,"R"
507105,"3209 S RHODES AVE","CHICAGO","IL",60616,41.835509232,-87.61342458,105,"3209 S RHODES AVE, CHICAGO, IL, 60616","Match","Exact","3209 S RHODES AVE, CHICAGO, IL, 60616",111770346,"L"
507106,"3209 SAN SEBASTIAN DR","CARROLLTON","TX",75006,32.9575171320001,-96.8505870829999,106,"3209 SAN SEBASTIAN DR, CARROLLTON, TX, 75006","Match","Exact","3209 SAN SEBASTIAN DR, CARROLLTON, TX, 75006",102897345,"L"
507107,"3209 SENNADALE LANE","NASHVILLE","TN",37207,36.2367744740001,-86.775125488,107,"3209 SENNADALE LANE, NASHVILLE, TN, 37207","Match","Exact","3209 SENNADALE LN, NASHVILLE, TN, 37207",97186568,"L"
507108,"3209 SMITH VALLEY RD STE 146","GREENWOOD","IN",46142,39.605798866,-86.1631834139999,108,"3209 SMITH VALLEY RD STE 146, GREENWOOD, IN, 46142","Match","Non_Exact","3209 W SMITH VALLEY RD, GREENWOOD, IN, 46142",617333825,"R"
507109,"3209 SOUTHEAST 20TH COURT","RENTON","WA",98058,47.4624869960001,-122.176089488,109,"3209 SOUTHEAST 20TH COURT, RENTON, WA, 98058","Match","Exact","3209 SE 20TH CT, RENTON, WA, 98058",186632936,"R"
507110,"3209 SOUTHERN AVENUE","BALTIMORE","MD",21212,39.343360761,-76.5653711429999,110,"3209 SOUTHERN AVENUE, BALTIMORE, MD, 21212","Match","Non_Exact","3209 SOUTHERN AVE, BALTIMORE, MD, 21214",206465311,"R"
507111,"3209 STANFORD DR","DURHAM","NC",27707,35.964417187,-78.935140165,111,"3209 STANFORD DR, DURHAM, NC, 27707","Match","Exact","3209 STANFORD DR, DURHAM, NC, 27707",71765475,"R"
507112,"3209 STANLEY LANE","CHAMPAIGN","IL",61822,40.153290156,-88.249806237,112,"3209 STANLEY LANE, CHAMPAIGN, IL, 61822","Match","Non_Exact","3209 STANLAY LN, CHAMPAIGN, IL, 61822",619820563,"L"
507113,"3209 STEINER AVE SW","BIRMINGHAM","AL",35221,33.4726628760001,-86.88479618,113,"3209 STEINER AVE SW, BIRMINGHAM, AL, 35221","Match","Exact","3209 STEINER AVE SW, BIRMINGHAM, AL, 35221",81558633,"L"
507114,"3209 TARECO DRIVE","LOS ANGELES","CA",90068,34.127256747,-118.341763969,114,"3209 TARECO DRIVE, LOS ANGELES, CA, 90068","Match","Exact","3209 TARECO DR, LOS ANGELES, CA, 90068",648884886,"L"
507115,"3209 TERESA CT","ARLINGTON","TX",76001,32.6469368470001,-97.158332824,115,"3209 TERESA CT, ARLINGTON, TX, 76001","Match","Exact","3209 TERESA CT, ARLINGTON, TX, 76001",101949002,"R"
507116,"3209 TERRACE DR","MCHENRY","IL",60050,42.3147330470001,-88.259622026,116,"3209 TERRACE DR, MCHENRY, IL, 60050","Match","Non_Exact","3209 W TERRACE DR, MCHENRY, IL, 60050",119822527,"R"
507117,"3209 THICKET DR","PINE BLUFF","AR",71603,34.1436417080001,-92.035231462,117,"3209 THICKET DR, PINE BLUFF, AR, 71603","Match","Exact","3209 THICKET DR, PINE BLUFF, AR, 71603",2554210,"L"
507118,"3209 TIERRA NUEZ PL","EL PASO","TX",79938,31.789343977,-106.26023551,118,"3209 TIERRA NUEZ PL, EL PASO, TX, 79938","Match","Exact","3209 TIERRA NUEZ PL, EL PASO, TX, 79938",618952642,"L"
507119,"3209 TIMBERVIEW DR","CORINTH","TX",76210,33.1386424090001,-97.054446086,119,"3209 TIMBERVIEW DR, CORINTH, TX, 76210","Match","Exact","3209 TIMBERVIEW DR, CORINTH, TX, 76210",103345971,"L"
507120,"3209 VALLEY FOREST DRIVE","UPPER MARLBORO","MD",20772,38.8450705870001,-76.834843372,120,"3209 VALLEY FOREST DRIVE, UPPER MARLBORO, MD, 20772","Match","Exact","3209 VALLEY FOREST DR, UPPER MARLBORO, MD, 20772",635287887,"R"
507121,"3209 VILLAGE COURT DRIVE","FORT WAYNE","IN",46806,41.0421662050001,-85.096168873,121,"3209 VILLAGE COURT DRIVE, FORT WAYNE, IN, 46806","Match","Exact","3209 VILLAGE COURT DR, FORT WAYNE, IN, 46806",6383701,"L"
507122,"3209 VIRGINIA AVE","FORT PIERCE","FL",34981,NA,NA,122,"3209 VIRGINIA AVE, FORT PIERCE, FL, 34981","No_Match",NA,NA,NA,NA
507123,"3209 VIRGINIA AVENUE","FORT PIERCE","FL",34981,NA,NA,123,"3209 VIRGINIA AVENUE, FORT PIERCE, FL, 34981","No_Match",NA,NA,NA,NA
507124,"3209 VIRGINIA AVENUE","FORT PIERCE","FL",34982,NA,NA,124,"3209 VIRGINIA AVENUE, FORT PIERCE, FL, 34982","No_Match",NA,NA,NA,NA
507125,"3209 W EMERSON","SEATTLE","WA",98109,NA,NA,125,"3209 W EMERSON, SEATTLE, WA, 98109","No_Match",NA,NA,NA,NA
507126,"3209 W MARKET STREET","GREENSBORO","NC",27403,36.074655863,-79.836845435,126,"3209 W MARKET STREET, GREENSBORO, NC, 27403","Match","Exact","3209 W MARKET ST, GREENSBORO, NC, 27403",131114609,"L"
507127,"3209 W SMITH VALLEY RD STE 106","GREENWOOD","IN",46142,39.6057986370001,-86.1631899399999,127,"3209 W SMITH VALLEY RD STE 106, GREENWOOD, IN, 46142","Match","Non_Exact","3209 W SMITH VALLEY RD, GREENWOOD, IN, 46142",617333825,"R"
507128,"3209 W SMITH VALLEY ROAD SUITE 227","INDIANAPOLIS","IN",46142,NA,NA,128,"3209 W SMITH VALLEY ROAD SUITE 227, INDIANAPOLIS, IN, 46142","No_Match",NA,NA,NA,NA
507129,"3209 W SMITH VALLEY ROAD","GREENWOOD","IN",46142,39.6057986370001,-86.1631899399999,129,"3209 W SMITH VALLEY ROAD, GREENWOOD, IN, 46142","Match","Exact","3209 W SMITH VALLEY RD, GREENWOOD, IN, 46142",617333825,"R"
507130,"3209 WEST ARIONETTE","PEORIA","IL",61605,NA,NA,130,"3209 WEST ARIONETTE, PEORIA, IL, 61605","No_Match",NA,NA,NA,NA
507131,"3209 WEST CHIPETA CT","CLIFTON","CO",81520,39.0730827950001,-108.458576583,131,"3209 WEST CHIPETA CT, CLIFTON, CO, 81520","Match","Exact","3209 W CHIPETA CT, CLIFTON, CO, 81520",122436155,"R"
507132,"3209 WEST EL PASO STREET","BROKEN ARROW","OK",74012,NA,NA,132,"3209 WEST EL PASO STREET, BROKEN ARROW, OK, 74012","No_Match",NA,NA,NA,NA
507133,"3209 WYNDMERE DRIVE","RICHARDSON","TX",75082,32.995110991,-96.6848298039999,133,"3209 WYNDMERE DRIVE, RICHARDSON, TX, 75082","Match","Exact","3209 WYNDMERE DR, RICHARDSON, TX, 75082",123528545,"L"
507134,"3209 YELLOW FINCH WAY","COLUMBUS","OH",43231,NA,NA,134,"3209 YELLOW FINCH WAY, COLUMBUS, OH, 43231","No_Match",NA,NA,NA,NA
507135,"3209 YELLOWSTONE CT","LAKE ORION","MI",48360,42.764097946,-83.3101981189999,135,"3209 YELLOWSTONE CT, LAKE ORION, MI, 48360","Match","Exact","3209 YELLOWSTONE CT, LAKE ORION, MI, 48360",69797719,"L"
507136,"32090 WOODSDALE LANE","SOLON","OH",44139,41.416583545,-81.45010281,136,"32090 WOODSDALE LANE, SOLON, OH, 44139","Match","Exact","32090 WOODSDALE LN, SOLON, OH, 44139",61136466,"R"
507137,"32095 CORTE BONILIO","TEMECULA","CA",92592,33.4680200120001,-117.097884318,137,"32095 CORTE BONILIO, TEMECULA, CA, 92592","Match","Exact","32095 CORTE BONILIO, TEMECULA, CA, 92592",194827723,"L"
507138,"32095 HIDDEN HIGHLAND ROAD","AGOURA HILLS","CA",91301,34.111463159,-118.817385248,138,"32095 HIDDEN HIGHLAND ROAD, AGOURA HILLS, CA, 91301","Match","Exact","32095 HIDDEN HIGHLAND RD, AGOURA HILLS, CA, 91301",142784191,"L"
507139,"32097 S BIGHORN DRIVE","ORACLE","AZ",85623,32.5847832650001,-110.924832824,139,"32097 S BIGHORN DRIVE, ORACLE, AZ, 85623","Match","Exact","32097 S BIGHORN DR, ORACLE, AZ, 85623",645226665,"L"
507140,"32098 BAUMGARDNER LANE","SCAPPOOSE","OR",97056,45.7666401000001,-122.906348086,140,"32098 BAUMGARDNER LANE, SCAPPOOSE, OR, 97056","Match","Exact","32098 BAUMGARDNER LN, SCAPPOOSE, OR, 97056",627782976,"L"
507141,"32099 PRIMROSE LANE","LAPORTE","MN",56461,47.2628812610001,-94.6926096669999,141,"32099 PRIMROSE LANE, LAPORTE, MN, 56461","Match","Exact","32099 PRIMROSE LN, LAPORTE, MN, 56461",168168489,"L"
507142,"320A CASTLE AVENUE","CLAYMONT","DE",19703,39.797966982,-75.4551922639999,142,"320A CASTLE AVENUE, CLAYMONT, DE, 19703","Match","Exact","320 CASTLE AVE, CLAYMONT, DE, 19703",187262523,"R"
507143,"320A CHARLES H DIMMOCK PKWY SUITE 4","COLONIAL HEIGHTS","VA",23834,37.2488329930001,-77.383629075,143,"320A CHARLES H DIMMOCK PKWY SUITE 4, COLONIAL HEIGHTS, VA, 23834","Match","Exact","320 CHARLES H DIMMOCK PKWY, COLONIAL HEIGHTS, VA, 23834",201634550,"L"
507144,"320A CHARLES H DIMMOCK PKWY SUITE 4","COLONIAL HEIGHTS,","VA",23834,37.2488329930001,-77.383629075,144,"320A CHARLES H DIMMOCK PKWY SUITE 4, COLONIAL HEIGHTS,, VA, 23834","Match","Exact","320 CHARLES H DIMMOCK PKWY, COLONIAL HEIGHTS, VA, 23834",201634550,"L"
507145,"320A DEWEY AVE","GREAT LAKES","IL",60088,42.312540615,-87.8405319999999,145,"320A DEWEY AVE, GREAT LAKES, IL, 60088","Match","Exact","320 DEWEY AVE, GREAT LAKES, IL, 60088",119646427,"R"
507146,"320W BEARGRASS RD","LONGS","SC",29568,NA,NA,146,"320W BEARGRASS RD, LONGS, SC, 29568","Tie",NA,NA,NA,NA
507147,"321  JAMESTOWN BLVD APT 160188","ALTAMONTE SPRINGS","FL",32716,NA,NA,147,"321  JAMESTOWN BLVD APT 160188, ALTAMONTE SPRINGS, FL, 32716","No_Match",NA,NA,NA,NA
507148,"321  N TEMPLE","CORDELL","OK",73632,35.2940513280001,-98.99151876,148,"321  N TEMPLE, CORDELL, OK, 73632","Match","Non_Exact","321 N TEMPLE ST, CORDELL, OK, 73632",152067773,"R"
507149,"321  W WHITESBRIDGE AVE","FRESNO","CA",93706,36.7358486090001,-119.815596282,149,"321  W WHITESBRIDGE AVE, FRESNO, CA, 93706","Match","Non_Exact","321 W WHITES BRIDGE AVE, FRESNO, CA, 93706",197570864,"L"
507150,"321 - 19TH AVENUE SOUTH","MINNEAPOLIS","MN",55455,NA,NA,150,"321 - 19TH AVENUE SOUTH, MINNEAPOLIS, MN, 55455","No_Match",NA,NA,NA,NA
507151,"321 1/2 HOUGHTON ST","SANTE FE","NM",87505,NA,NA,151,"321 1/2 HOUGHTON ST, SANTE FE, NM, 87505","Tie",NA,NA,NA,NA
507152,"321 1/2 VINE ST","GLENDALE","CA",91204,34.140854555,-118.258610143,152,"321 1/2 VINE ST, GLENDALE, CA, 91204","Match","Exact","321 VINE ST, GLENDALE, CA, 91204",141609916,"R"
507153,"321 10TH AVENUE NE","LONSDALE","MN",55046,NA,NA,153,"321 10TH AVENUE NE, LONSDALE, MN, 55046","No_Match",NA,NA,NA,NA
507154,"321 10TH AVENUE UNIT 727","SAN DIEGO","CA",92101,32.7086180960001,-117.155551787,154,"321 10TH AVENUE UNIT 727, SAN DIEGO, CA, 92101","Match","Non_Exact","321 N 10TH AVE, SAN DIEGO, CA, 92101",195344697,"R"
507155,"321 10TH AVENUE","SAN DIEGO","CA",92101,32.7086180960001,-117.155551787,155,"321 10TH AVENUE, SAN DIEGO, CA, 92101","Match","Non_Exact","321 N 10TH AVE, SAN DIEGO, CA, 92101",195344697,"R"
507156,"321 11TH STREET","RAYMON","WA",98577,46.686183161,-123.724020327,156,"321 11TH STREET, RAYMON, WA, 98577","Match","Non_Exact","321 11TH ST, RAYMOND, WA, 98577",175997623,"R"
507157,"321 11TH STREET","RAYMOND","WA",98577,46.686183161,-123.724020327,157,"321 11TH STREET, RAYMOND, WA, 98577","Match","Exact","321 11TH ST, RAYMOND, WA, 98577",175997623,"R"
507158,"321 14TH STREET NE","WASHGTON","DC",20018,NA,NA,158,"321 14TH STREET NE, WASHGTON, DC, 20018","No_Match",NA,NA,NA,NA
507159,"321 14TH STREET","BURLINGTON","CO",80807,39.3037350540001,-102.268043231,159,"321 14TH STREET, BURLINGTON, CO, 80807","Match","Exact","321 14TH ST, BURLINGTON, CO, 80807",132236580,"L"
507160,"321 15TH STREET","WASHINGTON","DC",20002,38.8938291420001,-76.983636143,160,"321 15TH STREET, WASHINGTON, DC, 20002","Match","Non_Exact","321 15TH ST NE, WASHINGTON, DC, 20002",76230441,"R"
507161,"321 280TH AVE","LITTLE YORK","IL",61453,41.0385783340001,-90.720652837,161,"321 280TH AVE, LITTLE YORK, IL, 61453","Match","Exact","321 280TH AVE, LITTLE YORK, IL, 61453",5500696,"L"
507162,"321 2ND AVE","FOLEY","MN",56329,45.66454199,-93.914301539,162,"321 2ND AVE, FOLEY, MN, 56329","Match","Exact","321 2ND AVE, FOLEY, MN, 56329",167357015,"L"
507163,"321 2ND AVE","NAUVOO","AL",35578,33.9937591440001,-87.4852197819999,163,"321 2ND AVE, NAUVOO, AL, 35578","Match","Exact","321 2ND AVE, NAUVOO, AL, 35578",120541836,"R"
507164,"321 2ND AVE","PARK FALLS","WI",54552,45.93754489,-90.44902787,164,"321 2ND AVE, PARK FALLS, WI, 54552","Match","Non_Exact","321 N 2ND AVE, PARK FALLS, WI, 54552",194367327,"R"
507165,"321 2ND STREET NW","WAVERLY","IA",50677,42.7279349470001,-92.473262515,165,"321 2ND STREET NW, WAVERLY, IA, 50677","Match","Exact","321 2ND ST NW, WAVERLY, IA, 50677",77345530,"L"
507166,"321 2ND STREET","PITTSVILLE","WI",54466,NA,NA,166,"321 2ND STREET, PITTSVILLE, WI, 54466","No_Match",NA,NA,NA,NA
507167,"321 3RD STREET SOUTH","BAYPORT","MN",55003,45.0138284180001,-92.778123491,167,"321 3RD STREET SOUTH, BAYPORT, MN, 55003","Match","Exact","321 3RD ST S, BAYPORT, MN, 55003",97794771,"L"
507168,"321 42ND AVENUE S","ST. PETERSUBURG","FL",33705,27.7303835710001,-82.637611329,168,"321 42ND AVENUE S, ST. PETERSUBURG, FL, 33705","Match","Non_Exact","321 42ND AVE S, SAINT PETERSBURG, FL, 33705",124711164,"R"
507169,"321 42ND AVENUE SOUTH","ST. PETERSBURG","FL",33705,27.7303835710001,-82.637611329,169,"321 42ND AVENUE SOUTH, ST. PETERSBURG, FL, 33705","Match","Exact","321 42ND AVE S, SAINT PETERSBURG, FL, 33705",124711164,"R"
507170,"321 4TH AVE","GREENPORT","NY",11944,41.1030728640001,-72.364740978,170,"321 4TH AVE, GREENPORT, NY, 11944","Match","Exact","321 4TH AVE, GREENPORT, NY, 11944",113957779,"R"
507171,"321 4TH AVENUE","GRINNELL","IA",50112,41.7432677530001,-92.732835144,171,"321 4TH AVENUE, GRINNELL, IA, 50112","Match","Exact","321 4TH AVE, GRINNELL, IA, 50112",89574171,"R"
507172,"321 5TH ST 2","JERSEY CITY","NJ",7302,40.7249952390001,-74.0480629959999,172,"321 5TH ST 2, JERSEY CITY, NJ, 7302","Match","Exact","321 5TH ST, JERSEY CITY, NJ, 07302",59605909,"L"
507173,"321 63RD STREET","NEWPORT NEWS","VA",23607,37.003168612,-76.442651408,173,"321 63RD STREET, NEWPORT NEWS, VA, 23607","Match","Exact","321 63RD ST, NEWPORT NEWS, VA, 23607",103755155,"L"
507174,"321 6TH AVE SE","EPHRATA","WA",98823,47.30902695,-119.547402613,174,"321 6TH AVE SE, EPHRATA, WA, 98823","Match","Exact","321 6TH AVE SE, EPHRATA, WA, 98823",157086953,"L"
507175,"321 79TH STREET","NORTH BERGEN","NJ",7047,40.7999497070001,-74.003409624,175,"321 79TH STREET, NORTH BERGEN, NJ, 7047","Match","Exact","321 79TH ST, NORTH BERGEN, NJ, 07047",59599729,"L"
507176,"321 7TH ST SW","WILLMAR","MN",56201,45.120632964,-95.0522602839999,176,"321 7TH ST SW, WILLMAR, MN, 56201","Match","Exact","321 7TH ST SW, WILLMAR, MN, 56201",36712013,"R"
507177,"321 7TH STREET","SUGAR LAND","TX",77498,29.628641015,-95.630408264,177,"321 7TH STREET, SUGAR LAND, TX, 77498","Match","Exact","321 SEVENTH ST, SUGAR LAND, TX, 77498",78266819,"L"
507178,"321 8TH STREET","WINONA","MN",55987,NA,NA,178,"321 8TH STREET, WINONA, MN, 55987","Tie",NA,NA,NA,NA
507179,"321 9TH STREET NORTH","FARGO","ND",58102,46.8800576100001,-96.7925043989999,179,"321 9TH STREET NORTH, FARGO, ND, 58102","Match","Exact","321 9TH ST N, FARGO, ND, 58102",151472215,"R"
507180,"321 ADAMS AVENUE","EVANSVILLE","IN",47713,37.9620432200001,-87.5607994979999,180,"321 ADAMS AVENUE, EVANSVILLE, IN, 47713","Match","Exact","321 ADAMS AVE, EVANSVILLE, IN, 47713",39783264,"R"
507181,"321 ADELPHI ST","BROOKLYN","NY",11205,40.6879586480001,-73.97081794,181,"321 ADELPHI ST, BROOKLYN, NY, 11205","Match","Exact","321 ADELPHI ST, BROOKLYN, NY, 11205",642654358,"L"
507182,"321 AIELLO DR","BATON ROUGE","LA",70806,NA,NA,182,"321 AIELLO DR, BATON ROUGE, LA, 70806","No_Match",NA,NA,NA,NA
507183,"321 ALAMO PLAZA STE 200","SAN ANTONIO","TX",78205,29.4255110990001,-98.4869681979999,183,"321 ALAMO PLAZA STE 200, SAN ANTONIO, TX, 78205","Match","Exact","321 ALAMO PLZ, SAN ANTONIO, TX, 78205",101526523,"L"
507184,"321 ALCO DRIVE","BREWTOBN","AL",36426,31.098000563,-87.085633754,184,"321 ALCO DRIVE, BREWTOBN, AL, 36426","Match","Non_Exact","321 ALCO DR, BREWTON, AL, 36426",1935704,"R"
507185,"321 AMERICAN BOULEVARD","HOUMA","LA",70363,29.535878516,-90.670727198,185,"321 AMERICAN BOULEVARD, HOUMA, LA, 70363","Match","Exact","321 AMERICAN BLVD, HOUMA, LA, 70363",92063306,"L"
507186,"321 AMITY ROAD","ANDOVER","NJ",7821,40.9826041960001,-74.682797028,186,"321 AMITY ROAD, ANDOVER, NJ, 7821","Match","Exact","321 AMITY RD, ANDOVER, NJ, 07821",632489701,"L"
507187,"321 AMY AVENUE","ELIZABETHTOWN","KY",42701,37.7850387870001,-85.917246999,187,"321 AMY AVENUE, ELIZABETHTOWN, KY, 42701","Match","Exact","321 AMY AVE, ELIZABETHTOWN, KY, 42701",600550772,"L"
507188,"321 ANDERSON ROAD","KOP","PA",19406,40.1080645380001,-75.36288158,188,"321 ANDERSON ROAD, KOP, PA, 19406","Match","Non_Exact","321 ANDERSON RD, KING OF PRUSSIA, PA, 19406",135120357,"R"
507189,"321 ANDERSON ST","YREKA","CA",96097,41.7192749550001,-122.644064434,189,"321 ANDERSON ST, YREKA, CA, 96097","Match","Exact","321 ANDERSON ST, YREKA, CA, 96097",613247663,"R"
507190,"321 ARAH ST","MANCHESTER","NH",3104,43.021607509,-71.454498546,190,"321 ARAH ST, MANCHESTER, NH, 3104","Match","Exact","321 ARAH ST, MANCHESTER, NH, 03104",113546141,"R"
507191,"321 ARBOUR GARDEN AVENUE","LAS VEGAS","NV",89148,36.04961752,-115.28158949,191,"321 ARBOUR GARDEN AVENUE, LAS VEGAS, NV, 89148","Match","Exact","321 ARBOUR GARDEN AVE, LAS VEGAS, NV, 89148",201983519,"R"
507192,"321 ARCH STREET SUITE 104","MEADVILLE","PA",16335,41.6362818740001,-80.150497797,192,"321 ARCH STREET SUITE 104, MEADVILLE, PA, 16335","Match","Exact","321 ARCH ST, MEADVILLE, PA, 16335",98572345,"R"
507193,"321 ARGON AVE","EUGENE","OR",97404,44.1176751560001,-123.142304074,193,"321 ARGON AVE, EUGENE, OR, 97404","Match","Exact","321 ARGON AVE, EUGENE, OR, 97404",178232605,"R"
507194,"321 ASCOT WAY","DAWSON","GA",39482,31.623192338,-84.352506634,194,"321 ASCOT WAY, DAWSON, GA, 39482","Match","Non_Exact","321 ASCOT WAY, DAWSON, GA, 39842",89117127,"L"
507195,"321 ASCOT WAY","DAWSON","GA",39842,31.623192338,-84.352506634,195,"321 ASCOT WAY, DAWSON, GA, 39842","Match","Exact","321 ASCOT WAY, DAWSON, GA, 39842",89117127,"L"
507196,"321 ASHLAND RD","CERESCO","NE",68017,41.045746034,-96.717966038,196,"321 ASHLAND RD, CERESCO, NE, 68017","Match","Exact","321 ASHLAND RD, CERESCO, NE, 68017",635586267,"R"
507197,"321 ASHLAND ROAD","CERESCO","NE",68017,41.045746034,-96.717966038,197,"321 ASHLAND ROAD, CERESCO, NE, 68017","Match","Exact","321 ASHLAND RD, CERESCO, NE, 68017",635586267,"R"
507198,"321 ASTER DRIVE","MINOOKA","IL",60447,41.440225582,-88.263790676,198,"321 ASTER DRIVE, MINOOKA, IL, 60447","Match","Exact","321 ASTER DR, MINOOKA, IL, 60447",226914127,"L"
507199,"321 AVENIDA SANTA DOROTEA","LA HABRA","CA",90631,33.9104903100001,-117.944047407,199,"321 AVENIDA SANTA DOROTEA, LA HABRA, CA, 90631","Match","Exact","321 AVE SANTA DOROTEA, LA HABRA, CA, 90631",144005728,"L"
507200,"321 AVON RD","MEMPHIS","TN",38117,35.1396333590001,-89.902377659,200,"321 AVON RD, MEMPHIS, TN, 38117","Match","Exact","321 AVON RD, MEMPHIS, TN, 38117",72924932,"L"
507201,"321 AWINI PLACE","HONOLULU","HI",96825,21.2906535930001,-157.715815018,201,"321 AWINI PLACE, HONOLULU, HI, 96825","Match","Exact","321 AWINI PL, HONOLULU, HI, 96825",203244039,"R"
507202,"321 AYLESFORD PLACE","LEXINGTON","KY",40508,38.0377757300001,-84.496134705,202,"321 AYLESFORD PLACE, LEXINGTON, KY, 40508","Match","Exact","321 AYLESFORD PL, LEXINGTON, KY, 40508",31923375,"R"
507203,"321 B MAXEY RD","HOUSTON","TX",77013,29.7939472360001,-95.218721774,203,"321 B MAXEY RD, HOUSTON, TX, 77013","Match","Exact","321 MAXEY RD, HOUSTON, TX, 77013",96096268,"L"
507204,"321 BACKLASH DR","MABANK","TX",75156,32.3484104020001,-96.1495580279999,204,"321 BACKLASH DR, MABANK, TX, 75156","Match","Non_Exact","321 BACKLASH, MABANK, TX, 75156",125793371,"L"
507205,"321 BAHIA BLANCA DRIVE","PUNTA GORDA","FL",33983,27.0233350510001,-82.029739153,205,"321 BAHIA BLANCA DRIVE, PUNTA GORDA, FL, 33983","Match","Exact","321 BAHIA BLANCA DR, PUNTA GORDA, FL, 33983",4316907,"R"
507206,"321 BALDWIN AVENUE","CHARLOTTE","NC",28204,35.210944764,-80.830430754,206,"321 BALDWIN AVENUE, CHARLOTTE, NC, 28204","Match","Exact","321 BALDWIN AVE, CHARLOTTE, NC, 28204",70487903,"L"
507207,"321 BALSAM DRIVE","WAYNESVILLE","NC",28786,35.484782038,-82.9958860959999,207,"321 BALSAM DRIVE, WAYNESVILLE, NC, 28786","Match","Exact","321 BALSAM DR, WAYNESVILLE, NC, 28786",151835375,"L"
507208,"321 BARCLAY AVE","FOREST HILLS","PA",15221,40.426913455,-79.846950884,208,"321 BARCLAY AVE, FOREST HILLS, PA, 15221","Match","Non_Exact","321 BARCLAY AVE, PITTSBURGH, PA, 15221",51669405,"L"
507209,"321 BARE MOUNTAIN LN","ELK","WA",99009,48.0672822940001,-117.261031509,209,"321 BARE MOUNTAIN LN, ELK, WA, 99009","Match","Exact","321 BARE MTN LN, ELK, WA, 99009",635735869,"L"
507210,"321 BATTLEFIELD CREEK DRIVE","MARIETTA","GA",30064,33.947026141,-84.607820402,210,"321 BATTLEFIELD CREEK DRIVE, MARIETTA, GA, 30064","Match","Exact","321 BATTLEFIELD CREEK DR, MARIETTA, GA, 30064",634051595,"L"
507211,"321 BAY 14TH STREET","BROOKLYN","NY",11214,40.6033135490001,-74.011679354,211,"321 BAY 14TH STREET, BROOKLYN, NY, 11214","Match","Exact","321 BAY 14TH ST, BROOKLYN, NY, 11214",59087895,"L"
507212,"321 BEAVER STREET","ANSONIA","CT",6401,41.3500346100001,-73.06828913,212,"321 BEAVER STREET, ANSONIA, CT, 6401","Match","Exact","321 BEAVER ST, ANSONIA, CT, 06401",604737505,"L"
507213,"321 BELMONT ROAD","GRAND FORK","ND",58201,47.9191812460001,-97.028688851,213,"321 BELMONT ROAD, GRAND FORK, ND, 58201","Match","Non_Exact","321 BELMONT RD, GRAND FORKS, ND, 58201",171276933,"L"
507214,"321 BERGEN ST","NEWARK","NJ",7103,40.7347509410001,-74.194833521,214,"321 BERGEN ST, NEWARK, NJ, 7103","Match","Exact","321 BERGEN ST, NEWARK, NJ, 07103",63465874,"R"
507215,"321 BIENVILLE ST","NATCHITOCHES","LA",71457,31.752014736,-93.081626568,215,"321 BIENVILLE ST, NATCHITOCHES, LA, 71457","Match","Exact","321 BIENVILLE ST, NATCHITOCHES, LA, 71457",13349924,"L"
507216,"321 BILL GEORGE RD","LANSING","NY",14882,42.5676583900001,-76.595259674,216,"321 BILL GEORGE RD, LANSING, NY, 14882","Match","Exact","321 BILL GEORGE RD, LANSING, NY, 14882",18851862,"R"
507217,"321 BILLINGSLY COURT","FRANKLIN","TN",37067,35.9452668600001,-86.802622969,217,"321 BILLINGSLY COURT, FRANKLIN, TN, 37067","Match","Exact","321 BILLINGSLY CT, FRANKLIN, TN, 37067",634037224,"L"
507218,"321 BLAIR STREET","MARTINSBURG","WV",25404,39.4972052540001,-77.9205201569999,218,"321 BLAIR STREET, MARTINSBURG, WV, 25404","Match","Exact","321 BLAIR ST, MARTINSBURG, WV, 25404",636718654,"R"
507219,"321 BLUE CRANE 1 DR","SLIDELL","LA",70461,NA,NA,219,"321 BLUE CRANE 1 DR, SLIDELL, LA, 70461","No_Match",NA,NA,NA,NA
507220,"321 BLUE HOLE RD","BEEBE","AR",72012,35.171083713,-91.9019433729999,220,"321 BLUE HOLE RD, BEEBE, AR, 72012","Match","Exact","321 BLUE HOLE RD, BEEBE, AR, 72012",605776297,"R"
507221,"321 BLUE STREET","SAINT PAULS","NC",28384,NA,NA,221,"321 BLUE STREET, SAINT PAULS, NC, 28384","Tie",NA,NA,NA,NA
507222,"321 BOBWHITE TRAIL","GROVETOWN","GA",30813,33.502080434,-82.1715719219999,222,"321 BOBWHITE TRAIL, GROVETOWN, GA, 30813","Match","Exact","321 BOBWHITE TRL, GROVETOWN, GA, 30813",637663317,"L"
507223,"321 BORDEN STREET","BORDENTOWN","NJ",8505,40.1451305900001,-74.708885875,223,"321 BORDEN STREET, BORDENTOWN, NJ, 8505","Match","Exact","321 BORDEN ST, BORDENTOWN, NJ, 08505",134050339,"L"
507224,"321 BORICA DRIVE","DANVILLE","CA",94526,37.7984255760001,-121.964046809,224,"321 BORICA DRIVE, DANVILLE, CA, 94526","Match","Exact","321 BORICA DR, DANVILLE, CA, 94526",192065463,"L"
507225,"321 BOWMAN AVENUE","SACRAMENTO","CA",95833,38.617556601,-121.470805475,225,"321 BOWMAN AVENUE, SACRAMENTO, CA, 95833","Match","Exact","321 BOWMAN AVE, SACRAMENTO, CA, 95833",133321010,"R"
507226,"321 BRADSHAW AVE NE","BUFFALO","MN",55313,45.155271203,-93.854838316,226,"321 BRADSHAW AVE NE, BUFFALO, MN, 55313","Match","Exact","321 BRADSHAW AVE NE, BUFFALO, MN, 55313",647329695,"L"
507227,"321 BRIDGERS HILL RD","LONGVIEW","TX",75604,32.5602854000001,-94.8200719609999,227,"321 BRIDGERS HILL RD, LONGVIEW, TX, 75604","Match","Exact","321 BRIDGERS HILL RD, LONGVIEW, TX, 75604",627307140,"L"
507228,"321 BROADWAY 3RD FLOOR","NEW YORK","NY",10007,40.715869673,-74.004892636,228,"321 BROADWAY 3RD FLOOR, NEW YORK, NY, 10007","Match","Exact","321 BROADWAY, NEW YORK, NY, 10007",59660384,"L"
507229,"321 BRONSTON TRAIL","BEAVERCREEK","OH",45430,39.702674255,-84.0887381539999,229,"321 BRONSTON TRAIL, BEAVERCREEK, OH, 45430","Match","Exact","321 BRONSTON TRL, BEAVERCREEK, OH, 45430",143377351,"L"
507230,"321 BROOKSIDE","DAYTON","OH",45406,39.7817566740001,-84.218054657,230,"321 BROOKSIDE, DAYTON, OH, 45406","Match","Non_Exact","321 BROOKSIDE DR, DAYTON, OH, 45406",143569566,"R"
507231,"321 BROUSSARD DRIVE","ST MARTINVILLE","LA",70582,30.13922882,-91.82683209,231,"321 BROUSSARD DRIVE, ST MARTINVILLE, LA, 70582","Match","Non_Exact","321 BROUSSARD ST, SAINT MARTINVILLE, LA, 70582",85830290,"R"
507232,"321 BURNETT DUNCAN ROAD","GREER","SC",29651,34.859394342,-82.192307515,232,"321 BURNETT DUNCAN ROAD, GREER, SC, 29651","Match","Exact","321 BURNETT DUNCAN RD, GREER, SC, 29651",636303717,"L"
507233,"321 BUSBY ROAD","ANDERSON","SC",29626,NA,NA,233,"321 BUSBY ROAD, ANDERSON, SC, 29626","No_Match",NA,NA,NA,NA
507234,"321 CAJON ST","REDLANDS","CA",92373,34.0515471850001,-117.179748252,234,"321 CAJON ST, REDLANDS, CA, 92373","Match","Exact","321 CAJON ST, REDLANDS, CA, 92373",144664444,"L"
507235,"321 CALDERA ST","PERRIS","CA",92570,33.737284505,-117.236600766,235,"321 CALDERA ST, PERRIS, CA, 92570","Match","Exact","321 CALDERA ST, PERRIS, CA, 92570",608995595,"R"
507236,"321 CALISTOGA CT","AUSTIN","TX",78732,30.346585745,-97.911795351,236,"321 CALISTOGA CT, AUSTIN, TX, 78732","Match","Exact","321 CALISTOGA CT, AUSTIN, TX, 78732",624859930,"R"
507237,"321 CALLE ADELA","SAN MARCOS","CA",92069,33.141292019,-117.132877743,237,"321 CALLE ADELA, SAN MARCOS, CA, 92069","Match","Non_Exact","321 CLL ADELA, SAN MARCOS, CA, 92069",195310978,"R"
507238,"321 CALVIN ST","HARRINGTON","DE",19952,38.929724155,-75.5802115769999,238,"321 CALVIN ST, HARRINGTON, DE, 19952","Match","Exact","321 CALVIN ST, HARRINGTON, DE, 19952",68082106,"L"
507239,"321 CAMBRIDGE CT","DUNN","NC",28334,NA,NA,239,"321 CAMBRIDGE CT, DUNN, NC, 28334","No_Match",NA,NA,NA,NA
507240,"321 CCOLUMBIA STREET APT 2","BROOKLYN","NY",11231,NA,NA,240,"321 CCOLUMBIA STREET APT 2, BROOKLYN, NY, 11231","No_Match",NA,NA,NA,NA
507241,"321 CEDAR BEND DRIVE","MIDWEST CITY","OK",73130,35.4685551920001,-97.36968681,241,"321 CEDAR BEND DRIVE, MIDWEST CITY, OK, 73130","Match","Exact","321 CEDAR BEND DR, MIDWEST CITY, OK, 73130",100451643,"R"
507242,"321 CEDAR SPRINGS LANE","WEATHERFORD","TX",76087,32.7005919590001,-97.7972028189999,242,"321 CEDAR SPRINGS LANE, WEATHERFORD, TX, 76087","Match","Exact","321 CEDAR SPRINGS LN, WEATHERFORD, TX, 76087",624583419,"L"
507243,"321 CENTER AVE","PITCAIRN","PA",15140,40.4036046360001,-79.778380027,243,"321 CENTER AVE, PITCAIRN, PA, 15140","Match","Exact","321 CENTER AVE, PITCAIRN, PA, 15140",51816754,"R"
507244,"321 CENTRAL AVE","HOLLAND","MI",49423,42.785248575,-86.107177183,244,"321 CENTRAL AVE, HOLLAND, MI, 49423","Match","Exact","321 CENTRAL AVE, HOLLAND, MI, 49423",71077572,"R"
507245,"321 CHANDLER","HORICON","WI",53032,43.4454860810001,-88.63644886,245,"321 CHANDLER, HORICON, WI, 53032","Match","Non_Exact","321 CHANDLER ST, HORICON, WI, 53032",53529410,"R"
507246,"321 CHAPELRIDGE WAY","BRANDON","MS",39042,32.266195317,-89.9984673439999,246,"321 CHAPELRIDGE WAY, BRANDON, MS, 39042","Match","Exact","321 CHAPELRIDGE WAY, BRANDON, MS, 39042",632789080,"L"
507247,"321 CHELTENHAM DRIVE","STEPHENS CITY","VA",22655,39.100200301,-78.174932026,247,"321 CHELTENHAM DRIVE, STEPHENS CITY, VA, 22655","Match","Exact","321 CHELTENHAM DR, STEPHENS CITY, VA, 22655",635295330,"L"
507248,"321 CHEVY CHASE","BELLEVILLE","IL",62223,38.5470983970001,-90.046648013,248,"321 CHEVY CHASE, BELLEVILLE, IL, 62223","Match","Non_Exact","321 CHEVY CHASE DR, BELLEVILLE, IL, 62223",107838802,"L"
507249,"321 CHICKORY WAY","NEWARK","DE",19711,39.6775976810001,-75.784096166,249,"321 CHICKORY WAY, NEWARK, DE, 19711","Match","Exact","321 CHICKORY WAY, NEWARK, DE, 19711",187280704,"R"
507250,"321 CHISHOLM TRAIL","SHERMAN","TX",75092,33.633166773,-96.639392686,250,"321 CHISHOLM TRAIL, SHERMAN, TX, 75092","Match","Exact","321 CHISHOLM TRL, SHERMAN, TX, 75092",63354173,"R"
507251,"321 CHUMBLEY RD","DAWSONVILLE","GA",30534,34.4254311390001,-84.2439943969999,251,"321 CHUMBLEY RD, DAWSONVILLE, GA, 30534","Match","Exact","321 CHUMBLEY RD, DAWSONVILLE, GA, 30534",648901689,"L"
507252,"321 CHURCH STREET","WOODBRIDGE","NJ",7095,40.5614773080001,-74.2896094609999,252,"321 CHURCH STREET, WOODBRIDGE, NJ, 7095","Match","Exact","321 CHURCH ST, WOODBRIDGE, NJ, 07095",60275201,"L"
507253,"321 CHURCHILL DOWNS BLVD","DELAND","FL",32724,29.003190939,-81.277383803,253,"321 CHURCHILL DOWNS BLVD, DELAND, FL, 32724","Match","Exact","321 CHURCHILL DOWNS BLVD, DELAND, FL, 32724",627298139,"R"
507254,"321 CIRCLE DR","SALEM","IL",62881,38.636479788,-88.929416787,254,"321 CIRCLE DR, SALEM, IL, 62881","Match","Exact","321 CIRCLE DR, SALEM, IL, 62881",93039345,"L"
507255,"321 CLASSIC DR","SODDY DDAISY","TN",37379,35.2148905020001,-85.206290473,255,"321 CLASSIC DR, SODDY DDAISY, TN, 37379","Match","Non_Exact","321 CLASSIC DR, SODDY DAISY, TN, 37379",59341562,"R"
507256,"321 COBBLE CREEK CURVE","NEWARK","DC",19702,NA,NA,256,"321 COBBLE CREEK CURVE, NEWARK, DC, 19702","Tie",NA,NA,NA,NA
507257,"321 COCODRIL RD","SCOTT","LA",70583,30.283591948,-92.1220162719999,257,"321 COCODRIL RD, SCOTT, LA, 70583","Match","Exact","321 COCODRIL RD, SCOTT, LA, 70583",630398190,"L"
507258,"321 COLLEGE ST","MARION","VA",24354,NA,NA,258,"321 COLLEGE ST, MARION, VA, 24354","No_Match",NA,NA,NA,NA
507259,"321 COLONIST PL","CAMERON","NC",28326,35.261172211,-79.0154808359999,259,"321 COLONIST PL, CAMERON, NC, 28326","Match","Exact","321 COLONIST PL, CAMERON, NC, 28326",638812148,"L"
507260,"321 COLUMBIA 82","MAGNOLIA","AR",71753,33.266699449,-93.142055908,260,"321 COLUMBIA 82, MAGNOLIA, AR, 71753","Match","Non_Exact","321 COLUMBIA RD, MAGNOLIA, AR, 71753",10675812,"L"
507261,"321 COMMERCE CENTER DR","ST CLOUD","FL",34769,28.2587069590001,-81.31532147,261,"321 COMMERCE CENTER DR, ST CLOUD, FL, 34769","Match","Exact","321 COMMERCE CENTER DR, SAINT CLOUD, FL, 34769",627968895,"L"
507262,"321 COMMONWEALTH AVE","NEWTON","MA",2467,42.336308726,-71.1789741429999,262,"321 COMMONWEALTH AVE, NEWTON, MA, 2467","Match","Non_Exact","321 COMMONWEALTH AVE, BOSTON COLLEGE, MA, 02467",613846115,"L"
507263,"321 COPELAND DR","WAYNESBORO","TN",38485,35.3165187380001,-87.767427055,263,"321 COPELAND DR, WAYNESBORO, TN, 38485","Match","Exact","321 COPELAND DR, WAYNESBORO, TN, 38485",22992997,"R"
507264,"321 COPPERFALLS DR","BRYAN","TX",77803,30.6534199380001,-96.3928481679999,264,"321 COPPERFALLS DR, BRYAN, TX, 77803","Match","Non_Exact","321 COPPER FALLS DR, BRYAN, TX, 77803",21828683,"L"
507265,"321 COTTAGE PLACE","LAKEWOOD","NJ",8701,40.093245048,-74.204571661,265,"321 COTTAGE PLACE, LAKEWOOD, NJ, 8701","Match","Exact","321 COTTAGE PL, LAKEWOOD, NJ, 08701",203723816,"L"
507266,"321 CR 842","BLUE MOUNTAIN","MS",38610,34.6800327070001,-89.0473066979999,266,"321 CR 842, BLUE MOUNTAIN, MS, 38610","Match","Exact","321 CO RD 842, BLUE MOUNTAIN, MS, 38610",76572654,"R"
507267,"321 CR650","WALNUT","MS",38683,34.9308294640001,-88.786849197,267,"321 CR650, WALNUT, MS, 38683","Match","Exact","321 CO RD 650, WALNUT, MS, 38683",607021232,"L"
507268,"321 CREEK CROSSING LANE","CHESTER SPRINGS","PA",19425,40.0872820820001,-75.6384392799999,268,"321 CREEK CROSSING LANE, CHESTER SPRINGS, PA, 19425","Match","Exact","321 CREEK CROSSING LN, CHESTER SPRINGS, PA, 19425",179556999,"L"
507269,"321 CREEKSIDE DRIVE","ANNA","TX",75409,33.3486559,-96.578002829,269,"321 CREEKSIDE DRIVE, ANNA, TX, 75409","Match","Exact","321 CREEKSIDE DR, ANNA, TX, 75409",614168110,"R"
507270,"321 CREEKSIDE RIDGE","WOODSTOCK","GA",30188,NA,NA,270,"321 CREEKSIDE RIDGE, WOODSTOCK, GA, 30188","No_Match",NA,NA,NA,NA
507271,"321 CRESCENT CREEK LANE","FORT WORTH","TX",76140,32.594308922,-97.324126528,271,"321 CRESCENT CREEK LANE, FORT WORTH, TX, 76140","Match","Exact","321 CRESCENT CREEK LN, FORT WORTH, TX, 76140",638655317,"L"
507272,"321 CRESTON ROAD","YORK","PA",17403,39.9494554520001,-76.7106144689999,272,"321 CRESTON ROAD, YORK, PA, 17403","Match","Exact","321 CRESTON RD, YORK, PA, 17403",611416819,"L"
507273,"321 CROFT CROSSING","CHESAPEAKE","VA",23320,36.736814843,-76.2500783359999,273,"321 CROFT CROSSING, CHESAPEAKE, VA, 23320","Match","Exact","321 CROFT CROSSING, CHESAPEAKE, VA, 23320",624790949,"L"
507274,"321 CROWLEY DR","TURLOCK","CA",95382,37.5335894610001,-120.846340655,274,"321 CROWLEY DR, TURLOCK, CA, 95382","Match","Exact","321 CROWLEY DR, TURLOCK, CA, 95382",102624845,"L"
507275,"321 DADDARIO HILL ROAD","MIDDLEBURG","PA",17842,40.8036572130001,-77.056497257,275,"321 DADDARIO HILL ROAD, MIDDLEBURG, PA, 17842","Match","Exact","321 DADDARIO HILL RD, MIDDLEBURG, PA, 17842",47782417,"L"
507276,"321 DANBURY LANE","METAMORA","IL",61548,40.799651929,-89.3686602079999,276,"321 DANBURY LANE, METAMORA, IL, 61548","Match","Exact","321 DANBURY LN, METAMORA, IL, 61548",9003175,"R"
507277,"321 DEAVEN ROAD","HARRISBURG","PA",17112,40.309813413,-76.7675308569999,277,"321 DEAVEN ROAD, HARRISBURG, PA, 17112","Match","Non_Exact","321 DEAVEN RD, HARRISBURG, PA, 17111",70837747,"L"
507278,"321 DECATUR ST","BROOKLYN","NY",11233,40.6817453640001,-73.930877074,278,"321 DECATUR ST, BROOKLYN, NY, 11233","Match","Exact","321 DECATUR ST, BROOKLYN, NY, 11233",59082793,"L"
507279,"321 DEER TRACE","PINEVILLE","LA",71360,31.328830607,-92.382590165,279,"321 DEER TRACE, PINEVILLE, LA, 71360","Match","Exact","321 DEER TRCE, PINEVILLE, LA, 71360",11785526,"R"
507280,"321 DENNETT ST","PORTSMOUTH","NH",3801,43.077608302,-70.772356389,280,"321 DENNETT ST, PORTSMOUTH, NH, 3801","Match","Exact","321 DENNETT ST, PORTSMOUTH, NH, 03801",113666419,"R"
507281,"321 DENNIS HILL ROAD","LITCHFIELD","ME",4350,44.1917454210001,-69.908628586,281,"321 DENNIS HILL ROAD, LITCHFIELD, ME, 4350","Match","Exact","321 DENNIS HILL RD, LITCHFIELD, ME, 04350",632908681,"R"
507282,"321 DEVILLE PLACE","WHITELAND","IN",46184,39.5627919890001,-86.09576122,282,"321 DEVILLE PLACE, WHITELAND, IN, 46184","Match","Exact","321 DEVILLE PL, WHITELAND, IN, 46184",114643918,"R"
507283,"321 DEVONSHIRE DRIVE","FRANKLIN","TN",37064,35.9313498660001,-86.894460551,283,"321 DEVONSHIRE DRIVE, FRANKLIN, TN, 37064","Match","Exact","321 DEVONSHIRE DR, FRANKLIN, TN, 37064",73124345,"L"
507284,"321 DEWEY ST   1ST FL","JOLIET","IL",60436,41.517553709,-88.0967927739999,284,"321 DEWEY ST   1ST FL, JOLIET, IL, 60436","Match","Exact","321 DEWEY ST, JOLIET, IL, 60436",111542307,"R"
507285,"321 DIAZ AVE","DELANO","CA",93215,35.7559239600001,-119.254721023,285,"321 DIAZ AVE, DELANO, CA, 93215","Match","Exact","321 DIAZ AVE, DELANO, CA, 93215",614146827,"R"
507286,"321 DJEDDAH DRIVE","LAWRENCEBURG","KY",40342,38.020943878,-84.8996887929999,286,"321 DJEDDAH DRIVE, LAWRENCEBURG, KY, 40342","Match","Exact","321 DJEDDAH DR, LAWRENCEBURG, KY, 40342",43453296,"R"
507287,"321 DODGE DRIVE","VIRGINIA BEACH","VA",23452,36.8312266130001,-76.082018606,287,"321 DODGE DRIVE, VIRGINIA BEACH, VA, 23452","Match","Exact","321 DODGE DR, VA BCH, VA, 23452",122267445,"R"
507288,"321 DOGWOOD CIRCLE","GADSDEN","AL",35901,33.9688255520001,-86.0143475089999,288,"321 DOGWOOD CIRCLE, GADSDEN, AL, 35901","Match","Exact","321 DOGWOOD CIR, GADSDEN, AL, 35901",66786268,"R"
507289,"321 DOVER ST","PRINCETON","WI",54968,43.845418609,-89.126687492,289,"321 DOVER ST, PRINCETON, WI, 54968","Match","Exact","321 DOVER ST, PRINCETON, WI, 54968",73450175,"L"
507290,"321 DUNWOODY DR","JONESBORO","AR",72404,35.788975883,-90.706562461,290,"321 DUNWOODY DR, JONESBORO, AR, 72404","Match","Exact","321 DUNWOODY DR, JONESBORO, AR, 72404",46927282,"R"
507291,"321 DUNWOODY","JONESBORO","AR",72401,NA,NA,291,"321 DUNWOODY, JONESBORO, AR, 72401","No_Match",NA,NA,NA,NA
507292,"321 E 12 STREET","DES MOINES","IA",50319,NA,NA,292,"321 E 12 STREET, DES MOINES, IA, 50319","Tie",NA,NA,NA,NA
507293,"321 E 14TH ST","BLOOMINGTON","IN",47408,39.1759827760001,-86.530475656,293,"321 E 14TH ST, BLOOMINGTON, IN, 47408","Match","Exact","321 E 14TH ST, BLOOMINGTON, IN, 47408",42321928,"L"
507294,"321 E 15TH ST","ANNISTON","AL",36207,33.6637363670001,-85.8241546849999,294,"321 E 15TH ST, ANNISTON, AL, 36207","Match","Exact","321 E 15TH ST, ANNISTON, AL, 36207",66581672,"L"
507295,"321 E 20TH ST","CHESTER","PA",19013,39.86376526,-75.363997286,295,"321 E 20TH ST, CHESTER, PA, 19013","Match","Exact","321 E 20TH ST, CHESTER, PA, 19013",134880933,"R"
507296,"321 E 36TH AVE","HUTCHINSON","KS",67502,38.0945815370001,-97.9264966,296,"321 E 36TH AVE, HUTCHINSON, KS, 67502","Match","Exact","321 E 36TH AVE, HUTCHINSON, KS, 67502",142953746,"R"
507297,"321 E 41 STREET","PATTERSON","NJ",7504,40.9113064800001,-74.135674727,297,"321 E 41 STREET, PATTERSON, NJ, 7504","Match","Non_Exact","321 E 41ST ST, PATERSON, NJ, 07504",65266841,"L"
507298,"321 E 48TH APT 6F","NEW YORK","NY",10017,NA,NA,298,"321 E 48TH APT 6F, NEW YORK, NY, 10017","No_Match",NA,NA,NA,NA
507299,"321 E 48TH STREET - APT 11D","NEW YORK","NY",10017,40.753391763,-73.968862195,299,"321 E 48TH STREET - APT 11D, NEW YORK, NY, 10017","Match","Non_Exact","321 E 48TH ST, NEW YORK, NY, 10017",647119419,"L"
507300,"321 E 75TH ST APT 1RW","NEW YORK","NY",10021,40.770332443,-73.9559251649999,300,"321 E 75TH ST APT 1RW, NEW YORK, NY, 10021","Match","Non_Exact","321 E 75TH ST, NEW YORK, NY, 10021",650073044,"L"
507301,"321 E 8TH ST","ANACONDA","MT",59711,46.122756118,-112.951408294,301,"321 E 8TH ST, ANACONDA, MT, 59711","Match","Exact","321 E 8TH ST, ANACONDA, MT, 59711",608836442,"L"
507302,"321 E BELCREST ROAD","BEL AIR","MD",21014,39.519364712,-76.337406261,302,"321 E BELCREST ROAD, BEL AIR, MD, 21014","Match","Exact","321 E BELCREST RD, BEL AIR, MD, 21014",191643136,"L"
507303,"321 E CARTER ST","PEARSALL","TX",78061,28.877470848,-99.098461179,303,"321 E CARTER ST, PEARSALL, TX, 78061","Match","Exact","321 E CARTER ST, PEARSALL, TX, 78061",178631361,"R"
507304,"321 E CENTRAL AVE","ANDOVER","KS",67002,37.693993821,-97.132254702,304,"321 E CENTRAL AVE, ANDOVER, KS, 67002","Match","Exact","321 E CENTRAL AVE, ANDOVER, KS, 67002",32263694,"R"
507305,"321 E CHESTNUT EXPRESSWAY","SPRINGFIELD","MO",65802,37.215493424,-93.289547226,305,"321 E CHESTNUT EXPRESSWAY, SPRINGFIELD, MO, 65802","Match","Exact","321 E CHESTNUT EXPY, SPRINGFIELD, MO, 65802",605873899,"L"
507306,"321 E CRESCENT LN","DETROIT","MI",48207,42.341903007,-83.0115974559999,306,"321 E CRESCENT LN, DETROIT, MI, 48207","Match","Exact","321 E CRESCENT LN, DETROIT, MI, 48207",95703858,"R"
507307,"321 E CULLERTON ST","CHICAGO","IL",60616,41.8555448340001,-87.61984631,307,"321 E CULLERTON ST, CHICAGO, IL, 60616","Match","Exact","321 E CULLERTON ST, CHICAGO, IL, 60616",605506709,"R"
507308,"321 E MAIN CROSS","GREENVILLE","KY",42345,37.2044411480001,-87.1721142769999,308,"321 E MAIN CROSS, GREENVILLE, KY, 42345","Match","Non_Exact","321 E MAIN CROSS ST, GREENVILLE, KY, 42345",206962588,"L"
507309,"321 E MAIN ST SUITE 316","BOZEMAN","MT",59715,NA,NA,309,"321 E MAIN ST SUITE 316, BOZEMAN, MT, 59715","Tie",NA,NA,NA,NA
507310,"321 E MAIN ST","MANLY","IA",50456,43.2869189530001,-93.198926638,310,"321 E MAIN ST, MANLY, IA, 50456","Match","Exact","321 E MAIN ST, MANLY, IA, 50456",7497970,"L"
507311,"321 E MAIN SUITE 316","BOZEMAN","MT",59715,NA,NA,311,"321 E MAIN SUITE 316, BOZEMAN, MT, 59715","No_Match",NA,NA,NA,NA
507312,"321 E MAPLE DR","GLENWOD","IL",60425,41.549452865,-87.6034378579999,312,"321 E MAPLE DR, GLENWOD, IL, 60425","Match","Non_Exact","321 MAPLE DR, GLENWOOD, IL, 60425",111784804,"L"
507313,"321 E MARTIN STREET","PRAIRIE FARM","WI",54762,45.2410337760001,-91.977870991,313,"321 E MARTIN STREET, PRAIRIE FARM, WI, 54762","Match","Exact","321 MARTIN ST, PRAIRIE FARM, WI, 54762",126287708,"R"
507314,"321 E MONTANA ST","PHILADELPHIA","PA",19119,40.054929331,-75.179203394,314,"321 E MONTANA ST, PHILADELPHIA, PA, 19119","Match","Exact","321 E MONTANA ST, PHILADELPHIA, PA, 19119",131395323,"L"
507315,"321 E PRICE STREET","PHILADELPHIA","PA",19144,40.0398365630001,-75.172205774,315,"321 E PRICE STREET, PHILADELPHIA, PA, 19144","Match","Exact","321 E PRICE ST, PHILADELPHIA, PA, 19144",131395787,"L"
507316,"321 E SHERIDAN STREET","DANIA BEACH","FL",33004,26.0337539880001,-80.1383502099999,316,"321 E SHERIDAN STREET, DANIA BEACH, FL, 33004","Match","Exact","321 E SHERIDAN ST, DANIA BEACH, FL, 33004",608971583,"L"
507317,"321 E SOUTH AVE","HAMPSHIRE","IL",60140,42.095042436,-88.5235231189999,317,"321 E SOUTH AVE, HAMPSHIRE, IL, 60140","Match","Exact","321 SOUTH AVE, HAMPSHIRE, IL, 60140",119532187,"L"
507318,"321 E STATE ST APT 4","MASON CITY","IA",50401,NA,NA,318,"321 E STATE ST APT 4, MASON CITY, IA, 50401","Tie",NA,NA,NA,NA
507319,"321 E WYLIE ST","BLOOMINGTON","IN",47401,39.1583475300001,-86.530043771,319,"321 E WYLIE ST, BLOOMINGTON, IN, 47401","Match","Exact","321 E WYLIE ST, BLOOMINGTON, IN, 47401",42322730,"L"
507320,"321 EARLHAM DRIVE","TURLOCK","CA",95382,37.508764926,-120.852204871,320,"321 EARLHAM DRIVE, TURLOCK, CA, 95382","Match","Exact","321 EARLHAM DR, TURLOCK, CA, 95382",102594792,"R"
507321,"321 EARLMONT PLACE","DAVENPORT","FL",33896,28.2503773400001,-81.561710179,321,"321 EARLMONT PLACE, DAVENPORT, FL, 33896","Match","Exact","321 EARLMONT PL, DAVENPORT, FL, 33896",618500910,"R"
507322,"321 EAST 4TH STREET","WELLSTON","OH",45692,39.119655978,-82.531874338,322,"321 EAST 4TH STREET, WELLSTON, OH, 45692","Match","Exact","321 E 4TH ST, WELLSTON, OH, 45692",54772920,"R"
507323,"321 EAST 57TH STREET","LOS ANGELES","CA",90027,33.9906959260001,-118.269420996,323,"321 EAST 57TH STREET, LOS ANGELES, CA, 90027","Match","Non_Exact","321 E 57TH ST, LOS ANGELES, CA, 90011",141670298,"L"
507324,"321 EAST 5TH STREET","RENO","NV",89501,39.532032142,-119.810252094,324,"321 EAST 5TH STREET, RENO, NV, 89501","Match","Exact","321 E 5TH ST, RENO, NV, 89501",107106074,"L"
507325,"321 EAST 60TH STREET APT 3B","NEW YORK","NY",10023,40.760712857,-73.962596468,325,"321 EAST 60TH STREET APT 3B, NEW YORK, NY, 10023","Match","Non_Exact","321 E 60TH ST, NEW YORK, NY, 10022",642472008,"L"
507326,"321 EAST 6TH STREET","MADISON","MN",56256,45.0143282650001,-96.18972811,326,"321 EAST 6TH STREET, MADISON, MN, 56256","Match","Non_Exact","321 6TH ST, MADISON, MN, 56256",611710998,"R"
507327,"321 EAST 8TH AVENUE","COVINGTON","LA",70433,30.462858059,-90.1074940889999,327,"321 EAST 8TH AVENUE, COVINGTON, LA, 70433","Match","Exact","321 E 8TH AVE, COVINGTON, LA, 70433",111235235,"L"
507328,"321 EAST 90TH STREET - APT 2A","NEW YORK","NY",10128,40.7800281790001,-73.948888465,328,"321 EAST 90TH STREET - APT 2A, NEW YORK, NY, 10128","Match","Exact","321 E 90TH ST, NEW YORK, NY, 10128",650087777,"L"
507329,"321 EAST BUCHANAN","ASHLAND","IL",62612,39.8922382640001,-90.004712932,329,"321 EAST BUCHANAN, ASHLAND, IL, 62612","Match","Non_Exact","321 E BUCHANAN ST, ASHLAND, IL, 62612",53140062,"L"
507330,"321 EAST DUQUESNE STREET","COLUMBIANA","OH",44408,40.8801252900001,-80.684267905,330,"321 EAST DUQUESNE STREET, COLUMBIANA, OH, 44408","Match","Exact","321 E DUQUESNE ST, COLUMBIANA, OH, 44408",605043879,"R"
507331,"321 EAST ELEANOR STREET","PHILADELPHIA","PA",19120,40.023311262,-75.119433256,331,"321 EAST ELEANOR STREET, PHILADELPHIA, PA, 19120","Match","Exact","321 E ELEANOR ST, PHILADELPHIA, PA, 19120",131420076,"L"
507332,"321 EAST HAMILTON STREET","BRYAN","OH",43506,41.465850663,-84.547247665,332,"321 EAST HAMILTON STREET, BRYAN, OH, 43506","Match","Exact","321 E HAMILTON ST, BRYAN, OH, 43506",8331583,"R"
507333,"321 EAST INDIANA ST","WHEATON","IL",60187,41.8611057640001,-88.1023057849999,333,"321 EAST INDIANA ST, WHEATON, IL, 60187","Match","Exact","321 E INDIANA ST, WHEATON, IL, 60187",112529355,"L"
507334,"321 EAST L STREET","BENICIA","CA",94510,38.0517533670001,-122.151016758,334,"321 EAST L STREET, BENICIA, CA, 94510","Match","Exact","321 E L ST, BENICIA, CA, 94510",192530897,"L"
507335,"321 EAST RUSSELL STREET","FAYETTEVILLE","NC",28301,35.0491895580001,-78.875066282,335,"321 EAST RUSSELL STREET, FAYETTEVILLE, NC, 28301","Match","Exact","321 E RUSSELL ST, FAYETTEVILLE, NC, 28301",64201909,"L"
507336,"321 EAST STREET SOUTH","KEWANEE","IL",61443,41.2298644040001,-89.91624885,336,"321 EAST STREET SOUTH, KEWANEE, IL, 61443","Match","Exact","321 EAST ST S, KEWANEE, IL, 61443",8915221,"L"
507337,"321 EAST SWANNANOA AVENUE","LIBERTY","NC",27298,35.8538566550001,-79.5671613979999,337,"321 EAST SWANNANOA AVENUE, LIBERTY, NC, 27298","Match","Exact","321 E SWANNANOA AVE, LIBERTY, NC, 27298",20403203,"L"
507338,"321 EASTERN PARKWAY 4-D","BROOKLYN","NY",11238,40.6709592280001,-73.958279997,338,"321 EASTERN PARKWAY 4-D, BROOKLYN, NY, 11238","Match","Exact","321 EASTERN PKWY, BROOKLYN, NY, 11238",640853009,"R"
507339,"321 EASTERN ST A919","NEW HAVEN","CT",6513,41.316068955,-72.872807183,339,"321 EASTERN ST A919, NEW HAVEN, CT, 6513","Match","Exact","321 EASTERN ST, NEW HAVEN, CT, 06513",648708602,"R"
507340,"321 EASTERN STREET A307","NEW HAVEN","CT",6513,41.316068955,-72.872807183,340,"321 EASTERN STREET A307, NEW HAVEN, CT, 6513","Match","Exact","321 EASTERN ST, NEW HAVEN, CT, 06513",648708602,"R"
507341,"321 EASTERN STREET","NEW HAVEN","CT",6513,41.316068955,-72.872807183,341,"321 EASTERN STREET, NEW HAVEN, CT, 6513","Match","Exact","321 EASTERN ST, NEW HAVEN, CT, 06513",648708602,"R"
507342,"321 EDGEWOOD RD","YORK","PA",17402,39.9724203310001,-76.659884484,342,"321 EDGEWOOD RD, YORK, PA, 17402","Match","Exact","321 EDGEWOOD RD, YORK, PA, 17402",88733795,"L"
507343,"321 EDWIN STREET","NASHVILLE","TN",37207,36.2045082700001,-86.7647928599999,343,"321 EDWIN STREET, NASHVILLE, TN, 37207","Match","Exact","321 EDWIN ST, NASHVILLE, TN, 37207",97186846,"L"
507344,"321 ELDER AVE","INDIANAPOLIS","IN",46222,39.771885361,-86.1937939269999,344,"321 ELDER AVE, INDIANAPOLIS, IN, 46222","Match","Non_Exact","321 N ELDER AVE, INDIANAPOLIS, IN, 46222",107987830,"R"
507345,"321 ELDERWOOD COURT","ANNAPOLIS","MD",21409,39.026207121,-76.476374979,345,"321 ELDERWOOD COURT, ANNAPOLIS, MD, 21409","Match","Exact","321 ELDERWOOD CT, ANNAPOLIS, MD, 21409",68174622,"R"
507346,"321 ELLENWOOD DRIVE","MIDDLETOWN","DE",19709,39.4718758020001,-75.6999062419999,346,"321 ELLENWOOD DRIVE, MIDDLETOWN, DE, 19709","Match","Exact","321 ELLENWOOD DR, MIDDLETOWN, DE, 19709",647605846,"R"
507347,"321 EMERALD OAKS","IRMO","SC",29063,34.1115198850001,-81.22928344,347,"321 EMERALD OAKS, IRMO, SC, 29063","Match","Non_Exact","321 EMERALD OAKS WAY, IRMO, SC, 29063",643926344,"R"
507348,"321 EMILY LN","BELL BUCKLE","TN",37020,35.6299887690001,-86.341358198,348,"321 EMILY LN, BELL BUCKLE, TN, 37020","Match","Exact","321 EMILY LN, BELL BUCKLE, TN, 37020",645583418,"L"
507349,"321 ESTIRENO","BORGER","TX",79007,35.650728601,-101.447911943,349,"321 ESTIRENO, BORGER, TX, 79007","Match","Non_Exact","321 ESTIRENO ST, BORGER, TX, 79007",185357867,"L"
507350,"321 EUCLID AVE","LYNN","MA",1904,42.4876056470001,-70.9579546539999,350,"321 EUCLID AVE, LYNN, MA, 1904","Match","Exact","321 EUCLID AVE, LYNN, MA, 01904",86644710,"R"
507351,"321 EVERSOLE DR","BOWLING GREEN","KY",42101,37.0385592210001,-86.442301786,351,"321 EVERSOLE DR, BOWLING GREEN, KY, 42101","Match","Exact","321 EVERSOLE DR, BOWLING GREEN, KY, 42101",28022934,"L"
507352,"321 FAIR OAKS DRIVE","FAIRFIELD","AL",35064,33.4648438140001,-86.920749826,352,"321 FAIR OAKS DRIVE, FAIRFIELD, AL, 35064","Match","Exact","321 FAIR OAKS DR, FAIRFIELD, AL, 35064",81556189,"R"
507353,"321 FAIRWOOD DRIVE","PRATTVILLE","AL",36067,32.453678374,-86.499628596,353,"321 FAIRWOOD DRIVE, PRATTVILLE, AL, 36067","Match","Exact","321 FAIRWOOD DR, PRATTVILLE, AL, 36067",2840850,"L"
507354,"321 FALLON CT","DEATSVILLE","AL",36022,32.511295788,-86.3923855629999,354,"321 FALLON CT, DEATSVILLE, AL, 36022","Match","Exact","321 FALLON CT, DEATSVILLE, AL, 36022",1378194,"L"
507355,"321 FARTHER LANE","VASS","NC",28394,35.186359026,-79.2992956539999,355,"321 FARTHER LANE, VASS, NC, 28394","Match","Exact","321 FARTHER LN, VASS, NC, 28394",653755731,"L"
507356,"321 FIRST ST APT B","BATAVIA","IL",60510,41.84836076,-88.3124604499999,356,"321 FIRST ST APT B, BATAVIA, IL, 60510","Match","Exact","321 1ST ST, BATAVIA, IL, 60510",119511820,"R"
507357,"321 FISHER COURT","CLAWSON","MI",48017,42.536648622,-83.142647615,357,"321 FISHER COURT, CLAWSON, MI, 48017","Match","Exact","321 FISHER CT, CLAWSON, MI, 48017",69778919,"L"
507358,"321 FISHER STATION RD","DURANT","OK",74701,33.992996765,-96.456918876,358,"321 FISHER STATION RD, DURANT, OK, 74701","Match","Exact","321 FISHER STA RD, DURANT, OK, 74701",62510205,"R"
507359,"321 FITZWATER STREET","PHILADELPHIA","PA",19147,39.9389757430001,-75.148548147,359,"321 FITZWATER STREET, PHILADELPHIA, PA, 19147","Match","Exact","321 FITZWATER ST, PHILADELPHIA, PA, 19147",131424392,"R"
507360,"321 FORREST AVE","SELMA","AL",36701,32.416066846,-87.042544102,360,"321 FORREST AVE, SELMA, AL, 36701","Match","Exact","321 FORREST AVE, SELMA, AL, 36701",1283718,"L"
507361,"321 FOUNTAIN STREET","PHILADELPHIA","PA",19128,40.0369448690001,-75.225327928,361,"321 FOUNTAIN STREET, PHILADELPHIA, PA, 19128","Match","Exact","321 FOUNTAIN ST, PHILADELPHIA, PA, 19128",131396204,"R"
507362,"321 FOX HARBOR","LEXINGTON","KY",40517,37.9738923950001,-84.521350852,362,"321 FOX HARBOR, LEXINGTON, KY, 40517","Match","Non_Exact","321 FOX HARBOUR DR, LEXINGTON, KY, 40517",31932540,"R"
507363,"321 FREDERICK AVENUE","JACKSON","MS",39209,NA,NA,363,"321 FREDERICK AVENUE, JACKSON, MS, 39209","No_Match",NA,NA,NA,NA
507364,"321 FREIDMAN DR","NEW CASTLE","DE",19720,39.5687435730001,-75.661045625,364,"321 FREIDMAN DR, NEW CASTLE, DE, 19720","Match","Non_Exact","321 FRIEDMAN DR, NEW CASTLE, DE, 19720",606244453,"L"
507365,"321 GEORGIA AVE","FORT MYERS","FL",33905,26.6883852350001,-81.804393745,365,"321 GEORGIA AVE, FORT MYERS, FL, 33905","Match","Exact","321 GEORGIA AVE, FORT MYERS, FL, 33905",118023298,"L"
507366,"321 GIDNEY STREET","SHELBY","NC",28150,35.2823092570001,-81.536021594,366,"321 GIDNEY STREET, SHELBY, NC, 28150","Match","Exact","321 GIDNEY ST, SHELBY, NC, 28150",640611607,"R"
507367,"321 GIFFORD STREET","SYRACUSE","NY",13204,43.043392139,-76.15926996,367,"321 GIFFORD STREET, SYRACUSE, NY, 13204","Match","Exact","321 GIFFORD ST, SYRACUSE, NY, 13204",46570936,"L"
507368,"321 GILMAN LANE UNIT 106","RALEIGH","NC",27610,35.7749143520001,-78.544413304,368,"321 GILMAN LANE UNIT 106, RALEIGH, NC, 27610","Match","Exact","321 GILMAN LN, RALEIGH, NC, 27610",639372717,"L"
507369,"321 GILMAN LANE","RALEIGH","NC",27610,35.7749143520001,-78.544413304,369,"321 GILMAN LANE, RALEIGH, NC, 27610","Match","Exact","321 GILMAN LN, RALEIGH, NC, 27610",639372717,"L"
507370,"321 GLENDALE RD","LAWRENCEBURG","TN",38464,NA,NA,370,"321 GLENDALE RD, LAWRENCEBURG, TN, 38464","No_Match",NA,NA,NA,NA
507371,"321 GLENWOOD DRIVE","BISMARCK","ND",58503,46.74988682,-100.788288312,371,"321 GLENWOOD DRIVE, BISMARCK, ND, 58503","Match","Non_Exact","321 GLENWOOD DR, BISMARCK, ND, 58504",624870824,"L"
507372,"321 GLOUCESTER RD","MARTINEZ","GA",30907,33.532524747,-82.064697297,372,"321 GLOUCESTER RD, MARTINEZ, GA, 30907","Match","Exact","321 GLOUCESTER RD, MARTINEZ, GA, 30907",55384014,"L"
507373,"321 GOLD CLUB ROAD","321 GOLD CLUB ROAD","CA",94523,37.9714429100001,-122.06964739,373,"321 GOLD CLUB ROAD, 321 GOLD CLUB ROAD, CA, 94523","Match","Non_Exact","321 GOLF CLUB RD, PLEASANT HILL, CA, 94523",192047874,"L"
507374,"321 GOLD CLUB ROAD","PLEASANT HILL","CA",94523,37.9714429100001,-122.06964739,374,"321 GOLD CLUB ROAD, PLEASANT HILL, CA, 94523","Match","Non_Exact","321 GOLF CLUB RD, PLEASANT HILL, CA, 94523",192047874,"L"
507375,"321 GRAFTON DRIVE","YORKTOWN","VA",23692,37.1641960320001,-76.467227206,375,"321 GRAFTON DRIVE, YORKTOWN, VA, 23692","Match","Exact","321 GRAFTON DR, YORKTOWN, VA, 23692",103796012,"L"
507376,"321 GRAYSTONE ROAD","YORK","PA",17402,39.9723643340001,-76.661083947,376,"321 GRAYSTONE ROAD, YORK, PA, 17402","Match","Non_Exact","321 GREYSTONE RD, YORK, PA, 17402",88733793,"L"
507377,"321 GREENSPRING LANE","SILVER SPRING","MD",20904,39.0833546650001,-77.004536631,377,"321 GREENSPRING LANE, SILVER SPRING, MD, 20904","Match","Exact","321 GREENSPRING LN, SILVER SPRING, MD, 20904",62094207,"R"
507378,"321 H ST","ELGIN","OK",73538,34.777655216,-98.291158227,378,"321 H ST, ELGIN, OK, 73538","Match","Exact","321 H ST, ELGIN, OK, 73538",14981765,"L"
507379,"321 HAMBLIN AVENUE","GREENVILLE","CA",95947,40.1403234050001,-120.947216889,379,"321 HAMBLIN AVENUE, GREENVILLE, CA, 95947","Match","Exact","321 HAMBLIN AVE, GREENVILLE, CA, 95947",127215583,"R"
507380,"321 HAMILTON ST","GENEVA","IL",60134,41.889036074,-88.30795604,380,"321 HAMILTON ST, GENEVA, IL, 60134","Match","Exact","321 HAMILTON ST, GENEVA, IL, 60134",119507829,"R"
507381,"321 HANBY CIRCLE","BOOTHWYN","PA",19061,39.8472542970001,-75.4578875669999,381,"321 HANBY CIRCLE, BOOTHWYN, PA, 19061","Match","Exact","321 HANBY CIR, BOOTHWYN, PA, 19061",134899194,"R"
507382,"321 HARKINS BLUFF DR","GREER","SC",29651,NA,NA,382,"321 HARKINS BLUFF DR, GREER, SC, 29651","No_Match",NA,NA,NA,NA
507383,"321 HARPER PLACE","HIGHLAND PARK","NJ",8904,40.4957532970001,-74.425467509,383,"321 HARPER PLACE, HIGHLAND PARK, NJ, 8904","Match","Exact","321 HARPER PL, HIGHLAND PARK, NJ, 08904",60266893,"L"
507384,"321 HARVARD DR","DEFOREST","WI",53532,43.246374001,-89.347198726,384,"321 HARVARD DR, DEFOREST, WI, 53532","Match","Exact","321 HARVARD DR, DEFOREST, WI, 53532",49465341,"R"
507385,"321 HARVARD ROAD","SAINT AUGUSTINE","FL",32086,29.853823445,-81.3192498719999,385,"321 HARVARD ROAD, SAINT AUGUSTINE, FL, 32086","Match","Exact","321 HARVARD RD, SAINT AUGUSTINE, FL, 32086",92585653,"R"
507386,"321 HARVARD ST","CAMBRIDGE","MA",2139,42.3702755830001,-71.10769404,386,"321 HARVARD ST, CAMBRIDGE, MA, 2139","Match","Exact","321 HARVARD ST, CAMBRIDGE, MA, 02139",86868754,"R"
507387,"321 HARVARD STREET UNIT 208","CAMBRIDGE","MA",2139,42.3702755830001,-71.10769404,387,"321 HARVARD STREET UNIT 208, CAMBRIDGE, MA, 2139","Match","Exact","321 HARVARD ST, CAMBRIDGE, MA, 02139",86868754,"R"
507388,"321 HARVEY STREET","BUTTE","NE",68722,42.9107028540001,-98.85060888,388,"321 HARVEY STREET, BUTTE, NE, 68722","Match","Exact","321 HARVEY ST, BUTTE, NE, 68722",168518893,"R"
507389,"321 HAWTHORNE ST","CANONSBURG","PA",15317,40.260371155,-80.194920103,389,"321 HAWTHORNE ST, CANONSBURG, PA, 15317","Match","Exact","321 HAWTHORNE ST, CANONSBURG, PA, 15317",52800630,"L"
507390,"321 HAYLEY WAY","SMYRNA","DE",19977,39.248983192,-75.5958681279999,390,"321 HAYLEY WAY, SMYRNA, DE, 19977","Match","Exact","321 HAYLEY WAY, SMYRNA, DE, 19977",68100306,"R"
507391,"321 HEDGEHOG MOUNTAIN ROAD","DEERING","NH",3244,43.08625562,-71.882154941,391,"321 HEDGEHOG MOUNTAIN ROAD, DEERING, NH, 3244","Match","Exact","321 HEDGEHOG MOUNTAIN RD, DEERING, NH, 03244",113525888,"L"
507392,"321 HEDRICK DR","HENDERSON","NC",27537,36.40134885,-78.374273404,392,"321 HEDRICK DR, HENDERSON, NC, 27537","Match","Exact","321 HEDRICK DR, HENDERSON, NC, 27537",636030741,"R"
507393,"321 HEDRICK","HENDERSON","NC",27537,36.40134885,-78.374273404,393,"321 HEDRICK, HENDERSON, NC, 27537","Match","Non_Exact","321 HEDRICK DR, HENDERSON, NC, 27537",636030741,"R"
507394,"321 HEMLOCK LANE","NEW HOLLAND","PA",17557,40.1033062450001,-76.0983788679999,394,"321 HEMLOCK LANE, NEW HOLLAND, PA, 17557","Match","Exact","321 HEMLOCK LN, NEW HOLLAND, PA, 17557",179699173,"R"
507395,"321 HERNDON LANE","BEREA","KY",40403,37.623012907,-84.262539266,395,"321 HERNDON LANE, BEREA, KY, 40403","Match","Exact","321 HERNDON LN, BEREA, KY, 40403",32007466,"R"
507396,"321 HESSAR LANE","GRANTS PASS","OR",97527,42.3998541760001,-123.321074671,396,"321 HESSAR LANE, GRANTS PASS, OR, 97527","Match","Exact","321 HESSAR LN, GRANTS PASS, OR, 97527",156601782,"L"
507397,"321 HICKORY CT","SCHAUMBURG","IL",60193,42.020470571,-88.0853096499999,397,"321 HICKORY CT, SCHAUMBURG, IL, 60193","Match","Exact","321 HICKORY CT, SCHAUMBURG, IL, 60193",111694932,"L"
507398,"321 HIGH SCHOOL RD NE STE D3 132","BAINBRIDGE ISLAND","WA",98110,47.635755196,-122.518189397,398,"321 HIGH SCHOOL RD NE STE D3 132, BAINBRIDGE ISLAND, WA, 98110","Match","Exact","321 HIGH SCHOOL RD NE, BAINBRIDGE ISLAND, WA, 98110",187667158,"R"
507399,"321 HIGH SCHOOL RD NE STE D3 183","BAINBRIDGE IS","WA",98110,47.635755196,-122.518189397,399,"321 HIGH SCHOOL RD NE STE D3 183, BAINBRIDGE IS, WA, 98110","Match","Exact","321 HIGH SCHOOL RD NE, BAINBRIDGE IS, WA, 98110",187667158,"R"
507400,"321 HIGH SCHOOL RD NE STE D3 326","BAINBRIDGE ISLAND","WA",98110,47.635755196,-122.518189397,400,"321 HIGH SCHOOL RD NE STE D3 326, BAINBRIDGE ISLAND, WA, 98110","Match","Exact","321 HIGH SCHOOL RD NE, BAINBRIDGE ISLAND, WA, 98110",187667158,"R"
507401,"321 HIGH SCHOOL ROAD NE STE D3 292","BAINBRIDGE ISLAND","WA",98110,47.635755196,-122.518189397,401,"321 HIGH SCHOOL ROAD NE STE D3 292, BAINBRIDGE ISLAND, WA, 98110","Match","Exact","321 HIGH SCHOOL RD NE, BAINBRIDGE ISLAND, WA, 98110",187667158,"R"
507402,"321 HIGH SCHOOL ROAD NE STE D3 361","BAINBRIDGE ISLAND","WA",98110,47.635755196,-122.518189397,402,"321 HIGH SCHOOL ROAD NE STE D3 361, BAINBRIDGE ISLAND, WA, 98110","Match","Exact","321 HIGH SCHOOL RD NE, BAINBRIDGE ISLAND, WA, 98110",187667158,"R"
507403,"321 HIGH ST","DALTON","MA",1226,42.478817776,-73.169895308,403,"321 HIGH ST, DALTON, MA, 1226","Match","Exact","321 HIGH ST, DALTON, MA, 01226",3954297,"R"
507404,"321 HIGH STREET","BERLIN","NH",3570,44.477468125,-71.182695322,404,"321 HIGH STREET, BERLIN, NH, 3570","Match","Exact","321 HIGH ST, BERLIN, NH, 03570",167897005,"L"
507405,"321 HIGH STREET","ELIZABETH","PA",15037,40.271928115,-79.8338300189999,405,"321 HIGH STREET, ELIZABETH, PA, 15037","Match","Exact","321 HIGH ST, ELIZABETH, PA, 15037",51679349,"L"
507406,"321 HIGHWAY 8","MORRISON","CO",80465,39.6467345410001,-105.193031857,406,"321 HIGHWAY 8, MORRISON, CO, 80465","Match","Non_Exact","321 STATE HWY 8, MORRISON, CO, 80465",177777204,"R"
507407,"321 HILLSIDE DRIVE","HARDINSBURG","KY",40143,37.764280899,-86.439000634,407,"321 HILLSIDE DRIVE, HARDINSBURG, KY, 40143","Match","Non_Exact","321 HILLSIDE LN, HARDINSBURG, KY, 40143",623826030,"L"
507408,"321 HOLIDAY RD","COMFORT","TX",78013,29.9059614230001,-98.887292062,408,"321 HOLIDAY RD, COMFORT, TX, 78013","Match","Exact","321 HOLIDAY RD, COMFORT, TX, 78013",102753314,"R"
507409,"321 HOLLY DR","SPARTANBURG","SC",29301,34.9280959230001,-81.9745478579999,409,"321 HOLLY DR, SPARTANBURG, SC, 29301","Match","Exact","321 HOLLY DR, SPARTANBURG, SC, 29301",19530056,"L"
507410,"321 HOLSTON DR","BRISTOL","TN",37620,NA,NA,410,"321 HOLSTON DR, BRISTOL, TN, 37620","No_Match",NA,NA,NA,NA
507411,"321 HOOKTON CEMETARY RD","LOLETA","CA",95551,40.6621234080001,-124.213069908,411,"321 HOOKTON CEMETARY RD, LOLETA, CA, 95551","Match","Exact","321 HOOKTON CEMETARY RD, LOLETA, CA, 95551",645258326,"R"
507412,"321 HOWARD DR","LARGO","FL",33770,27.9197342480001,-82.799550052,412,"321 HOWARD DR, LARGO, FL, 33770","Match","Non_Exact","321 HOWARD DR NW, LARGO, FL, 33770",124671666,"L"
507413,"321 IMPERIAL BLVD APT H88","LAKELAND","FL",33801,28.001826807,-81.95980508,413,"321 IMPERIAL BLVD APT H88, LAKELAND, FL, 33801","Match","Non_Exact","321 IMPERIAL BLVD, LAKELAND, FL, 33803",612429132,"R"
507414,"321 JACKSON STREET","LOCUST GROVE","GA",30248,33.3559666140001,-84.115310398,414,"321 JACKSON STREET, LOCUST GROVE, GA, 30248","Match","Non_Exact","321 N JACKSON ST, LOCUST GROVE, GA, 30248",23186079,"R"
507415,"321 JAMES AVENUE","ROCKFORD","IL",61107,42.270082669,-89.053536482,415,"321 JAMES AVENUE, ROCKFORD, IL, 61107","Match","Exact","321 JAMES AVE, ROCKFORD, IL, 61107",618933248,"R"
507416,"321 JAMESTOWN BLVD APT 160188","ALTAMONTE SPRINGS","FL",32716,NA,NA,416,"321 JAMESTOWN BLVD APT 160188, ALTAMONTE SPRINGS, FL, 32716","No_Match",NA,NA,NA,NA
507417,"321 JASMIN","NASH","TX",75569,33.4396333510001,-94.112959985,417,"321 JASMIN, NASH, TX, 75569","Match","Non_Exact","321 JASMIN LN, NASH, TX, 75569",57678551,"L"
507418,"321 JEFFERSON AVE","SACRAMENTO","CA",95833,38.6066804380001,-121.471024499,418,"321 JEFFERSON AVE, SACRAMENTO, CA, 95833","Match","Exact","321 JEFFERSON AVE, SACRAMENTO, CA, 95833",133321032,"R"
507419,"321 JO DRIVE","UPPER MARLBORO","MD",20774,38.8855076580001,-76.810590879,419,"321 JO DRIVE, UPPER MARLBORO, MD, 20774","Match","Exact","321 JO DR, UPPER MARLBORO, MD, 20774",76344949,"L"
507420,"321 JOHN RANDOLPH RD","FARMVILLE","VA",23901,37.3861965230001,-78.343230701,420,"321 JOHN RANDOLPH RD, FARMVILLE, VA, 23901","Match","Exact","321 JOHN RANDOLPH RD, FARMVILLE, VA, 23901",73710894,"L"
507421,"321 JOHN SARTAIN","CORPUS CHRISITI","TX",78401,27.7930333890001,-97.3940518649999,421,"321 JOHN SARTAIN, CORPUS CHRISITI, TX, 78401","Match","Non_Exact","321 JOHN SARTAIN ST, CORPUS CHRISTI, TX, 78401",178517052,"L"
507422,"321 JOHNSON AVENUE","LAWRENCEVILLE","NJ",8648,40.2710764490001,-74.75167175,422,"321 JOHNSON AVENUE, LAWRENCEVILLE, NJ, 8648","Match","Exact","321 JOHNSON AVE, LAWRENCEVILLE, NJ, 08648",647347516,"L"
507423,"321 JONES BLVD","POTTSTOWN","PA",19464,40.233018842,-75.551095167,423,"321 JONES BLVD, POTTSTOWN, PA, 19464","Match","Exact","321 JONES BLVD, POTTSTOWN, PA, 19464",135125117,"R"
507424,"321 JOSEPH","BOXBOROUGH","MA",1720,NA,NA,424,"321 JOSEPH, BOXBOROUGH, MA, 1720","No_Match",NA,NA,NA,NA
507425,"321 JOYNT ST","LATHAM","IL",62543,39.967727676,-89.1602024969999,425,"321 JOYNT ST, LATHAM, IL, 62543","Match","Exact","321 JOYNT ST, LATHAM, IL, 62543",22441843,"L"
507426,"321 KAREN WAY","TIBURON","CA",94920,37.901928436,-122.496513122,426,"321 KAREN WAY, TIBURON, CA, 94920","Match","Exact","321 KAREN WAY, TIBURON, CA, 94920",192768741,"L"
507427,"321 KENILWORTH DRIVE","ROCKFORD","IL",61101,42.2644991860001,-89.051291298,427,"321 KENILWORTH DRIVE, ROCKFORD, IL, 61101","Match","Non_Exact","321 KENILWORTH DR, ROCKFORD, IL, 61108",49260013,"R"
507428,"321 KEY CORNER ST","BROWNSVILLE","TN",38012,35.5971832820001,-89.2658555789999,428,"321 KEY CORNER ST, BROWNSVILLE, TN, 38012","Match","Exact","321 KEY CORNER ST, BROWNSVILLE, TN, 38012",639870488,"R"
507429,"321 KILWORTH DR","CORONA","CA",92882,33.8378030210001,-117.574250389,429,"321 KILWORTH DR, CORONA, CA, 92882","Match","Exact","321 KILWORTH DR, CORONA, CA, 92882",647421547,"R"
507430,"321 KINGSTON AVE","BROOKLYN","NY",11213,40.6681857,-73.9423016659999,430,"321 KINGSTON AVE, BROOKLYN, NY, 11213","Match","Exact","321 KINGSTON AVE, BROOKLYN, NY, 11213",59079697,"L"
507431,"321 LA PATOS","MYRTLE BEACH","SC",29588,33.7142129850001,-78.989465679,431,"321 LA PATOS, MYRTLE BEACH, SC, 29588","Match","Non_Exact","321 LA PATOS DR, MYRTLE BEACH, SC, 29588",631253802,"R"
507432,"321 LANDING DR","KINGSLAND","GA",31548,30.7893671030001,-81.802938479,432,"321 LANDING DR, KINGSLAND, GA, 31548","Match","Exact","321 LANDING DR, KINGSLAND, GA, 31548",125707137,"L"
507433,"321 LAREDO STREET","SAN MARCOS","TX",78666,29.865393958,-97.9363434639999,433,"321 LAREDO STREET, SAN MARCOS, TX, 78666","Match","Exact","321 LAREDO ST, SAN MARCOS, TX, 78666",63826614,"L"
507434,"321 LARPENTUER AVE E","MAPLEWOOD","MN",55117,44.9917983020001,-93.08690197,434,"321 LARPENTUER AVE E, MAPLEWOOD, MN, 55117","Match","Non_Exact","321 LARPENTEUR AVE E, MAPLEWOOD, MN, 55117",97644550,"L"
507435,"321 LAUREL AVE","NEWARK","DE",19711,39.705095987,-75.715625081,435,"321 LAUREL AVE, NEWARK, DE, 19711","Match","Exact","321 LAUREL AVE, NEWARK, DE, 19711",187277917,"L"
507436,"321 LAUREL RISE LANE","COLUMBIA","SC",29229,34.1673540460001,-80.8988191449999,436,"321 LAUREL RISE LANE, COLUMBIA, SC, 29229","Match","Exact","321 LAUREL RISE LN, COLUMBIA, SC, 29229",627502189,"L"
507437,"321 LAW RD 225","BLACK ROCK","AR",72415,NA,NA,437,"321 LAW RD 225, BLACK ROCK, AR, 72415","No_Match",NA,NA,NA,NA
507438,"321 LAZY RIVER DRIVE","SHEPHERDSVILLE","KY",40165,38.011545643,-85.641940936,438,"321 LAZY RIVER DRIVE, SHEPHERDSVILLE, KY, 40165","Match","Exact","321 LAZY RIVER DR, SHEPHERDSVILLE, KY, 40165",47734977,"R"
507439,"321 LEE ROAD 344","SALEM","AL",36874,32.6675119000001,-85.14250529,439,"321 LEE ROAD 344, SALEM, AL, 36874","Match","Exact","321 LEE ROAD 344, SALEM, AL, 36874",1597804,"L"
507440,"321 LEIGH ROAD","WEST PALM BEACH","FL",33405,26.648997862,-80.053400629,440,"321 LEIGH ROAD, WEST PALM BEACH, FL, 33405","Match","Exact","321 LEIGH RD, WEST PALM BEACH, FL, 33405",115281108,"R"
507441,"321 LEWIS AVENUE","BROOKLYN","NY",11221,40.684676858,-73.935378694,441,"321 LEWIS AVENUE, BROOKLYN, NY, 11221","Match","Exact","321 LEWIS AVE, BROOKLYN, NY, 11221",59079268,"L"
507442,"321 LEWISVILLE LN","LEANDER","TX",78641,30.6312620890001,-97.853347723,442,"321 LEWISVILLE LN, LEANDER, TX, 78641","Match","Exact","321 LEWISVILLE LN, LEANDER, TX, 78641",648536428,"L"
507443,"321 LIBBY AVENUE","RIDGEWOOD","NJ",7450,40.986169223,-74.106557922,443,"321 LIBBY AVENUE, RIDGEWOOD, NJ, 7450","Match","Exact","321 LIBBY AVE, RIDGEWOOD, NJ, 07450",64376805,"R"
507444,"321 LINCOLN ST","CRESTVIEW","FL",32536,NA,NA,444,"321 LINCOLN ST, CRESTVIEW, FL, 32536","Tie",NA,NA,NA,NA
507445,"321 LINDEN ST","WINNETKA","IL",60093,42.099826524,-87.733649013,445,"321 LINDEN ST, WINNETKA, IL, 60093","Match","Exact","321 LINDEN ST, WINNETKA, IL, 60093",111737923,"R"
507446,"321 LINDEN STREET","WINNETKA","IL",60093,42.099826524,-87.733649013,446,"321 LINDEN STREET, WINNETKA, IL, 60093","Match","Exact","321 LINDEN ST, WINNETKA, IL, 60093",111737923,"R"
507447,"321 LINWOOD AVE","ALBION","NY",14411,43.2526518000001,-78.1808523719999,447,"321 LINWOOD AVE, ALBION, NY, 14411","Match","Exact","321 LINWOOD AVE, ALBION, NY, 14411",48809136,"L"
507448,"321 LIPAN HWY","GRANBURY","TX",76048,NA,NA,448,"321 LIPAN HWY, GRANBURY, TX, 76048","No_Match",NA,NA,NA,NA
507449,"321 LITTLE CREEK DR","STREAMWOOD","IL",60107,42.025636252,-88.208292037,449,"321 LITTLE CREEK DR, STREAMWOOD, IL, 60107","Match","Exact","321 LITTLE CREEK DR, STREAMWOOD, IL, 60107",112384211,"L"
507450,"321 LIVORNA HEIGHTS RD","ALAMO","CA",94507,37.871101665,-122.02441783,450,"321 LIVORNA HEIGHTS RD, ALAMO, CA, 94507","Match","Exact","321 LIVORNA HEIGHTS RD, ALAMO, CA, 94507",192100730,"L"
507451,"321 LONG MOUNTAIN ROAD","NEW MILFORD","CT",6776,41.6325090190001,-73.4504707259999,451,"321 LONG MOUNTAIN ROAD, NEW MILFORD, CT, 6776","Match","Exact","321 LONG MOUNTAIN RD, NEW MILFORD, CT, 06776",611472109,"L"
507452,"321 LOWELL ST","STOUGHTON","WI",53589,42.912253225,-89.223461215,452,"321 LOWELL ST, STOUGHTON, WI, 53589","Match","Exact","321 LOWELL ST, STOUGHTON, WI, 53589",49481768,"L"
507453,"321 LUDFORD STREET","LUDLOW","KY",41016,39.086992636,-84.55194699,453,"321 LUDFORD STREET, LUDLOW, KY, 41016","Match","Exact","321 LUDFORD ST, LUDLOW, KY, 41016",103874447,"L"
507454,"321 LYNWELL DR","ORLANDO","FL",32839,28.483711144,-81.371269287,454,"321 LYNWELL DR, ORLANDO, FL, 32839","Match","Non_Exact","321 LYNWELL DR, ORLANDO, FL, 32809",94284661,"L"
507455,"321 LYSBETH CT","GOLDSBY","OK",73093,35.148473977,-97.49167898,455,"321 LYSBETH CT, GOLDSBY, OK, 73093","Match","Exact","321 LYSBETH CT, GOLDSBY, OK, 73093",625725432,"R"
507456,"321 MACBRIDE RD","IOWA CITY","IA",52246,41.655687443,-91.569136701,456,"321 MACBRIDE RD, IOWA CITY, IA, 52246","Match","Exact","321 MACBRIDE RD, IOWA CITY, IA, 52246",84513784,"R"
507457,"321 MADISON GROVE BLVD","THOMASVILLE","GA",31757,30.8516332720001,-83.930140348,457,"321 MADISON GROVE BLVD, THOMASVILLE, GA, 31757","Match","Exact","321 MADISON GROVE BLVD, THOMASVILLE, GA, 31757",617527682,"L"
507458,"321 MADISON HILL ROAD","CLARK","NJ",7066,40.6180286110001,-74.31950373,458,"321 MADISON HILL ROAD, CLARK, NJ, 7066","Match","Exact","321 MADISON HILL RD, CLARK, NJ, 07066",641778459,"R"
507459,"321 MAGNOLIA AVE","DALEVILLE","VA",24083,37.440679806,-79.893114833,459,"321 MAGNOLIA AVE, DALEVILLE, VA, 24083","Match","Non_Exact","321 MAGNOLIA LN, DALEVILLE, VA, 24083",62459933,"L"
507460,"321 MAGNOLIA LN","DALEVILLE","VA",24083,37.440679806,-79.893114833,460,"321 MAGNOLIA LN, DALEVILLE, VA, 24083","Match","Exact","321 MAGNOLIA LN, DALEVILLE, VA, 24083",62459933,"L"
507461,"321 MAIN ST","SHELBURNE FALLS","MA",1370,42.6270709950001,-72.7355377119999,461,"321 MAIN ST, SHELBURNE FALLS, MA, 1370","Match","Exact","321 MAIN ST, SHELBURNE FALLS, MA, 01370",39942306,"R"
507462,"321 MAIN STREET","COLOMBIA","SC",29229,33.9894604150001,-81.028288061,462,"321 MAIN STREET, COLOMBIA, SC, 29229","Match","Non_Exact","321 MAIN ST, COLUMBIA, SC, 29201",71827708,"L"
507463,"321 MAIN STREET","FARMINGTON","CT",6032,41.704851983,-72.843042996,463,"321 MAIN STREET, FARMINGTON, CT, 6032","Match","Exact","321 MAIN ST, FARMINGTON, CT, 06032",3512727,"L"
507464,"321 MAIN STREET","FORD CITY","PA",16226,40.7679234870001,-79.526394464,464,"321 MAIN STREET, FORD CITY, PA, 16226","Match","Exact","321 MAIN ST, FORD CITY, PA, 16226",640084318,"L"
507465,"321 MAIN STREET","LEESBURGH","GA",31763,31.731565446,-84.1615614629999,465,"321 MAIN STREET, LEESBURGH, GA, 31763","Match","Non_Exact","321 MAIN ST E, LEESBURG, GA, 31763",636332811,"R"
507466,"321 MANHATTAN AVE UNIT 2","BROOKLYN","NY",11211,40.714958111,-73.946173093,466,"321 MANHATTAN AVE UNIT 2, BROOKLYN, NY, 11211","Match","Exact","321 MANHATTAN AVE, BROOKLYN, NY, 11211",59076850,"L"
507467,"321 MAPLE AVE","LUMBERTON","NJ",8048,NA,NA,467,"321 MAPLE AVE, LUMBERTON, NJ, 8048","No_Match",NA,NA,NA,NA
507468,"321 MAPLE COURT","GRANGEVILLE","ID",82530,45.9215361870001,-116.111429244,468,"321 MAPLE COURT, GRANGEVILLE, ID, 82530","Match","Non_Exact","321 MAPLE CT, GRANGEVILLE, ID, 83530",643377860,"R"
507469,"321 MAPLE ST","CAWKER CITY","KS",67430,39.5143578930001,-98.434504832,469,"321 MAPLE ST, CAWKER CITY, KS, 67430","Match","Exact","321 MAPLE ST, CAWKER CITY, KS, 67430",148307066,"L"
507470,"321 MAPLE STREET PMB 560","PERTH AMBOY","NJ",8861,40.5108804010001,-74.271350589,470,"321 MAPLE STREET PMB 560, PERTH AMBOY, NJ, 8861","Match","Exact","321 MAPLE ST, PERTH AMBOY, NJ, 08861",60281215,"L"
507471,"321 MARINE AVENUE","NEWPORT BEACH","CA",92662,33.6073904630001,-117.88979431,471,"321 MARINE AVENUE, NEWPORT BEACH, CA, 92662","Match","Exact","321 MARINE AVE, NEWPORT BEACH, CA, 92662",144050055,"L"
507472,"321 MARKET ST","TAMAQUA","PA",18252,40.8015989140001,-75.9657484219999,472,"321 MARKET ST, TAMAQUA, PA, 18252","Match","Exact","321 MARKET ST, TAMAQUA, PA, 18252",70956758,"R"
507473,"321 MARSHALL ST","KENNETT SQUARE","PA",19348,39.8448315790001,-75.7084325169999,473,"321 MARSHALL ST, KENNETT SQUARE, PA, 19348","Match","Exact","321 MARSHALL ST, KENNETT SQUARE, PA, 19348",179502799,"L"
507474,"321 MARTELLA","LOUSIANA","MO",63353,39.4430119780001,-91.0664357649999,474,"321 MARTELLA, LOUSIANA, MO, 63353","Match","Non_Exact","321 MARTELLA DR, LOUISIANA, MO, 63353",44640511,"R"
507475,"321 MARTI MARIE LANE","MARTINEZ","CA",94553,37.9985627680001,-122.09652382,475,"321 MARTI MARIE LANE, MARTINEZ, CA, 94553","Match","Exact","321 MARTI MARIE LN, MARTINEZ, CA, 94553",192092914,"R"
507476,"321 MAYFLOWER DR","RED OAK","TX",75154,32.5450043070001,-96.835146881,476,"321 MAYFLOWER DR, RED OAK, TX, 75154","Match","Exact","321 MAYFLOWER DR, RED OAK, TX, 75154",635273874,"L"
507477,"321 MAYHILL STREET","SADDLE BROOK","NJ",7993,NA,NA,477,"321 MAYHILL STREET, SADDLE BROOK, NJ, 7993","No_Match",NA,NA,NA,NA
507478,"321 MEAGHER AVENUE","BOZEMAN","MT",59718,45.6827423510001,-111.086396313,478,"321 MEAGHER AVENUE, BOZEMAN, MT, 59718","Match","Exact","321 MEAGHER AVE, BOZEMAN, MT, 59718",163515443,"R"
507479,"321 MEANDERING WAY","DEL RIO","TX",78840,29.408026201,-100.911653722,479,"321 MEANDERING WAY, DEL RIO, TX, 78840","Match","Exact","321 MEANDERING WAY, DEL RIO, TX, 78840",639733742,"R"
507480,"321 MESQUITE COURT","MURPHY","TX",75094,33.003339247,-96.607794284,480,"321 MESQUITE COURT, MURPHY, TX, 75094","Match","Exact","321 MESQUITE CT, MURPHY, TX, 75094",123555943,"L"
507481,"321 MEYERS CT","SAN LEANDRO","CA",94577,37.7393952850001,-122.150832755,481,"321 MEYERS CT, SAN LEANDRO, CA, 94577","Match","Non_Exact","321 MYERS CT, SAN LEANDRO, CA, 94577",125011521,"R"
507482,"321 MIDDLE STREET","OKOLONA","MS",38868,34.009785444,-88.7386133859999,482,"321 MIDDLE STREET, OKOLONA, MS, 38868","Match","Non_Exact","321 MIDDLE ST, OKOLONA, MS, 38860",76929513,"L"
507483,"321 MIDDLESEX AVE","COLONIA","NJ",7067,40.5812116500001,-74.319477014,483,"321 MIDDLESEX AVE, COLONIA, NJ, 7067","Match","Exact","321 MIDDLESEX AVE, COLONIA, NJ, 07067",60273076,"L"
507484,"321 MIDWAY DR","RIVER RIDGE","LA",70123,29.964038271,-90.208398041,484,"321 MIDWAY DR, RIVER RIDGE, LA, 70123","Match","Exact","321 MIDWAY DR, RIVER RIDGE, LA, 70123",639852787,"R"
507485,"321 MILL POND WAY","EATONTOWN","NJ",7725,NA,NA,485,"321 MILL POND WAY, EATONTOWN, NJ, 7725","No_Match",NA,NA,NA,NA
507486,"321 MILL STREET SUITE 6","EUGENE","OR",97401,44.0562736540001,-123.086602027,486,"321 MILL STREET SUITE 6, EUGENE, OR, 97401","Match","Exact","321 MILL ST, EUGENE, OR, 97401",605384414,"L"
507487,"321 MILLER STREET","WINCHESTER","VA",22601,39.1755668320001,-78.175174323,487,"321 MILLER STREET, WINCHESTER, VA, 22601","Match","Exact","321 MILLER ST, WINCHESTER, VA, 22601",55610236,"L"
507488,"321 MITCHELL STREET","HILLSBOROUGH","NC",27278,36.079337471,-79.094958038,488,"321 MITCHELL STREET, HILLSBOROUGH, NC, 27278","Match","Exact","321 MITCHELL ST, HILLSBOROUGH, NC, 27278",72376829,"L"
507489,"321 MITTENZWEI DR","OXFORD","NC",27565,36.2972571780001,-78.593097907,489,"321 MITTENZWEI DR, OXFORD, NC, 27565","Match","Non_Exact","321 MITTENZWEI LN, OXFORD, NC, 27565",651476568,"L"
507490,"321 MOCKINGBIRD HILL ROAD","LOUISVILLE","KY",40207,38.264404907,-85.6796405109999,490,"321 MOCKINGBIRD HILL ROAD, LOUISVILLE, KY, 40207","Match","Exact","321 MOCKINGBIRD HILL RD, LOUISVILLE, KY, 40207",96852061,"R"
507491,"321 MOJAVE ST W","LAKE QUIVIRA","KS",66217,39.036264427,-94.777258285,491,"321 MOJAVE ST W, LAKE QUIVIRA, KS, 66217","Match","Exact","321 MOJAVE ST W, LAKE QUIVIRA, KS, 66217",91305665,"R"
507492,"321 MONTGOMERY ST APT 5","BROOKLYN","NY",11225,40.665577822,-73.954074793,492,"321 MONTGOMERY ST APT 5, BROOKLYN, NY, 11225","Match","Exact","321 MONTGOMERY ST, BROOKLYN, NY, 11225",59079494,"L"
507493,"321 MOODY STREET","HOUSTON","TX",77009,29.804171449,-95.366605046,493,"321 MOODY STREET, HOUSTON, TX, 77009","Match","Exact","321 MOODY ST, HOUSTON, TX, 77009",96058438,"L"
507494,"321 MOORLAND COURT","LAWRENCEVILLE","GA",30043,34.0122222210001,-83.938383404,494,"321 MOORLAND COURT, LAWRENCEVILLE, GA, 30043","Match","Exact","321 MOORLAND CT, LAWRENCEVILLE, GA, 30043",636106622,"R"
507495,"321 MORAN","GROSSE PTE FARMS","MI",48236,42.4032703010001,-82.908455789,495,"321 MORAN, GROSSE PTE FARMS, MI, 48236","Match","Non_Exact","321 MORAN RD, GROSSE POINTE FARMS, MI, 48236",95488175,"L"
507496,"321 MOROCCO STREET","JONESBORO","LA",71251,32.250007549,-92.705329891,496,"321 MOROCCO STREET, JONESBORO, LA, 71251","Match","Exact","321 MOROCCO ST, JONESBORO, LA, 71251",161006088,"R"
507497,"321 MORTIMER AVENUE","RUTHERFORD","NJ",7070,40.8249443490001,-74.1129293769999,497,"321 MORTIMER AVENUE, RUTHERFORD, NJ, 7070","Match","Exact","321 MORTIMER AVE, RUTHERFORD, NJ, 07070",64394386,"L"
507498,"321 MOUNTAIN AVENUE","PLAINFIELD","NJ",7060,40.634369356,-74.4228612169999,498,"321 MOUNTAIN AVENUE, PLAINFIELD, NJ, 7060","Match","Exact","321 MOUNTAIN AVE, PLAINFIELD, NJ, 07060",59949014,"L"
507499,"321 MT ZION ROAD","LANCASTER","OH",43130,NA,NA,499,"321 MT ZION ROAD, LANCASTER, OH, 43130","Tie",NA,NA,NA,NA
507500,"321 MULBERRY STREET","PATASKALA","OH",43062,39.9952041770001,-82.6818463119999,500,"321 MULBERRY STREET, PATASKALA, OH, 43062","Match","Exact","321 MULBERRY ST, PATASKALA, OH, 43062",61493991,"L"
