"ID","Address","City","State","Zip","lat","long","id","input_address","match_indicator","match_type","matched_address","tiger_line_id","tiger_side"
686001,"5051 SW 133RD AVE","OCALA","FL",34481,29.137887327,-82.3403657059999,1,"5051 SW 133RD AVE, OCALA, FL, 34481","Match","Exact","5051 SW 133RD AVE, OCALA, FL, 34481",116745007,"R"
686002,"5051 THISTLE LANE","LAKE IN THE HILLS","IL",60156,42.2005541830001,-88.3918546949999,2,"5051 THISTLE LANE, LAKE IN THE HILLS, IL, 60156","Match","Exact","5051 THISTLE LN, LAKE IN THE HILLS, IL, 60156",119845174,"R"
686003,"5051 TIDE VILLAGE","CHRISIANSTED","VI",820,NA,NA,3,"5051 TIDE VILLAGE, CHRISIANSTED, VI, 820","No_Match",NA,NA,NA,NA
686004,"5051 TIDE VILLAGE","CHRISTIANSTED","VI",820,NA,NA,4,"5051 TIDE VILLAGE, CHRISTIANSTED, VI, 820","No_Match",NA,NA,NA,NA
686005,"5051 VERMILION TRAIL","GILBERT","MN",55741,47.4839265080001,-92.3427887239999,5,"5051 VERMILION TRAIL, GILBERT, MN, 55741","Match","Exact","5051 VERMILION TRL, GILBERT, MN, 55741",163224489,"L"
686006,"5051 W OVERTON RD","TUCSON","AZ",85742,32.373963566,-111.072695928,6,"5051 W OVERTON RD, TUCSON, AZ, 85742","Match","Exact","5051 W OVERTON RD, TUCSON, AZ, 85742",121222091,"R"
686007,"5051 WEST OAKLAND PARK","FORT LAUDERDALE","FL",33313,26.1648495690001,-80.216497765,7,"5051 WEST OAKLAND PARK, FORT LAUDERDALE, FL, 33313","Match","Non_Exact","5051 W OAKLAND PARK BLVD, FORT LAUDERDALE, FL, 33313",618154006,"L"
686008,"5051 WINTER CREEK DRIVE","GROVE CITY","OH",43123,39.859374239,-83.056545017,8,"5051 WINTER CREEK DRIVE, GROVE CITY, OH, 43123","Match","Exact","5051 WINTER CREEK DR, GROVE CITY, OH, 43123",135636795,"L"
686009,"5051-A WALLINGFORD DRIVE","RALEIGH","NC",27616,35.850797329,-78.5723851549999,9,"5051-A WALLINGFORD DRIVE, RALEIGH, NC, 27616","Match","Exact","5051 WALLINGFORD DR, RALEIGH, NC, 27616",72622853,"L"
686010,"50511 PRESTONWOOD COURT","GRANGER","IN",46530,41.760011053,-86.136132753,10,"50511 PRESTONWOOD COURT, GRANGER, IN, 46530","Match","Exact","50511 PRESTONWOOD CT, GRANGER, IN, 46530",8077194,"L"
686011,"5052 AVENIDA DEL SOL","LAGUNA WOODS","CA",92637,NA,NA,11,"5052 AVENIDA DEL SOL, LAGUNA WOODS, CA, 92637","Tie",NA,NA,NA,NA
686012,"5052 CARRINGTON CT","SUMMERVILLE","SC",29485,32.954929507,-80.13738389,12,"5052 CARRINGTON CT, SUMMERVILLE, SC, 29485","Match","Exact","5052 CARRINGTON CT, SUMMERVILLE, SC, 29485",619963608,"L"
686013,"5052 CULPEPPER PLACE","WESLEY CHAPEL","FL",33544,28.2301047510001,-82.3976132079999,13,"5052 CULPEPPER PLACE, WESLEY CHAPEL, FL, 33544","Match","Exact","5052 CULPEPPER PL, WESLEY CHAPEL, FL, 33544",640496603,"L"
686014,"5052 DANIEL ST S","SALEM","OR",97306,NA,NA,14,"5052 DANIEL ST S, SALEM, OR, 97306","No_Match",NA,NA,NA,NA
686015,"5052 E FREMONT AVE","CENTENNIAL","CO",80122,39.585704627,-104.928739885,15,"5052 E FREMONT AVE, CENTENNIAL, CO, 80122","Match","Exact","5052 E FREMONT AVE, CENTENNIAL, CO, 80122",177345713,"R"
686016,"5052 FREE STATE ROAD","MARSHALL","VA",20115,38.829675636,-77.884491204,16,"5052 FREE STATE ROAD, MARSHALL, VA, 20115","Match","Exact","5052 FREE STATE RD, MARSHALL, VA, 20115",146275412,"L"
686017,"5052 FRYERS AVENUE","CENTRAL","LA",70739,30.4979833460001,-91.0264179169999,17,"5052 FRYERS AVENUE, CENTRAL, LA, 70739","Match","Non_Exact","5052 FRYERS AVE, GREENWELL SPRINGS, LA, 70739",92194045,"R"
686018,"5052 MAID MARION COURT","ASHLAND","KY",41101,38.439858701,-82.6313133529999,18,"5052 MAID MARION COURT, ASHLAND, KY, 41101","Match","Exact","5052 MAID MARION CT, ASHLAND, KY, 41101",151048491,"R"
686019,"5052 MEADOW LARK","BULVERDE","TX",78163,29.757194736,-98.389155569,19,"5052 MEADOW LARK, BULVERDE, TX, 78163","Match","Non_Exact","5052 MEADOW LARK DR, BULVERDE, TX, 78163",72265226,"L"
686020,"5052 MILLENNIA BLVD APT 208","ORLANDO","FL",32839,28.4775490330001,-81.442256517,20,"5052 MILLENNIA BLVD APT 208, ORLANDO, FL, 32839","Match","Non_Exact","5052 MILLENIA BLVD, ORLANDO, FL, 32839",650073212,"R"
686021,"5052 MILLENNIA BLVD STE 206","ORLANDO","FL",32839,28.4775490330001,-81.442256517,21,"5052 MILLENNIA BLVD STE 206, ORLANDO, FL, 32839","Match","Non_Exact","5052 MILLENIA BLVD, ORLANDO, FL, 32839",650073212,"R"
686022,"5052 OLIVE DR","BURLINGTON","NC",27215,NA,NA,22,"5052 OLIVE DR, BURLINGTON, NC, 27215","No_Match",NA,NA,NA,NA
686023,"5052 PROSPERITY LAKE RD","ANDERSON","IN",46012,40.180492427,-85.662495454,23,"5052 PROSPERITY LAKE RD, ANDERSON, IN, 46012","Match","Exact","5052 PROSPERITY LAKE RD, ANDERSON, IN, 46012",31109617,"L"
686024,"5052 RANDOLPH ST","BELL","CA",90201,33.9801430430001,-118.174763837,24,"5052 RANDOLPH ST, BELL, CA, 90201","Match","Exact","5052 RANDOLPH ST, BELL, CA, 90201",141677036,"R"
686025,"5052 RED BUD DRIVE","GROVETOWN","GA",30813,33.48637682,-82.189208547,25,"5052 RED BUD DRIVE, GROVETOWN, GA, 30813","Match","Exact","5052 RED BUD DR, GROVETOWN, GA, 30813",55381004,"R"
686026,"5052 S UNIVERSITY DRIVE","DAVIE","FL",33328,26.0575421830001,-80.251909215,26,"5052 S UNIVERSITY DRIVE, DAVIE, FL, 33328","Match","Exact","5052 S UNIVERSITY DR, DAVIE, FL, 33328",640909960,"L"
686027,"5052 SHARON DRIVE","LA PALMA","CA",90623,33.8495818120001,-118.045023325,27,"5052 SHARON DRIVE, LA PALMA, CA, 90623","Match","Exact","5052 SHARON DR, LA PALMA, CA, 90623",636558328,"R"
686028,"5052 SW 167TH AVE","MIRAMAR","FL",33023,25.964148494,-80.368096001,28,"5052 SW 167TH AVE, MIRAMAR, FL, 33023","Match","Non_Exact","5052 SW 167TH AVE, MIRAMAR, FL, 33027",114806832,"L"
686029,"5052 SW 167TH AVE","MIRAMAR","FL",33027,25.964148494,-80.368096001,29,"5052 SW 167TH AVE, MIRAMAR, FL, 33027","Match","Exact","5052 SW 167TH AVE, MIRAMAR, FL, 33027",114806832,"L"
686030,"5052 VIA LARA LANE","SANTA BARBARA","CA",93110,34.4337575910001,-119.798898754,30,"5052 VIA LARA LANE, SANTA BARBARA, CA, 93110","Match","Non_Exact","5052 VIA LARA LN, SANTA BARBARA, CA, 93111",648266161,"R"
686031,"5052 W FULTON 2","CHICAGO","IL",60644,NA,NA,31,"5052 W FULTON 2, CHICAGO, IL, 60644","No_Match",NA,NA,NA,NA
686032,"5052 WALNUT STREET SUITE 301","PHILADELPHIA","PA",19139,39.956586042,-75.2225986179999,32,"5052 WALNUT STREET SUITE 301, PHILADELPHIA, PA, 19139","Match","Exact","5052 WALNUT ST, PHILADELPHIA, PA, 19139",131399634,"L"
686033,"5052 WEST 10TH ST","INDIANAPOLIS","IN",46224,39.7800544400001,-86.245218364,33,"5052 WEST 10TH ST, INDIANAPOLIS, IN, 46224","Match","Exact","5052 W 10TH ST, INDIANAPOLIS, IN, 46224",107980136,"R"
686034,"5052 WEST COLONIAL DR","ORLANDO","FL",32808,28.5523982990001,-81.449372344,34,"5052 WEST COLONIAL DR, ORLANDO, FL, 32808","Match","Exact","5052 W COLONIAL DR, ORLANDO, FL, 32808",639251287,"L"
686035,"50524 FITCH ROAD","DOWAGIAC","MI",49407,42.062995673,-86.191989753,35,"50524 FITCH ROAD, DOWAGIAC, MI, 49407","Match","Non_Exact","50524 FITCH RD, DOWAGIAC, MI, 49047",22581917,"L"
686036,"50525 MATTLOE RD","HONEYDEW","CA",95540,NA,NA,36,"50525 MATTLOE RD, HONEYDEW, CA, 95540","No_Match",NA,NA,NA,NA
686037,"50525 PLEASANT ST","DOWAGIAC","MI",49047,42.062269966,-86.1537556009999,37,"50525 PLEASANT ST, DOWAGIAC, MI, 49047","Match","Exact","50525 PLEASANT ST, DOWAGIAC, MI, 49047",22574579,"R"
686038,"50525 PLEASANT STREET","DOWAGIAC","MI",49047,42.062269966,-86.1537556009999,38,"50525 PLEASANT STREET, DOWAGIAC, MI, 49047","Match","Exact","50525 PLEASANT ST, DOWAGIAC, MI, 49047",22574579,"R"
686039,"50528 EAGLES NEST","NORTHVILLE","MI",48168,42.416321307,-83.5430460439999,39,"50528 EAGLES NEST, NORTHVILLE, MI, 48168","Match","Exact","50528 EAGLES NEST, NORTHVILLE, MI, 48168",617695081,"R"
686040,"50528 EAGLES NEST","NORTHVILLE","OK",48168,NA,NA,40,"50528 EAGLES NEST, NORTHVILLE, OK, 48168","No_Match",NA,NA,NA,NA
686041,"5053 126TH AVE N","CLEARWATER","FL",33760,27.886469398,-82.703356021,41,"5053 126TH AVE N, CLEARWATER, FL, 33760","Match","Exact","5053 126TH AVE N, CLEARWATER, FL, 33760",124796805,"R"
686042,"5053 40TH ST NE","TACOMA","WA",98422,47.29303579,-122.379347697,42,"5053 40TH ST NE, TACOMA, WA, 98422","Match","Exact","5053 40TH ST NE, TACOMA, WA, 98422",645814340,"L"
686043,"5053 APPLETON AVE","JACKSONVILLE","FL",32210,30.2804601770001,-81.731429361,43,"5053 APPLETON AVE, JACKSONVILLE, FL, 32210","Match","Exact","5053 APPLETON AVE, JACKSONVILLE, FL, 32210",83953950,"R"
686044,"5053 BIGEYE COURT","WALDORF","MD",20603,38.619413437,-76.9428319629999,44,"5053 BIGEYE COURT, WALDORF, MD, 20603","Match","Exact","5053 BIGEYE CT, WALDORF, MD, 20603",25379646,"L"
686045,"5053 CLAYRIDGE DRIVE","ST LOUIS","MO",63129,38.4867695180001,-90.352933777,45,"5053 CLAYRIDGE DRIVE, ST LOUIS, MO, 63129","Match","Exact","5053 CLAYRIDGE DR, SAINT LOUIS, MO, 63129",100157082,"R"
686046,"5053 COLDBROOK AVENUE","LAKEWOOD","CA",90713,33.849794875,-118.122304997,46,"5053 COLDBROOK AVENUE, LAKEWOOD, CA, 90713","Match","Exact","5053 COLDBROOK AVE, LAKEWOOD, CA, 90713",642870325,"L"
686047,"5053 DORCHESTER COURT","WALDORF","MD",20603,38.610759923,-76.942812066,47,"5053 DORCHESTER COURT, WALDORF, MD, 20603","Match","Non_Exact","5053 DORCHESTER CIR, WALDORF, MD, 20603",25385078,"R"
686048,"5053 FAIR AVE UNIT 505","NORTH HOLLYWOOD","CA",91601,34.1621722880001,-118.374666318,48,"5053 FAIR AVE UNIT 505, NORTH HOLLYWOOD, CA, 91601","Match","Exact","5053 FAIR AVE, N HOLLYWOOD, CA, 91601",141591761,"L"
686049,"5053 GLADE CREEK ROAD","ROANOKE","VA",24012,37.324189765,-79.853769061,49,"5053 GLADE CREEK ROAD, ROANOKE, VA, 24012","Match","Exact","5053 GLADE CREEK RD, ROANOKE, VA, 24012",62466876,"R"
686050,"5053 HARTWELL COURT","SAINT CLOUD","FL",34771,28.331500115,-81.235783939,50,"5053 HARTWELL COURT, SAINT CLOUD, FL, 34771","Match","Exact","5053 HARTWELL CT, SAINT CLOUD, FL, 34771",646590932,"R"
686051,"5053 HIGHWAY 49 WEST","VANLEER","TN",37181,36.248921576,-87.449384107,51,"5053 HIGHWAY 49 WEST, VANLEER, TN, 37181","Match","Non_Exact","5053 STATE RTE 49 W, VANLEER, TN, 37181",607190641,"L"
686052,"5053 JEANETTE DR","MARIANNA","FL",32446,30.7636983740001,-85.182110817,52,"5053 JEANETTE DR, MARIANNA, FL, 32446","Match","Exact","5053 JEANETTE DR, MARIANNA, FL, 32446",614924062,"L"
686053,"5053 LEILA LANE","HERRIMAN","UT",84096,40.4924418140001,-112.009918965,53,"5053 LEILA LANE, HERRIMAN, UT, 84096","Match","Exact","5053 LEILA LN, HERRIMAN, UT, 84096",617482560,"L"
686054,"5053 MABRY DRIVE","NAPLES","FL",34112,26.132600584,-81.738408648,54,"5053 MABRY DRIVE, NAPLES, FL, 34112","Match","Exact","5053 MABRY DR, NAPLES, FL, 34112",115154535,"R"
686055,"5053 MARC DRIVE","NASHVILLE","TN",37211,36.026724834,-86.738728394,55,"5053 MARC DRIVE, NASHVILLE, TN, 37211","Match","Exact","5053 MARC DR, NASHVILLE, TN, 37211",97200685,"R"
686056,"5053 MARCI LANE","BELMONT","NC",28012,35.1617029930001,-81.042618708,56,"5053 MARCI LANE, BELMONT, NC, 28012","Match","Exact","5053 MARCI LN, BELMONT, NC, 28012",70413768,"R"
686057,"5053 MITHUN PL NE","SEATTLE","WA",98105,47.667488088,-122.280842274,57,"5053 MITHUN PL NE, SEATTLE, WA, 98105","Match","Exact","5053 MITHUN PL NE, SEATTLE, WA, 98105",239769880,"R"
686058,"5053 PEACE VALLEY RD","ROGERS","OH",44455,40.8241254170001,-80.5981910359999,58,"5053 PEACE VALLEY RD, ROGERS, OH, 44455","Match","Exact","5053 PEACE VALLEY RD, ROGERS, OH, 44455",641178488,"L"
686059,"5053 RIDGECREST DR","THE COLONY","TX",75056,33.083190965,-96.895715511,59,"5053 RIDGECREST DR, THE COLONY, TX, 75056","Match","Exact","5053 RIDGECREST DR, THE COLONY, TX, 75056",103370917,"R"
686060,"5053 SHAWNEE BLVD","SCHNECKSVILLE","PA",18078,40.677426301,-75.6119269229999,60,"5053 SHAWNEE BLVD, SCHNECKSVILLE, PA, 18078","Match","Exact","5053 SHAWNEE BLVD, SCHNECKSVILLE, PA, 18078",80784082,"R"
686061,"5053 VALJEAN AVENUE","ENCINO","CA",91436,34.161568521,-118.48581099,61,"5053 VALJEAN AVENUE, ENCINO, CA, 91436","Match","Exact","5053 VALJEAN AVE, ENCINO, CA, 91436",142049133,"L"
686062,"5053 WALKER STREET","NORTH CHARLESTON","SC",29405,32.8890851370001,-79.978404897,62,"5053 WALKER STREET, NORTH CHARLESTON, SC, 29405","Match","Exact","5053 WALKER ST, N CHARLESTON, SC, 29405",645438595,"R"
686063,"5053 WOODSTONE CIRCLE NORTH","LAKE WORTH","FL",33463,26.6036514370001,-80.144547716,63,"5053 WOODSTONE CIRCLE NORTH, LAKE WORTH, FL, 33463","Match","Exact","5053 WOODSTONE CIR N, LAKE WORTH, FL, 33463",115283335,"L"
686064,"50531 286 AVE","ELGIN","MN",55932,44.11381972,-92.241639596,64,"50531 286 AVE, ELGIN, MN, 55932","Match","Exact","50531 286TH AVE, ELGIN, MN, 55932",31627626,"L"
686065,"5054 BOULDER AVE","PORTAGE","IN",46368,41.5564853500001,-87.219767835,65,"5054 BOULDER AVE, PORTAGE, IN, 46368","Match","Exact","5054 BOULDER AVE, PORTAGE, IN, 46368",119923003,"L"
686066,"5054 BRANCH","FLINT","MI",48506,NA,NA,66,"5054 BRANCH, FLINT, MI, 48506","No_Match",NA,NA,NA,NA
686067,"5054 CATES AVENUE","ST. LOUIS","MO",63108,38.6552865360001,-90.264865318,67,"5054 CATES AVENUE, ST. LOUIS, MO, 63108","Match","Exact","5054 CATES AVE, SAINT LOUIS, MO, 63108",107594213,"L"
686068,"5054 DORSEY HALL DRIVE SUITE 205","ELLICOTT CITY","MD",21042,39.2431671530001,-76.835355373,68,"5054 DORSEY HALL DRIVE SUITE 205, ELLICOTT CITY, MD, 21042","Match","Exact","5054 DORSEY HALL DR, ELLICOTT CITY, MD, 21042",614149203,"L"
686069,"5054 GIVERNY","OREGON","OH",43616,41.6500521670001,-83.426466529,69,"5054 GIVERNY, OREGON, OH, 43616","Match","Non_Exact","5054 GIVERNY RD, OREGON, OH, 43616",651496222,"R"
686070,"5054 HARDT ROAD","GIBSONIA","PA",15044,40.6070654850001,-79.976082619,70,"5054 HARDT ROAD, GIBSONIA, PA, 15044","Match","Exact","5054 HARDT RD, GIBSONIA, PA, 15044",51707949,"L"
686071,"5054 KNOB","MEMPHIS","TN",38127,NA,NA,71,"5054 KNOB, MEMPHIS, TN, 38127","No_Match",NA,NA,NA,NA
686072,"5054 N WOLCOTT AVE APT 3N","CHICAGO","IL",60640,41.973869451,-87.676345364,72,"5054 N WOLCOTT AVE APT 3N, CHICAGO, IL, 60640","Match","Non_Exact","5054 N WOLCOTT AVE, CHICAGO, IL, 60640",111761160,"L"
686073,"5054 S M-123","ECKERMAN","MI",49728,46.433067975,-85.0782826719999,73,"5054 S M-123, ECKERMAN, MI, 49728","Match","Non_Exact","5054 S M 123, ECKERMAN, MI, 49728",639932657,"L"
686074,"5054 SINGLETON RD","NORCROSS","GA",30062,33.9133367060001,-84.1633449559999,74,"5054 SINGLETON RD, NORCROSS, GA, 30062","Match","Non_Exact","5054 SINGLETON RD, NORCROSS, GA, 30093",88885615,"L"
686075,"5054 SPINNAKER LAND","KING GEORGE","VA",22485,NA,NA,75,"5054 SPINNAKER LAND, KING GEORGE, VA, 22485","No_Match",NA,NA,NA,NA
686076,"5054 STILL WATER DRIVE","NEW ORLEANS","LA",70119,NA,NA,76,"5054 STILL WATER DRIVE, NEW ORLEANS, LA, 70119","No_Match",NA,NA,NA,NA
686077,"5054 THOMAS BERRY WAY","CHAPEL HILL","NC",27516,35.956735425,-79.155192249,77,"5054 THOMAS BERRY WAY, CHAPEL HILL, NC, 27516","Match","Exact","5054 THOMAS BERRY WAY, CHAPEL HILL, NC, 27516",627462745,"R"
686078,"5054 W  ADAMS","CHICAGO","IL",60644,41.87852121,-87.7517547429999,78,"5054 W  ADAMS, CHICAGO, IL, 60644","Match","Non_Exact","5054 W ADAMS ST, CHICAGO, IL, 60644",605078078,"R"
686079,"5054 W 58TH PLACE","LOS ANGELES","CA",90056,33.986503946,-118.366073603,79,"5054 W 58TH PLACE, LOS ANGELES, CA, 90056","Match","Exact","5054 W 58TH PL, LOS ANGELES, CA, 90056",141653512,"L"
686080,"5054 W ADAMS","CHICAGO","IL",60644,41.87852121,-87.7517547429999,80,"5054 W ADAMS, CHICAGO, IL, 60644","Match","Non_Exact","5054 W ADAMS ST, CHICAGO, IL, 60644",605078078,"R"
686081,"5054 WEAVER DR","COLORADO SPRINGS","CO",80922,38.9061394830001,-104.692942052,81,"5054 WEAVER DR, COLORADO SPRINGS, CO, 80922","Match","Exact","5054 WEAVER DR, COLORADO SPRINGS, CO, 80922",610704581,"L"
686082,"5054 WEST 69TH LOOP","WESTMINSTER","CO",80030,39.8228043610001,-105.050801973,82,"5054 WEST 69TH LOOP, WESTMINSTER, CO, 80030","Match","Exact","5054 W 69TH LOOP, WESTMINSTER, CO, 80030",177392307,"R"
686083,"50544 PANORAMA DRIVE","SCOTTSBLUFF","NE",69361,41.9326835420001,-103.666063494,83,"50544 PANORAMA DRIVE, SCOTTSBLUFF, NE, 69361","Match","Exact","50544 PANORAMA DR, SCOTTSBLUFF, NE, 69361",651641276,"L"
686084,"5055 73RD ST APT 35","SAN DIEGO","CA",92115,32.770584356,-117.040453454,84,"5055 73RD ST APT 35, SAN DIEGO, CA, 92115","Match","Exact","5055 73RD ST, SAN DIEGO, CA, 92115",612877643,"R"
686085,"5055 BIG TYLER RD","CHARLESTON","WV",25313,38.4271135480001,-81.745568694,85,"5055 BIG TYLER RD, CHARLESTON, WV, 25313","Match","Exact","5055 BIG TYLER RD, CHARLESTON, WV, 25313",78609602,"R"
686086,"5055 BLUE BIRD DRIVE","SANFORD","NC",27332,35.421384006,-79.094725851,86,"5055 BLUE BIRD DRIVE, SANFORD, NC, 27332","Match","Non_Exact","5055 BLUEBIRD DR, SANFORD, NC, 27332",72062366,"L"
686087,"5055 CEDAR LN","BROOKSVILLE","FL",34601,28.5042012700001,-82.336016875,87,"5055 CEDAR LN, BROOKSVILLE, FL, 34601","Match","Exact","5055 CEDAR LN, BROOKSVILLE, FL, 34601",646238929,"L"
686088,"5055 CLAYMILL DRIVE","HILLIARD","OH",43026,40.039875377,-83.1531460159999,88,"5055 CLAYMILL DRIVE, HILLIARD, OH, 43026","Match","Exact","5055 CLAYMILL DR, HILLIARD, OH, 43026",218683667,"L"
686089,"5055 COLDWATER CANYON AVE APT 102","SHERMAN OAKS","CA",91423,34.1623649470001,-118.413782649,89,"5055 COLDWATER CANYON AVE APT 102, SHERMAN OAKS, CA, 91423","Match","Exact","5055 COLDWATER CANYON AVE, SHERMAN OAKS, CA, 91423",142042325,"L"
686090,"5055 COLLINS AVE APT 8J","MIAMI BEACH","FL",33140,25.8272050310001,-80.121800454,90,"5055 COLLINS AVE APT 8J, MIAMI BEACH, FL, 33140","Match","Exact","5055 COLLINS AVE, MIAMI BEACH, FL, 33140",650065991,"R"
686091,"5055 COLLINS AVE APT S1","MIAMI BEACH","FL",33140,25.8272050310001,-80.121800454,91,"5055 COLLINS AVE APT S1, MIAMI BEACH, FL, 33140","Match","Exact","5055 COLLINS AVE, MIAMI BEACH, FL, 33140",650065991,"R"
686092,"5055 COLOROW PLACE","COLORADO CITY","CO",81019,37.942386992,-104.868891495,92,"5055 COLOROW PLACE, COLORADO CITY, CO, 81019","Match","Exact","5055 COLOROW PL, COLO CITY, CO, 81019",105016663,"L"
686093,"5055 CORTINA CT","NAPLES","FL",34103,26.2088349320001,-81.792920769,93,"5055 CORTINA CT, NAPLES, FL, 34103","Match","Exact","5055 CORTINA CT, NAPLES, FL, 34103",115137567,"L"
686094,"5055 COVENTRY CREEK DR","CUMMINGS","GA",30040,34.1831116720001,-84.1919434659999,94,"5055 COVENTRY CREEK DR, CUMMINGS, GA, 30040","Match","Non_Exact","5055 COVENTRY CREEK DR, CUMMING, GA, 30040",635778182,"L"
686095,"5055 E 300 S","WOLCOTTVILLE","IN",46795,41.599094558,-85.327775882,95,"5055 E 300 S, WOLCOTTVILLE, IN, 46795","Match","Exact","5055 E 300 S, WOLCOTTVILLE, IN, 46795",8195109,"L"
686096,"5055 E BAKER ST","TUCSON","AZ",85711,32.229851291,-110.884947634,96,"5055 E BAKER ST, TUCSON, AZ, 85711","Match","Exact","5055 E BAKER ST, TUCSON, AZ, 85711",121194963,"L"
686097,"5055 E FARM ROAD 122","SPRINGFIELD","MO",65802,37.228529877,-93.185804693,97,"5055 E FARM ROAD 122, SPRINGFIELD, MO, 65802","Match","Non_Exact","5055 E FARM RD 122, SPRINGFIELD, MO, 65802",626331793,"L"
686098,"5055 E SANTA ANA CANYON ROAD 19084","ANAHEIM","CA",92817,33.8502807090001,-117.807227702,98,"5055 E SANTA ANA CANYON ROAD 19084, ANAHEIM, CA, 92817","Match","Non_Exact","5055 SANTA ANA CANYON RD, ANAHEIM, CA, 92807",144032652,"L"
686099,"5055 ENGLEWOOD DRIVE","LIBERTY TOWNSHIP","OH",45011,39.422686174,-84.453983912,99,"5055 ENGLEWOOD DRIVE, LIBERTY TOWNSHIP, OH, 45011","Match","Exact","5055 ENGLEWOOD DR, LIBERTY TWP, OH, 45011",650530020,"R"
686100,"5055 FOXDALE DRIVE","WHITEHALL","PA",18052,40.6821192520001,-75.504937082,100,"5055 FOXDALE DRIVE, WHITEHALL, PA, 18052","Match","Exact","5055 FOXDALE DR, WHITEHALL, PA, 18052",80789794,"L"
686101,"5055 GALILEO DR","COLORADO SPRINGS","CO",80917,38.9071472800001,-104.733342368,101,"5055 GALILEO DR, COLORADO SPRINGS, CO, 80917","Match","Exact","5055 GALILEO DR, COLORADO SPRINGS, CO, 80917",105546574,"L"
686102,"5055 HAZLETVILLE ROAD","DOVER","DE",19901,39.1480812250001,-75.5637811779999,102,"5055 HAZLETVILLE ROAD, DOVER, DE, 19901","Match","Non_Exact","5055 HAZLETTVILLE RD, DOVER, DE, 19904",617127117,"L"
686103,"5055 HIDDEN VALLEY CT","CLARENCE","NY",14031,42.9829340270001,-78.650237416,103,"5055 HIDDEN VALLEY CT, CLARENCE, NY, 14031","Match","Exact","5055 HIDDEN VALLEY CT, CLARENCE, NY, 14031",631556995,"R"
686104,"5055 JEFFREYS ST APT E109","LAS VEGAS","NV",89119,36.0976112760001,-115.12117702,104,"5055 JEFFREYS ST APT E109, LAS VEGAS, NV, 89119","Match","Exact","5055 JEFFREYS ST, LAS VEGAS, NV, 89119",201872104,"R"
686105,"5055 LIBERTY AVE","VERMILION","OH",44089,41.4225926720001,-82.3562543849999,105,"5055 LIBERTY AVE, VERMILION, OH, 44089","Match","Exact","5055 LIBERTY AVE, VERMILION, OH, 44089",648296357,"L"
686106,"5055 LOST DUTCHMAN DR","LITHONIA","GA",30038,33.653784258,-84.182342145,106,"5055 LOST DUTCHMAN DR, LITHONIA, GA, 30038","Match","Exact","5055 LOST DUTCHMAN DR, LITHONIA, GA, 30038",23373906,"R"
686107,"5055 MADISON ST","SKOKIE","IL",60077,42.0319289180001,-87.753618844,107,"5055 MADISON ST, SKOKIE, IL, 60077","Match","Exact","5055 MADISON ST, SKOKIE, IL, 60077",112389639,"L"
686108,"5055 N DEL MAR AVE APT G","FRESNO","CA",93704,36.809955372,-119.794941861,108,"5055 N DEL MAR AVE APT G, FRESNO, CA, 93704","Match","Non_Exact","5055 N DEL MAR AVE, FRESNO, CA, 93704",197574077,"L"
686109,"5055 N DUBOIS RD NE","DUBOIS","IN",47527,38.4518978780001,-86.791070275,109,"5055 N DUBOIS RD NE, DUBOIS, IN, 47527","Match","Exact","5055 N DUBOIS RD NE, DUBOIS, IN, 47527",620312085,"L"
686110,"5055 NE COTTON RD","POULSBO","WA",98370,NA,NA,110,"5055 NE COTTON RD, POULSBO, WA, 98370","No_Match",NA,NA,NA,NA
686111,"5055 NE ELLIOT CIRCLE APT 10","CORVALLIS","OR",97330,44.622213349,-123.240331957,111,"5055 NE ELLIOT CIRCLE APT 10, CORVALLIS, OR, 97330","Match","Non_Exact","5055 NE ELLIOTT CIR, CORVALLIS, OR, 97330",155864434,"R"
686112,"5055 NORTH CHURCH STREET","MEIGS","GA",31765,31.0767647480001,-84.092530052,112,"5055 NORTH CHURCH STREET, MEIGS, GA, 31765","Match","Exact","5055 N CHURCH ST, MEIGS, GA, 31765",83099039,"L"
686113,"5055 NORTH MONTE CRISTO WAY","LAS VEGAS","NV",89149,36.2526251530001,-115.253671301,113,"5055 NORTH MONTE CRISTO WAY, LAS VEGAS, NV, 89149","Match","Exact","5055 N MONTE CRISTO WAY, LAS VEGAS, NV, 89149",627163830,"L"
686114,"5055 NW 7TH STREET 405","MIAMI","FL",33126,NA,NA,114,"5055 NW 7TH STREET 405, MIAMI, FL, 33126","No_Match",NA,NA,NA,NA
686115,"5055 NW 96 WAY","CORAL SPRINGS","FL",33076,26.293408589,-80.2518026179999,115,"5055 NW 96 WAY, CORAL SPRINGS, FL, 33076","Match","Exact","5055 NW 96TH WAY, CORAL SPRINGS, FL, 33076",114774638,"L"
686116,"5055 PACES STATION DR","ATLANTA","GA",30339,33.8559605200001,-84.476276704,116,"5055 PACES STATION DR, ATLANTA, GA, 30339","Match","Exact","5055 PACES STATION DR, ATLANTA, GA, 30339",639154114,"R"
686117,"5055 PEAR RIDGE DRIVE APT 1214","DALLAS","TX",75287,33.0094685970001,-96.824839825,117,"5055 PEAR RIDGE DRIVE APT 1214, DALLAS, TX, 75287","Match","Exact","5055 PEAR RIDGE DR, DALLAS, TX, 75287",210469520,"L"
686118,"5055 PEAR RIDGE DRIVE APT 1637","DALLAS","TX",75287,33.0094685970001,-96.824839825,118,"5055 PEAR RIDGE DRIVE APT 1637, DALLAS, TX, 75287","Match","Exact","5055 PEAR RIDGE DR, DALLAS, TX, 75287",210469520,"L"
686119,"5055 PEAR RIDGE DRIVE NO 1224","DALLAS","TX",75287,33.0094685970001,-96.824839825,119,"5055 PEAR RIDGE DRIVE NO 1224, DALLAS, TX, 75287","Match","Non_Exact","5055 PEAR RIDGE DR, DALLAS, TX, 75287",210469520,"L"
686120,"5055 RIDGE ROAD","NEW HOPE","PA",18938,40.305678963,-75.006574136,120,"5055 RIDGE ROAD, NEW HOPE, PA, 18938","Match","Exact","5055 RIDGE RD, NEW HOPE, PA, 18938",134764577,"L"
686121,"5055 S BELL CROSS RD","ADAMS","TN",37010,36.570100457,-87.061446516,121,"5055 S BELL CROSS RD, ADAMS, TN, 37010","Match","Exact","5055 S BELL CROSS RD, ADAMS, TN, 37010",97439185,"R"
686122,"5055 S DALE MABRY HWY  1024","TAMPA","FL",33611,27.8918536800001,-82.5063678,122,"5055 S DALE MABRY HWY  1024, TAMPA, FL, 33611","Match","Non_Exact","5055 S DALE MABRY HWY, TAMPA, FL, 33611",104528645,"R"
686123,"5055 S DORCHESTER AVE 304","CHICAGO","IL",60615,41.802887825,-87.591848479,123,"5055 S DORCHESTER AVE 304, CHICAGO, IL, 60615","Match","Non_Exact","5055 S DORCHESTER AVE, CHICAGO, IL, 60615",111771713,"L"
686124,"5055 SEMINARY RD APT 1119","ALEXANDRIA","VA",22311,NA,NA,124,"5055 SEMINARY RD APT 1119, ALEXANDRIA, VA, 22311","No_Match",NA,NA,NA,NA
686125,"5055 SEMINARY RD APT 740","ALEXANDRIA","VA",22311,NA,NA,125,"5055 SEMINARY RD APT 740, ALEXANDRIA, VA, 22311","No_Match",NA,NA,NA,NA
686126,"5055 SEMINARY ROAD SUITE 1440","ALEXANDRIA","VA",22311,NA,NA,126,"5055 SEMINARY ROAD SUITE 1440, ALEXANDRIA, VA, 22311","No_Match",NA,NA,NA,NA
686127,"5055 SIERRA RIDGE TRAIL","COLORADO SPRINGS","CO",80908,38.9896870250001,-104.735622485,127,"5055 SIERRA RIDGE TRAIL, COLORADO SPRINGS, CO, 80908","Match","Exact","5055 SIERRA RIDGE TRL, COLORADO SPRINGS, CO, 80908",643455868,"R"
686128,"5055 SIOUX TRAIL","LAS CRUCES","NM",88012,32.38529593,-106.786107819,128,"5055 SIOUX TRAIL, LAS CRUCES, NM, 88012","Match","Exact","5055 SIOUX TRL, LAS CRUCES, NM, 88012",612712982,"R"
686129,"5055 SOUTH RACINE AVEUE","NEW BERLIN","WI",53146,42.9525056950001,-88.158204063,129,"5055 SOUTH RACINE AVEUE, NEW BERLIN, WI, 53146","Match","Non_Exact","5055 S RACINE AVE, NEW BERLIN, WI, 53146",53846726,"R"
686130,"5055 SPRING CREEK RD","ROCKFORD","IL",61114,42.296586242,-89.018944582,130,"5055 SPRING CREEK RD, ROCKFORD, IL, 61114","Match","Exact","5055 SPRING CREEK RD, ROCKFORD, IL, 61114",640220391,"R"
686131,"5055 STATE RT 1245","BEAVER DAM","KY",42320,NA,NA,131,"5055 STATE RT 1245, BEAVER DAM, KY, 42320","No_Match",NA,NA,NA,NA
686132,"5055 VERMONT STREET","GARY","IN",46409,41.5265811850001,-87.32401162,132,"5055 VERMONT STREET, GARY, IN, 46409","Match","Exact","5055 VERMONT ST, GARY, IN, 46409",98434237,"L"
686133,"5055 VON SCHEELE DR APT 127","SAN ANTONIO","TX",78229,29.51007286,-98.584279295,133,"5055 VON SCHEELE DR APT 127, SAN ANTONIO, TX, 78229","Match","Exact","5055 VON SCHEELE DR, SAN ANTONIO, TX, 78229",101714357,"R"
686134,"5055 VONSCHEELE DRIVE APT 236","SAN ANTONIO","TX",78229,29.51007286,-98.584279295,134,"5055 VONSCHEELE DRIVE APT 236, SAN ANTONIO, TX, 78229","Match","Non_Exact","5055 VON SCHEELE DR, SAN ANTONIO, TX, 78229",101714357,"R"
686135,"5055 W HACIENDA APT 2006","LAS VEGAS","NV",89118,NA,NA,135,"5055 W HACIENDA APT 2006, LAS VEGAS, NV, 89118","No_Match",NA,NA,NA,NA
686136,"5055 WILD GINGER COVE","PEACHTREE CORNERS","GA",30092,33.9850872210001,-84.217518555,136,"5055 WILD GINGER COVE, PEACHTREE CORNERS, GA, 30092","Match","Exact","5055 WILD GINGER COVE, PEACHTREE CORNERS, GA, 30092",88938629,"L"
686137,"5055 WILSHIRE BLVD SUITE 860","LOS ANGELES","CA",90036,34.062158153,-118.340172762,137,"5055 WILSHIRE BLVD SUITE 860, LOS ANGELES, CA, 90036","Match","Exact","5055 WILSHIRE BLVD, LOS ANGELES, CA, 90036",141600136,"R"
686138,"50551 NEW HAMPSHIRE AVE NW APT 102","WASHINGTON","DC",20011,NA,NA,138,"50551 NEW HAMPSHIRE AVE NW APT 102, WASHINGTON, DC, 20011","No_Match",NA,NA,NA,NA
686139,"5056 ASHLEY LAKE DR  APT 5-37","BOYNTON BEACH","FL",33437,26.521963611,-80.1240165249999,139,"5056 ASHLEY LAKE DR  APT 5-37, BOYNTON BEACH, FL, 33437","Match","Exact","5056 ASHLEY LAKE DR, BOYNTON BEACH, FL, 33437",115483119,"R"
686140,"5056 BONNIN DRIVE","SULPHUR","LA",70663,30.2288093560001,-93.306479953,140,"5056 BONNIN DRIVE, SULPHUR, LA, 70663","Match","Non_Exact","5056 BONIN DR, SULPHUR, LA, 70663",88455109,"L"
686141,"5056 BUCHANAN DR","PUEBLO","CO",81008,38.3256241490001,-104.620813125,141,"5056 BUCHANAN DR, PUEBLO, CO, 81008","Match","Exact","5056 BUCHANAN DR, PUEBLO, CO, 81008",646582828,"L"
686142,"5056 CONDE CT","FREMONT","CA",94538,37.523665282,-121.978780505,142,"5056 CONDE CT, FREMONT, CA, 94538","Match","Exact","5056 CONDE CT, FREMONT, CA, 94538",125030976,"L"
686143,"5056 CONNECTICUT DRIVE","SACRAMENTO","CA",95841,38.6571539710001,-121.333356265,143,"5056 CONNECTICUT DRIVE, SACRAMENTO, CA, 95841","Match","Exact","5056 CONNECTICUT DR, SACRAMENTO, CA, 95841",133426334,"R"
686144,"5056 CRYSTAL WY","DENVER","CO",80239,39.786143097,-104.822608057,144,"5056 CRYSTAL WY, DENVER, CO, 80239","Match","Exact","5056 CRYSTAL WAY, DENVER, CO, 80239",177629027,"L"
686145,"5056 DONOVAN ST","FRANKLIN","TN",37064,35.921301993,-86.916466849,145,"5056 DONOVAN ST, FRANKLIN, TN, 37064","Match","Exact","5056 DONOVAN ST, FRANKLIN, TN, 37064",648013600,"R"
686146,"5056 DUPONT PARKWAY","SMYRNA","DE",19977,39.3437720220001,-75.636529348,146,"5056 DUPONT PARKWAY, SMYRNA, DE, 19977","Match","Non_Exact","5056 S DUPONT PKWY, SMYRNA, DE, 19977",187250123,"R"
686147,"5056 E STANLEY RD","FLINT","MI",48506,43.106012277,-83.614932117,147,"5056 E STANLEY RD, FLINT, MI, 48506","Match","Exact","5056 E STANLEY RD, FLINT, MI, 48506",69569939,"R"
686148,"5056 EUCLID","RICHTON PARK","IL",60471,41.488101127,-87.7092027909999,148,"5056 EUCLID, RICHTON PARK, IL, 60471","Match","Non_Exact","5056 EUCLID LN, RICHTON PARK, IL, 60471",111708592,"L"
686149,"5056 F STREET","PHILADELPHIA","PA",19124,40.026555311,-75.109918078,149,"5056 F STREET, PHILADELPHIA, PA, 19124","Match","Exact","5056 F ST, PHILADELPHIA, PA, 19124",131442921,"L"
686150,"5056 HURRICANE HILL RD","GRNITE FALLS","NC",28630,35.796360556,-81.373948625,150,"5056 HURRICANE HILL RD, GRNITE FALLS, NC, 28630","Match","Non_Exact","5056 HURRICANE HILL RD, GRANITE FALLS, NC, 28630",45865404,"R"
686151,"5056 JARVIS AVE","SKOKIE","IL",60077,42.015459149,-87.753862794,151,"5056 JARVIS AVE, SKOKIE, IL, 60077","Match","Exact","5056 JARVIS AVE, SKOKIE, IL, 60077",111740738,"R"
686152,"5056 JOHNSON CREEK DR","JACKSONVILLE","FL",32218,30.44829457,-81.726774545,152,"5056 JOHNSON CREEK DR, JACKSONVILLE, FL, 32218","Match","Exact","5056 JOHNSON CREEK DR, JACKSONVILLE, FL, 32218",625331585,"L"
686153,"5056 LUCKY PLACE","DETROIT","MI",48211,NA,NA,153,"5056 LUCKY PLACE, DETROIT, MI, 48211","No_Match",NA,NA,NA,NA
686154,"5056 MADISON AVENUE","OKEMOS","MI",48864,42.7281285230001,-84.4045500939999,154,"5056 MADISON AVENUE, OKEMOS, MI, 48864","Match","Exact","5056 MADISON AVE, OKEMOS, MI, 48864",635558298,"L"
686155,"5056 MALLARD DRIVE","ORLANDO","FL",32808,NA,NA,155,"5056 MALLARD DRIVE, ORLANDO, FL, 32808","No_Match",NA,NA,NA,NA
686156,"5056 MINERVA AVE","ST LOUIS","MO",63113,38.6611105490001,-90.2642837499999,156,"5056 MINERVA AVE, ST LOUIS, MO, 63113","Match","Exact","5056 MINERVA AVE, SAINT LOUIS, MO, 63113",605103414,"L"
686157,"5056 NC HIGHWAY 581","SIMS","NC",27880,35.7142543860001,-78.1208804409999,157,"5056 NC HIGHWAY 581, SIMS, NC, 27880","Match","Non_Exact","5056 STATE HWY 581, SIMS, NC, 27880",635994694,"L"
686158,"5056 PALM BROOKE CIRCLE","WEST PALM BEACH","FL",33417,26.747388325,-80.1109408419999,158,"5056 PALM BROOKE CIRCLE, WEST PALM BEACH, FL, 33417","Match","Non_Exact","5056 PALMBROOKE CIR, WEST PALM BEACH, FL, 33417",115581320,"L"
686159,"5056 SAND POINT WAY NE","SEATTLE","WA",98105,47.6654814760001,-122.28211674,159,"5056 SAND POINT WAY NE, SEATTLE, WA, 98105","Match","Exact","5056 SAND POINT WAY NE, SEATTLE, WA, 98105",186588202,"R"
686160,"5056 SCENIC PINES CT 5","MEMPHIS","TN",38116,35.0098796020001,-89.990910451,160,"5056 SCENIC PINES CT 5, MEMPHIS, TN, 38116","Match","Exact","5056 SCENIC PINES CT, MEMPHIS, TN, 38116",607507803,"L"
686161,"5056 SHILOH","HAHIRA","GA",31632,30.908499869,-83.3825834469999,161,"5056 SHILOH, HAHIRA, GA, 31632","Match","Non_Exact","5056 SHILOH RD, HAHIRA, GA, 31632",87745341,"R"
686162,"5056 TEHACHAPI WAY","ANTIOCH","CA",94531,37.967421599,-121.794770657,162,"5056 TEHACHAPI WAY, ANTIOCH, CA, 94531","Match","Exact","5056 TEHACHAPI WAY, ANTIOCH, CA, 94531",192100635,"L"
686163,"5057 230TH STREET","OAKLAND GARDENS","NY",11364,NA,NA,163,"5057 230TH STREET, OAKLAND GARDENS, NY, 11364","No_Match",NA,NA,NA,NA
686164,"5057 34TH ST NE","TACOMA","WA",98422,47.287623275,-122.379302819,164,"5057 34TH ST NE, TACOMA, WA, 98422","Match","Exact","5057 34TH ST NE, TACOMA, WA, 98422",184647406,"R"
686165,"5057 35TH AVE NE","SEATTLE","WA",98105,47.6653576960001,-122.290176847,165,"5057 35TH AVE NE, SEATTLE, WA, 98105","Match","Exact","5057 35TH AVE NE, SEATTLE, WA, 98105",186588100,"L"
686166,"5057 AUBURN AVE","SAN BERNARDINO","CA",92407,34.1748116520001,-117.337523766,166,"5057 AUBURN AVE, SAN BERNARDINO, CA, 92407","Match","Exact","5057 AUBURN AVE, SAN BERNARDINO, CA, 92407",144651126,"R"
686167,"5057 BROAD LEAF COURT","DALLAS","NC",28034,35.3020829610001,-81.1757649629999,167,"5057 BROAD LEAF COURT, DALLAS, NC, 28034","Match","Exact","5057 BROAD LEAF CT, DALLAS, NC, 28034",649203906,"L"
686168,"5057 DREXEL BLVD APT 2D","CHICAGO","IL",60615,41.803088293,-87.603746084,168,"5057 DREXEL BLVD APT 2D, CHICAGO, IL, 60615","Match","Non_Exact","5057 S DREXEL BLVD, CHICAGO, IL, 60615",111771246,"L"
686169,"5057 E DALLAS","MESA","AZ",85205,33.4279577,-111.721565565,169,"5057 E DALLAS, MESA, AZ, 85205","Match","Non_Exact","5057 E DALLAS ST, MESA, AZ, 85205",128366681,"R"
686170,"5057 HIGHLAND HILLS CT","STONE MOUNTAIN","GA",30088,33.7376727710001,-84.182484984,170,"5057 HIGHLAND HILLS CT, STONE MOUNTAIN, GA, 30088","Match","Exact","5057 HIGHLAND HILLS CT, STONE MOUNTAIN, GA, 30088",23380287,"R"
686171,"5057 IRONWOOD TR","BARTOW","FL",33830,27.9552817540001,-81.8626203809999,171,"5057 IRONWOOD TR, BARTOW, FL, 33830","Match","Exact","5057 IRONWOOD TRL, BARTOW, FL, 33830",104854227,"R"
686172,"5057 LOCKBOURNE ROAD","COLUMBUS","OH",43207,39.855168056,-82.9707122459999,172,"5057 LOCKBOURNE ROAD, COLUMBUS, OH, 43207","Match","Exact","5057 LOCKBOURNE RD, COLUMBUS, OH, 43207",218640374,"R"
686173,"5057 MONNA ST","HALTOM CITY","TX",76117,32.8148462980001,-97.274332594,173,"5057 MONNA ST, HALTOM CITY, TX, 76117","Match","Exact","5057 MONNA ST, HALTOM CITY, TX, 76117",101863325,"L"
686174,"5057 POPLAR LEVE RD SUITE 2","LOUISVILLE","KY",40219,NA,NA,174,"5057 POPLAR LEVE RD SUITE 2, LOUISVILLE, KY, 40219","No_Match",NA,NA,NA,NA
686175,"5057 POPLAR LEVEL RD SUITE 2","LOUISVILLE","KY",40219,38.16322266,-85.678731969,175,"5057 POPLAR LEVEL RD SUITE 2, LOUISVILLE, KY, 40219","Match","Exact","5057 POPLAR LEVEL RD, LOUISVILLE, KY, 40219",96870260,"L"
686176,"5057 RIDGE AVE","ST. LOUIS","MO",63113,38.6620116490001,-90.264019027,176,"5057 RIDGE AVE, ST. LOUIS, MO, 63113","Match","Exact","5057 RIDGE AVE, SAINT LOUIS, MO, 63113",605103412,"R"
686177,"5057 SIXTH PLACE","WASHINGTON","DC",20017,38.9515875330001,-76.997997427,177,"5057 SIXTH PLACE, WASHINGTON, DC, 20017","Match","Non_Exact","5057 6TH PL NE, WASHINGTON, DC, 20017",76228067,"R"
686178,"5057 SUMMERHILL DR","OCEANSIDE","CA",92057,33.2354290220001,-117.283809924,178,"5057 SUMMERHILL DR, OCEANSIDE, CA, 92057","Match","Exact","5057 SUMMERHILL DR, OCEANSIDE, CA, 92057",195427755,"L"
686179,"5057 SW 95TH AVE","MIAMI","FL",33165,25.721267147,-80.348822408,179,"5057 SW 95TH AVE, MIAMI, FL, 33165","Match","Exact","5057 SW 95TH AVE, MIAMI, FL, 33165",115973612,"L"
686180,"5057 UPTON AVE","MINNEAPOLIS","MN",55430,45.046796396,-93.315634243,180,"5057 UPTON AVE, MINNEAPOLIS, MN, 55430","Match","Non_Exact","5057 UPTON AVE N, MINNEAPOLIS, MN, 55430",43620643,"L"
686181,"5057 W SUPERIOR","CHICAGO","IL",60644,41.8939991450001,-87.752065628,181,"5057 W SUPERIOR, CHICAGO, IL, 60644","Match","Non_Exact","5057 W SUPERIOR ST, CHICAGO, IL, 60644",111758158,"L"
686182,"5057 WHITNEY LANE","BENTON","AR",72019,34.5122417540001,-92.703375732,182,"5057 WHITNEY LANE, BENTON, AR, 72019","Match","Exact","5057 WHITNEY LN, BENTON, AR, 72019",24214000,"R"
686183,"5057 WILLIAMS ROAD","SAN JOSE","CA",95129,37.3085682270001,-121.99187624,183,"5057 WILLIAMS ROAD, SAN JOSE, CA, 95129","Match","Exact","5057 WILLIAMS RD, SAN JOSE, CA, 95129",122995189,"R"
686184,"50571 390TH STREET","NEW YORK MILLS","MN",56567,46.5279853000001,-95.438081562,184,"50571 390TH STREET, NEW YORK MILLS, MN, 56567","Match","Exact","50571 390TH ST, NEW YORK MILLS, MN, 56567",168310443,"R"
686185,"50576 CR 15","MITCHELL","NE",48357,41.933461058,-103.793944066,185,"50576 CR 15, MITCHELL, NE, 48357","Match","Non_Exact","50576 CO RD 15, MITCHELL, NE, 69357",160042619,"L"
686186,"50579 PARK LANE WEST","GRANGER","IN",46530,41.759666565,-86.0981455679999,186,"50579 PARK LANE WEST, GRANGER, IN, 46530","Match","Exact","50579 PARK LN W, GRANGER, IN, 46530",635503748,"R"
686187,"5058  ARROYO LANE","SIMI VALLEY","CA",93063,34.2696807790001,-118.695007326,187,"5058  ARROYO LANE, SIMI VALLEY, CA, 93063","Match","Exact","5058 ARROYO LN, SIMI VALLEY, CA, 93063",110097212,"R"
686188,"5058 ARROYO LANE APT I300","SIMI VALLEY","CA",93063,34.2696807790001,-118.695007326,188,"5058 ARROYO LANE APT I300, SIMI VALLEY, CA, 93063","Match","Exact","5058 ARROYO LN, SIMI VALLEY, CA, 93063",110097212,"R"
686189,"5058 E LANCASTER RD","HAYDEN","ID",83835,47.788134251,-116.718028023,189,"5058 E LANCASTER RD, HAYDEN, ID, 83835","Match","Exact","5058 E LANCASTER RD, HAYDEN, ID, 83835",192918583,"L"
686190,"5058 E ST ANDREWS CIR","NEW ORLEANS","LA",70128,30.0328974810001,-89.947049593,190,"5058 E ST ANDREWS CIR, NEW ORLEANS, LA, 70128","Match","Exact","5058 E ST ANDREWS CIR, NEW ORLEANS, LA, 70128",632760759,"R"
686191,"5058 HALEY CENTER","AUBURN","AL",36848,NA,NA,191,"5058 HALEY CENTER, AUBURN, AL, 36848","No_Match",NA,NA,NA,NA
686192,"5058 HONEYMOON BAY RD","FREELAND","WA",98249,48.0271302740001,-122.545066209,192,"5058 HONEYMOON BAY RD, FREELAND, WA, 98249","Match","Exact","5058 HONEYMOON BAY RD, FREELAND, WA, 98249",187596787,"L"
686193,"5058 JULIANNA","SIMI VALLEY","CA",93063,34.2775139620001,-118.693601211,193,"5058 JULIANNA, SIMI VALLEY, CA, 93063","Match","Non_Exact","5058 JULIANA ST, SIMI VALLEY, CA, 93063",110044691,"R"
686194,"5058 KILBURN STREET","ALEXANDRIA","VA",22304,38.8086496970001,-77.1196245849999,194,"5058 KILBURN STREET, ALEXANDRIA, VA, 22304","Match","Exact","5058 KILBURN ST, ALEXANDRIA, VA, 22304",76064439,"L"
686195,"5058 LA CROSSE LN","MADISON","WI",53705,43.0657508830001,-89.463200624,195,"5058 LA CROSSE LN, MADISON, WI, 53705","Match","Exact","5058 LA CROSSE LN, MADISON, WI, 53705",49467231,"L"
686196,"5058 MARMOL DR","WOODLAND HILLS","CA",91364,34.1630556170001,-118.590949533,196,"5058 MARMOL DR, WOODLAND HILLS, CA, 91364","Match","Exact","5058 MARMOL DR, WOODLAND HILLS, CA, 91364",141535680,"R"
686197,"5058 MASSEY DR","LAKEWORTH","FL",33463,26.578737022,-80.122736448,197,"5058 MASSEY DR, LAKEWORTH, FL, 33463","Match","Non_Exact","5058 MASSY DR, LAKE WORTH, FL, 33463",636354821,"R"
686198,"5058 MRS WHITE LANE","MEBANE","NC",27302,36.1374188630001,-79.265069247,198,"5058 MRS WHITE LANE, MEBANE, NC, 27302","Match","Exact","5058 MRS WHITE LN, MEBANE, NC, 27302",621926635,"L"
686199,"5058 N 148TH AVE","LITCHFIELD PARK","AZ",85340,33.509592115,-112.377656304,199,"5058 N 148TH AVE, LITCHFIELD PARK, AZ, 85340","Match","Exact","5058 N 148TH AVE, LITCHFIELD PARK, AZ, 85340",641874563,"L"
686200,"5058 N FRANKLIN STREET","PHILADELPHIA","PA",19120,40.02871415,-75.136573262,200,"5058 N FRANKLIN STREET, PHILADELPHIA, PA, 19120","Match","Exact","5058 N FRANKLIN ST, PHILADELPHIA, PA, 19120",131417414,"L"
686201,"5058 N WOLCOTT","CHICAGO","IL",60640,41.9739425110001,-87.676347412,201,"5058 N WOLCOTT, CHICAGO, IL, 60640","Match","Non_Exact","5058 N WOLCOTT AVE, CHICAGO, IL, 60640",111761160,"L"
686202,"5058 PAULXY DRIVE APT 1107","TYLER","TX",75703,32.2944446180001,-95.278742995,202,"5058 PAULXY DRIVE APT 1107, TYLER, TX, 75703","Match","Non_Exact","5058 PALUXY DR, TYLER, TX, 75703",141325429,"R"
686203,"5058 S BURROW AVENUE","SPRINGFIELD","MO",65810,NA,NA,203,"5058 S BURROW AVENUE, SPRINGFIELD, MO, 65810","No_Match",NA,NA,NA,NA
686204,"5058 S CONWAY RAD","BELLE ISLE","FL",32812,28.4818722140001,-81.3308879269999,204,"5058 S CONWAY RAD, BELLE ISLE, FL, 32812","Match","Non_Exact","5058 S CONWAY RD, BELLE ISLE, FL, 32812",647504911,"R"
686205,"5058 SADDLE CREEK CIRCLE","ELLENWOOD","GA",30294,33.613235617,-84.27611856,205,"5058 SADDLE CREEK CIRCLE, ELLENWOOD, GA, 30294","Match","Exact","5058 SADDLE CREEK CIR, ELLENWOOD, GA, 30294",629829315,"R"
686206,"5058 SCHOOL ROAD","NEW MILFORD","PA",18834,NA,NA,206,"5058 SCHOOL ROAD, NEW MILFORD, PA, 18834","No_Match",NA,NA,NA,NA
686207,"5058 SUMMER BEACH BLVD","AMELIA","FL",32034,30.5832005020001,-81.445766588,207,"5058 SUMMER BEACH BLVD, AMELIA, FL, 32034","Match","Non_Exact","5058 SUMMER BEACH BLVD, AMELIA ISLAND, FL, 32034",646362307,"L"
686208,"5058 THEISS RD","ST LOUIS","MO",63128,38.512986412,-90.360690528,208,"5058 THEISS RD, ST LOUIS, MO, 63128","Match","Exact","5058 THEISS RD, SAINT LOUIS, MO, 63128",100174929,"L"
686209,"5058 THREE FOUNTAINS CIRCLE","SALT LAKE CITY","UT",84107,40.660960415,-111.867954514,209,"5058 THREE FOUNTAINS CIRCLE, SALT LAKE CITY, UT, 84107","Match","Non_Exact","5058 S THREE FOUNTAINS CIR, SALT LAKE CITY, UT, 84107",630292439,"L"
686210,"5058 WEST JACKSON BOULEVARD","CHICAGO","IL",60644,41.8767077950001,-87.7516668439999,210,"5058 WEST JACKSON BOULEVARD, CHICAGO, IL, 60644","Match","Exact","5058 W JACKSON BLVD, CHICAGO, IL, 60644",111765694,"R"
686211,"5058 WILSON SHARPSVILLE","FOWLER","OH",44418,41.3111832160001,-80.637093272,211,"5058 WILSON SHARPSVILLE, FOWLER, OH, 44418","Match","Non_Exact","5058 WILSON SHARPSVILLE RD, FOWLER, OH, 44418",642177146,"R"
686212,"50582 PLEASANT ST","DOWAGIAC","MI",49047,42.0616369460001,-86.153768966,212,"50582 PLEASANT ST, DOWAGIAC, MI, 49047","Match","Exact","50582 PLEASANT ST, DOWAGIAC, MI, 49047",22574579,"L"
686213,"50585 ATHENS QUINCY RD","ABERDEEN","MS",39730,33.901656417,-88.378081287,213,"50585 ATHENS QUINCY RD, ABERDEEN, MS, 39730","Match","Exact","50585 ATHENS QUINCY RD, ABERDEEN, MS, 39730",649628136,"L"
686214,"50585 BAPTIST CHURCH DR","LEBANON","OR",97355,NA,NA,214,"50585 BAPTIST CHURCH DR, LEBANON, OR, 97355","No_Match",NA,NA,NA,NA
686215,"5059 BEATRICE WAY","COLUMBIA","MD",21044,39.2319584730001,-76.879655418,215,"5059 BEATRICE WAY, COLUMBIA, MD, 21044","Match","Exact","5059 BEATRICE WAY, COLUMBIA, MD, 21044",158922542,"L"
686216,"5059 BEDFORD ST","DETROIT","MI",48224,42.4025372840001,-82.941319966,216,"5059 BEDFORD ST, DETROIT, MI, 48224","Match","Exact","5059 BEDFORD ST, DETROIT, MI, 48224",95487185,"L"
686217,"5059 BEDFORD","DETROIT","MI",48224,42.4025372840001,-82.941319966,217,"5059 BEDFORD, DETROIT, MI, 48224","Match","Exact","5059 BEDFORD, DETROIT, MI, 48224",95487185,"L"
686218,"5059 BUTTERFIELD DRIVE","WINSTON SALEM","NC",27105,36.1420930360001,-80.206228219,218,"5059 BUTTERFIELD DRIVE, WINSTON SALEM, NC, 27105","Match","Exact","5059 BUTTERFIELD DR, WINSTON SALEM, NC, 27105",84612111,"L"
686219,"5059 CONCORD ROAD","ROCKLIN","CA",95765,38.821570738,-121.257613135,219,"5059 CONCORD ROAD, ROCKLIN, CA, 95765","Match","Exact","5059 CONCORD RD, ROCKLIN, CA, 95765",106798253,"L"
686220,"5059 DELRIDGE WAY SW","SEATTLE","WA",98106,47.556736422,-122.362934674,220,"5059 DELRIDGE WAY SW, SEATTLE, WA, 98106","Match","Exact","5059 DELRIDGE WAY SW, SEATTLE, WA, 98106",186590917,"R"
686221,"5059 EAST TIMROD","TUCSON","AZ",85711,32.215384036,-110.884451755,221,"5059 EAST TIMROD, TUCSON, AZ, 85711","Match","Non_Exact","5059 E TIMROD ST, TUCSON, AZ, 85711",121180275,"L"
686222,"5059 GEORGIA STREET","VALLEJO","CA",94590,38.1046455850001,-122.190154027,222,"5059 GEORGIA STREET, VALLEJO, CA, 94590","Match","Non_Exact","5059 GEORGIA ST, VALLEJO, CA, 94591",192569856,"R"
686223,"5059 GOODWATER ROAD","ENTERPRISE","MS",39330,32.296385216,-88.8582719139999,223,"5059 GOODWATER ROAD, ENTERPRISE, MS, 39330","Match","Exact","5059 GOODWATER RD, ENTERPRISE, MS, 39330",193827,"L"
686224,"5059 HAWKS RIDGE DRIVE","COLUMBUS","GA",31904,32.566793841,-84.998232978,224,"5059 HAWKS RIDGE DRIVE, COLUMBUS, GA, 31904","Match","Exact","5059 HAWKS RIDGE DR, COLUMBUS, GA, 31904",625651184,"L"
686225,"5059 HAYES ST","GARY","IN",46408,41.526954582,-87.356544451,225,"5059 HAYES ST, GARY, IN, 46408","Match","Exact","5059 HAYES ST, GARY, IN, 46408",98430868,"L"
686226,"5059 HICKORY HILLS DRIVE","WOODSTOCK","GA",30188,34.1662177360001,-84.44489857,226,"5059 HICKORY HILLS DRIVE, WOODSTOCK, GA, 30188","Match","Exact","5059 HICKORY HILLS DR, WOODSTOCK, GA, 30188",68846349,"L"
686227,"5059 HUNTINGTON DR","INDIANAPOLIS","IN",46033,39.9463441560001,-86.083246645,227,"5059 HUNTINGTON DR, INDIANAPOLIS, IN, 46033","Match","Non_Exact","5059 HUNTINGTON DR, CARMEL, IN, 46033",29309069,"R"
686228,"5059 JAIDEN","MISSOULA","MT",59803,46.8104493930001,-114.069042194,228,"5059 JAIDEN, MISSOULA, MT, 59803","Match","Non_Exact","5059 JAIDEN LN, MISSOULA, MT, 59803",649067435,"L"
686229,"5059 N OSAGE DRIVE","TULSA","OK",74126,36.227395873,-96.001447538,229,"5059 N OSAGE DRIVE, TULSA, OK, 74126","Match","Exact","5059 N OSAGE DR, TULSA, OK, 74126",642917389,"R"
686230,"5059 OTTERS DEN TR","SANFORD","FL",32771,28.8305956560001,-81.3630753209999,230,"5059 OTTERS DEN TR, SANFORD, FL, 32771","Match","Exact","5059 OTTERS DEN TRL, SANFORD, FL, 32771",635890602,"R"
686231,"5059 OTTERS DEN TRAIL","SANFORD","FL",32771,28.8305956560001,-81.3630753209999,231,"5059 OTTERS DEN TRAIL, SANFORD, FL, 32771","Match","Exact","5059 OTTERS DEN TRL, SANFORD, FL, 32771",635890602,"R"
686232,"5059 RHOADS AVENUE APT B","SANTA BARBARA","CA",93111,34.427396968,-119.800114334,232,"5059 RHOADS AVENUE APT B, SANTA BARBARA, CA, 93111","Match","Exact","5059 RHOADS AVE, SANTA BARBARA, CA, 93111",108602543,"L"
686233,"5059 S 203RD E AVE","BROKEN ARROW","OK",74014,36.093026277,-95.751364016,233,"5059 S 203RD E AVE, BROKEN ARROW, OK, 74014","Match","Exact","5059 S 203RD E AVE, BROKEN ARROW, OK, 74014",83177845,"R"
686234,"5059 SILVERSPUR","BOISE","ID",83709,NA,NA,234,"5059 SILVERSPUR, BOISE, ID, 83709","No_Match",NA,NA,NA,NA
686235,"5059 TWINBROOK CT","BLUE ASH","OH",45242,39.2444807090001,-84.3741701709999,235,"5059 TWINBROOK CT, BLUE ASH, OH, 45242","Match","Exact","5059 TWINBROOK CT, BLUE ASH, OH, 45242",103938202,"R"
686236,"5059 W 30TH PLACE","CICERO","IL",60804,41.83747499,-87.751057454,236,"5059 W 30TH PLACE, CICERO, IL, 60804","Match","Exact","5059 30TH PL, CICERO, IL, 60804",111798167,"L"
686237,"5059 W SAINT ANDREWS CIRCLE","NEW ORLEANS","LA",70128,30.0316973920001,-89.948276783,237,"5059 W SAINT ANDREWS CIRCLE, NEW ORLEANS, LA, 70128","Match","Exact","5059 W ST ANDREWS CIR, NEW ORLEANS, LA, 70128",631808478,"R"
686238,"5059 WEST SAINT ANDREWS CIRCLE","NEW ORLEANS","LA",70128,30.0316894170001,-89.948271166,238,"5059 WEST SAINT ANDREWS CIRCLE, NEW ORLEANS, LA, 70128","Match","Exact","5059 W ST ANDREWS CIR, NEW ORLEANS, LA, 70128",631808478,"R"
686239,"5059 WEST WELLINGTON AVE","CHICAGO","IL",60641,41.9350958050001,-87.7530622259999,239,"5059 WEST WELLINGTON AVE, CHICAGO, IL, 60641","Match","Exact","5059 W WELLINGTON AVE, CHICAGO, IL, 60641",111755718,"L"
686240,"5059 WOODBRIDGE LANE","SIMI VALLEY","CA",93063,34.279478592,-118.694159019,240,"5059 WOODBRIDGE LANE, SIMI VALLEY, CA, 93063","Match","Exact","5059 WOODBRIDGE LN, SIMI VALLEY, CA, 93063",110044683,"L"
686241,"50593 MEANDEE DR","MACOMB","MI",48042,NA,NA,241,"50593 MEANDEE DR, MACOMB, MI, 48042","No_Match",NA,NA,NA,NA
686242,"50595 BREVA STREET","LA QUINTA","CA",92253,33.681323385,-116.272237369,242,"50595 BREVA STREET, LA QUINTA, CA, 92253","Match","Non_Exact","50595 BREVA, LA QUINTA, CA, 92253",617917064,"R"
686243,"50598 HWY 1072","FRANKLINTON","LA",70438,30.7969960180001,-90.044171419,243,"50598 HWY 1072, FRANKLINTON, LA, 70438","Match","Exact","50598 HWY 1072, FRANKLINTON, LA, 70438",82474253,"L"
686244,"505A 9TH AVE","CANYON","TX",79015,34.9747572590001,-101.94067213,244,"505A 9TH AVE, CANYON, TX, 79015","Match","Exact","505 9TH AVE, CANYON, TX, 79015",182649063,"R"
686245,"505A ARLINGTON DRIVE","CHARLESTON","SC",29414,32.7887318690001,-80.0353176039999,245,"505A ARLINGTON DRIVE, CHARLESTON, SC, 29414","Match","Exact","505 ARLINGTON DR, CHARLESTON, SC, 29414",108862487,"L"
686246,"505A HERITAGE VILLAGE","SOUTHBURY","CT",6488,NA,NA,246,"505A HERITAGE VILLAGE, SOUTHBURY, CT, 6488","Tie",NA,NA,NA,NA
686247,"505A PHILADELPHIA RD","JOPPA","MD",21085,39.433131454,-76.3605808999999,247,"505A PHILADELPHIA RD, JOPPA, MD, 21085","Match","Exact","505 PHILADELPHIA RD, JOPPA, MD, 21085",191643041,"R"
686248,"505C E 82ND STREET","CHICAGO","IL",60619,41.7456738710001,-87.612280875,248,"505C E 82ND STREET, CHICAGO, IL, 60619","Match","Exact","505 E 82ND ST, CHICAGO, IL, 60619",605545030,"R"
686249,"506 1/2 N MAIN ST","NILES","OH",44446,41.186252745,-80.765000417,249,"506 1/2 N MAIN ST, NILES, OH, 44446","Match","Exact","506 N MAIN ST, NILES, OH, 44446",117408980,"L"
686250,"506 1/2 PADDOCK ST","WILLIS","TX",77378,30.426387183,-95.4734366179999,250,"506 1/2 PADDOCK ST, WILLIS, TX, 77378","Match","Exact","506 PADDOCK ST, WILLIS, TX, 77378",79274282,"R"
686251,"506 102ND ST CT S","TACOMA","WA",98444,47.16398295,-122.439286905,251,"506 102ND ST CT S, TACOMA, WA, 98444","Match","Exact","506 102ND STREET CT S, TACOMA, WA, 98444",184629025,"L"
686252,"506 10TH ST","SPIRIT LAKE","IA",51360,43.4305873280001,-95.097976318,252,"506 10TH ST, SPIRIT LAKE, IA, 51360","Match","Exact","506 10TH ST, SPIRIT LAKE, IA, 51360",9809335,"L"
686253,"506 12TH ST NE","DILWORTH","MN",56529,46.881589568,-96.686762016,253,"506 12TH ST NE, DILWORTH, MN, 56529","Match","Exact","506 12TH ST NE, DILWORTH, MN, 56529",625744291,"L"
686254,"506 12TH STREET NE","DILWORTH","MN",56529,46.881589568,-96.686762016,254,"506 12TH STREET NE, DILWORTH, MN, 56529","Match","Exact","506 12TH ST NE, DILWORTH, MN, 56529",625744291,"L"
686255,"506 12TH STREET","ODONNELL","TX",79351,32.960698268,-101.828533707,255,"506 12TH STREET, ODONNELL, TX, 79351","Match","Exact","506 12TH ST, ODONNELL, TX, 79351",182743926,"R"
686256,"506 135TH ST","BRADENTON","FL",34212,27.4932866770001,-82.405943329,256,"506 135TH ST, BRADENTON, FL, 34212","Match","Non_Exact","506 135TH ST E, BRADENTON, FL, 34212",16258477,"R"
686257,"506 14TH AVE W","KIRKLAND","WA",98033,47.687385572,-122.211245503,257,"506 14TH AVE W, KIRKLAND, WA, 98033","Match","Exact","506 14TH AVE W, KIRKLAND, WA, 98033",186603270,"R"
686258,"506 17TH AVE W","EVELETH","MN",55734,47.4558298420001,-92.578289588,258,"506 17TH AVE W, EVELETH, MN, 55734","Match","Exact","506 17TH AVE W, EVELETH, MN, 55734",612821852,"L"
686259,"506 2ND AVE STE 1400","SEATTLE","WA",98104,NA,NA,259,"506 2ND AVE STE 1400, SEATTLE, WA, 98104","No_Match",NA,NA,NA,NA
686260,"506 2ND AVE SUITE 1400","SEATTLE","WA",98104,NA,NA,260,"506 2ND AVE SUITE 1400, SEATTLE, WA, 98104","No_Match",NA,NA,NA,NA
686261,"506 2ND AVE SUITE 3700","SEATTLE","WA",98104,NA,NA,261,"506 2ND AVE SUITE 3700, SEATTLE, WA, 98104","No_Match",NA,NA,NA,NA
686262,"506 2ND ST","HARTWICK","IA",52232,41.7847479320001,-92.344885212,262,"506 2ND ST, HARTWICK, IA, 52232","Match","Exact","506 2ND ST, HARTWICK, IA, 52232",89573719,"L"
686263,"506 3 ST","COLONA","IL",61241,41.4762665710001,-90.360552593,263,"506 3 ST, COLONA, IL, 61241","Match","Exact","506 3RD ST, COLONA, IL, 61241",8917227,"L"
686264,"506 3RD AVE N","EDGERTON","MN",56128,43.8833623350001,-96.132993034,264,"506 3RD AVE N, EDGERTON, MN, 56128","Match","Exact","506 3RD AVE N, EDGERTON, MN, 56128",636247502,"R"
686265,"506 3RD AVE NW","NEW BRIGHTON","MN",55112,45.0576071090001,-93.1905023469999,265,"506 3RD AVE NW, NEW BRIGHTON, MN, 55112","Match","Exact","506 3RD AVE NW, NEW BRIGHTON, MN, 55112",97634594,"L"
686266,"506 4TH AVE S","FORT DODGE","IA",50501,42.5007086630001,-94.1892977269999,266,"506 4TH AVE S, FORT DODGE, IA, 50501","Match","Exact","506 4TH AVE S, FORT DODGE, IA, 50501",66076983,"L"
686267,"506 4TH AVE","ASBURY PARK","NJ",7712,40.223708625,-74.006065307,267,"506 4TH AVE, ASBURY PARK, NJ, 7712","Match","Exact","506 4TH AVE, ASBURY PARK, NJ, 07712",90464797,"L"
686268,"506 4TH STREET","CLOQUET","MN",55720,46.7139486950001,-92.4597016449999,268,"506 4TH STREET, CLOQUET, MN, 55720","Match","Exact","506 4TH ST, CLOQUET, MN, 55720",162672980,"R"
686269,"506 55TH STREET","LUBBOCK","TX",79404,33.5441997510001,-101.840980143,269,"506 55TH STREET, LUBBOCK, TX, 79404","Match","Exact","506 55TH ST, LUBBOCK, TX, 79404",185255669,"R"
686270,"506 55TH","LUBBOCK","TX",79404,33.5441997510001,-101.840980143,270,"506 55TH, LUBBOCK, TX, 79404","Match","Non_Exact","506 55TH ST, LUBBOCK, TX, 79404",185255669,"R"
686271,"506 5TH AVE SE","ROCHESTER","MN",55904,44.017962739,-92.45633492,271,"506 5TH AVE SE, ROCHESTER, MN, 55904","Match","Exact","506 5TH AVE SE, ROCHESTER, MN, 55904",613749876,"L"
686272,"506 60TH CT","NORTHPORT","AL",35473,33.264886802,-87.563490408,272,"506 60TH CT, NORTHPORT, AL, 35473","Match","Exact","506 60TH CT, NORTHPORT, AL, 35473",82193848,"L"
686273,"506 6TH AV S","GREYBULL","WY",82426,44.482720484,-108.053407428,273,"506 6TH AV S, GREYBULL, WY, 82426","Match","Exact","506 6TH AVE S, GREYBULL, WY, 82426",180484853,"L"
686274,"506 6TH ST EAST PAVILION","BROOKLYN","NY",11215,40.6684680320001,-73.979587217,274,"506 6TH ST EAST PAVILION, BROOKLYN, NY, 11215","Match","Non_Exact","506 6TH ST, BROOKLYN, NY, 11215",59078165,"R"
686275,"506 83RD STREET APT 6","BROOKLYN","NY",11209,40.6234012370001,-74.024740638,275,"506 83RD STREET APT 6, BROOKLYN, NY, 11209","Match","Exact","506 83RD ST, BROOKLYN, NY, 11209",59087537,"R"
686276,"506 8TH STREET","NORTH WILKESBORO","NC",28659,36.1641659100001,-81.147464376,276,"506 8TH STREET, NORTH WILKESBORO, NC, 28659","Match","Exact","506 8TH ST, N WILKESBORO, NC, 28659",647184545,"R"
686277,"506 9TH AVENUE","HUNTINGTON","WV",25701,NA,NA,277,"506 9TH AVENUE, HUNTINGTON, WV, 25701","Tie",NA,NA,NA,NA
686278,"506 A MYRTLE AVE","HORSHAM","PA",19044,40.18509277,-75.142779102,278,"506 A MYRTLE AVE, HORSHAM, PA, 19044","Match","Exact","506 MYRTLE AVE, HORSHAM, PA, 19044",135079077,"R"
686279,"506 A SAINT FRANCIS ROAD","WINDSOR","NC",27983,35.945948129,-77.0265185339999,279,"506 A SAINT FRANCIS ROAD, WINDSOR, NC, 27983","Match","Exact","506 ST FRANCIS RD, WINDSOR, NC, 27983",639137187,"R"
686280,"506 A ST SE","WASHINGTON","DC",20003,38.8886854470001,-76.9993702039999,280,"506 A ST SE, WASHINGTON, DC, 20003","Match","Exact","506 A ST SE, WASHINGTON, DC, 20003",76229933,"L"
686281,"506 ALBRECHT LANE","CRESCENT CITY","IL",60928,40.77479744,-87.855255399,281,"506 ALBRECHT LANE, CRESCENT CITY, IL, 60928","Match","Exact","506 ALBRECHT LN, CRESCENT CITY, IL, 60928",90753718,"L"
686282,"506 ARAPAHO DRIVE","HARKER HEIGHTS","TX",76548,31.060898335,-97.664949289,282,"506 ARAPAHO DRIVE, HARKER HEIGHTS, TX, 76548","Match","Exact","506 ARAPAHO DR, HARKER HEIGHTS, TX, 76548",146166015,"R"
686283,"506 ARROWHEAD","HEYWORTH","IL",61745,40.319752178,-88.974456307,283,"506 ARROWHEAD, HEYWORTH, IL, 61745","Match","Non_Exact","506 ARROWHEAD DR, HEYWORTH, IL, 61745",20551888,"L"
686284,"506 ARROYO VISITA DRIVE","MANCHACA","TX",78652,30.127684797,-97.8279286439999,284,"506 ARROYO VISITA DRIVE, MANCHACA, TX, 78652","Match","Non_Exact","506 ARROYO VISTA DR, MANCHACA, TX, 78652",63940894,"R"
686285,"506 ASHLAND AVE","NEKOOSA","WI",54457,44.3184481430001,-89.900338924,285,"506 ASHLAND AVE, NEKOOSA, WI, 54457","Match","Exact","506 ASHLAND AVE, NEKOOSA, WI, 54457",51288191,"R"
686286,"506 ASPEN COURT","MIDDLETOWN","DE",19709,39.5207925610001,-75.712643885,286,"506 ASPEN COURT, MIDDLETOWN, DE, 19709","Match","Exact","506 ASPEN CT, MIDDLETOWN, DE, 19709",187276826,"R"
686287,"506 ATCHISON ST","OSKALOOSA","KS",66066,39.2117477140001,-95.316838398,287,"506 ATCHISON ST, OSKALOOSA, KS, 66066","Match","Exact","506 ATCHISON ST, OSKALOOSA, KS, 66066",639942731,"R"
686288,"506 AUSTIN ACRES RD","SULPHUR SPRINGS","TX",75482,33.1072708830001,-95.587593419,288,"506 AUSTIN ACRES RD, SULPHUR SPRINGS, TX, 75482","Match","Non_Exact","506 AUSTIN ACRE RD, SULPHUR SPRINGS, TX, 75482",642467910,"R"
686289,"506 AUTUMN WIND WAY","ROCKVILLE","MD",20850,39.080986227,-77.168034392,289,"506 AUTUMN WIND WAY, ROCKVILLE, MD, 20850","Match","Exact","506 AUTUMN WIND WAY, ROCKVILLE, MD, 20850",639326850,"L"
686290,"506 AVANT ST APT 203","CHARLOTTE","NC",28204,35.208272778,-80.831091209,290,"506 AVANT ST APT 203, CHARLOTTE, NC, 28204","Match","Exact","506 AVANT ST, CHARLOTTE, NC, 28204",70487911,"R"
686291,"506 B AUKERMAN STREET","EATON","OH",45320,NA,NA,291,"506 B AUKERMAN STREET, EATON, OH, 45320","Tie",NA,NA,NA,NA
686292,"506 B STREET","ROCK SPRINGS","WY",82901,41.582272077,-109.218095425,292,"506 B STREET, ROCK SPRINGS, WY, 82901","Match","Exact","506 B ST, ROCK SPRINGS, WY, 82901",149502719,"L"
686293,"506 BANKS LANE","PINE GROVE","LA",70453,30.7280709880001,-90.7944707349999,293,"506 BANKS LANE, PINE GROVE, LA, 70453","Match","Exact","506 BANKS LN, PINE GROVE, LA, 70453",636503998,"L"
686294,"506 BATTLES ROAD","GATES MILLS","OH",44040,41.5517638850001,-81.4006705739999,294,"506 BATTLES ROAD, GATES MILLS, OH, 44040","Match","Exact","506 BATTLES RD, GATES MILLS, OH, 44040",61154092,"R"
686295,"506 BAYWOOD ST","LOMPOC","CA",93437,34.759280217,-120.534513974,295,"506 BAYWOOD ST, LOMPOC, CA, 93437","Match","Exact","506 BAYWOOD ST, LOMPOC, CA, 93437",108581325,"R"
686296,"506 BEACH 69 STREET","ARVERNE","NY",11692,40.595095024,-73.798352484,296,"506 BEACH 69 STREET, ARVERNE, NY, 11692","Match","Exact","506 BEACH 69TH ST, ARVERNE, NY, 11692",59722552,"R"
686297,"506 BEACH ST","KEWANEE","IL",61443,41.2254399720001,-89.935466069,297,"506 BEACH ST, KEWANEE, IL, 61443","Match","Non_Exact","506 S BEACH ST, KEWANEE, IL, 61443",8915286,"R"
686298,"506 BEAR RD","LAKE PLACID","FL",33852,27.2127550060001,-81.297620759,298,"506 BEAR RD, LAKE PLACID, FL, 33852","Match","Exact","506 BEAR RD, LAKE PLACID, FL, 33852",4650019,"R"
686299,"506 BEECHWOOD CIRCLE","GREENWOOD","SC",29646,34.198266892,-82.123051775,299,"506 BEECHWOOD CIRCLE, GREENWOOD, SC, 29646","Match","Exact","506 BEECHWOOD CIR, GREENWOOD, SC, 29646",50813346,"R"
686300,"506 BELLE FOURCHE AVE","CHADRON","NE",69337,42.8382427290001,-103.00518149,300,"506 BELLE FOURCHE AVE, CHADRON, NE, 69337","Match","Exact","506 BELLE FOURCHE AVE, CHADRON, NE, 69337",164265398,"R"
686301,"506 BELLEFONTAINE","KANSAS CITY","MO",64124,39.1077415400001,-94.5468479039999,301,"506 BELLEFONTAINE, KANSAS CITY, MO, 64124","Match","Non_Exact","506 BELLEFONTAINE AVE, KANSAS CITY, MO, 64124",91449268,"R"
686302,"506 BENEDICT CT","CASSELBERRY","FL",32707,28.653278189,-81.31630648,302,"506 BENEDICT CT, CASSELBERRY, FL, 32707","Match","Exact","506 BENEDICT CT, CASSELBERRY, FL, 32707",93763281,"L"
686303,"506 BENTLEY MANOR","SHAVANO PARK","TX",78249,29.5872784380001,-98.567231197,303,"506 BENTLEY MANOR, SHAVANO PARK, TX, 78249","Match","Exact","506 BENTLEY MANOR, SHAVANO PARK, TX, 78249",627900991,"R"
686304,"506 BERTRAM CT","AUGUSTA","GA",30909,33.514001169,-82.034529909,304,"506 BERTRAM CT, AUGUSTA, GA, 30909","Match","Exact","506 BERTRAM CT, AUGUSTA, GA, 30909",55644565,"R"
686305,"506 BLANCHITA PLACE","MORGANTOWN","WV",26508,39.6811767300001,-79.965003638,305,"506 BLANCHITA PLACE, MORGANTOWN, WV, 26508","Match","Exact","506 BLANCHITA PL, MORGANTOWN, WV, 26508",627524889,"R"
686306,"506 BLUE JAY ROAD","CHATTANOOGA","TN",37412,34.990887135,-85.1851672179999,306,"506 BLUE JAY ROAD, CHATTANOOGA, TN, 37412","Match","Exact","506 BLUE JAY RD, CHATTANOOGA, TN, 37412",59319423,"R"
686307,"506 BOSTON POST ROAD","MADISON","CT",6443,41.277303499,-72.605866909,307,"506 BOSTON POST ROAD, MADISON, CT, 6443","Match","Exact","506 BOSTON POST RD, MADISON, CT, 06443",3709874,"R"
686308,"506 BOYD ST","SPARTANBURG","SC",29302,34.944943042,-81.911219923,308,"506 BOYD ST, SPARTANBURG, SC, 29302","Match","Exact","506 BOYD ST, SPARTANBURG, SC, 29302",19508597,"L"
686309,"506 BRAEBURN RD","HO-HO-KUS","NJ",7426,NA,NA,309,"506 BRAEBURN RD, HO-HO-KUS, NJ, 7426","No_Match",NA,NA,NA,NA
686310,"506 BRETTS WAY","BURLESON","TX",76028,32.532828948,-97.352655136,310,"506 BRETTS WAY, BURLESON, TX, 76028","Match","Exact","506 BRETTS WAY, BURLESON, TX, 76028",225919057,"R"
686311,"506 BRIARS BEND","BRANDON","MS",39042,32.252275334,-90.009029357,311,"506 BRIARS BEND, BRANDON, MS, 39042","Match","Non_Exact","506 BRIAR'S BEND, BRANDON, MS, 39042",627505377,"R"
686312,"506 BRITTANY DRIVE","STATE COLLEGE","PA",16803,40.803149793,-77.909904223,312,"506 BRITTANY DRIVE, STATE COLLEGE, PA, 16803","Match","Exact","506 BRITTANY DR, STATE COLLEGE, PA, 16803",50369706,"R"
686313,"506 BROAD STREET","ALCESTER","SD",57001,43.024890139,-96.632474144,313,"506 BROAD STREET, ALCESTER, SD, 57001","Match","Exact","506 BROAD ST, ALCESTER, SD, 57001",176347192,"L"
686314,"506 BROADWAY","SAN FRANCISCO","CA",94133,37.798006851,-122.405620036,314,"506 BROADWAY, SAN FRANCISCO, CA, 94133","Match","Exact","506 BROADWAY, SAN FRANCISCO, CA, 94133",192281195,"R"
686315,"506 BROOKSTONE WAY","STOCKBRIDGE","GA",30281,33.52388854,-84.2385395439999,315,"506 BROOKSTONE WAY, STOCKBRIDGE, GA, 30281","Match","Exact","506 BROOKSTONE WAY, STOCKBRIDGE, GA, 30281",23199459,"L"
686316,"506 BROOKWOOD DRIVE","DUBLIN","GA",31021,32.557292424,-82.942085154,316,"506 BROOKWOOD DRIVE, DUBLIN, GA, 31021","Match","Exact","506 BROOKWOOD DR, DUBLIN, GA, 31021",100672420,"L"
686317,"506 BROWN CT","FRUITLAND PARK","FL",34731,28.854698668,-81.912304617,317,"506 BROWN CT, FRUITLAND PARK, FL, 34731","Match","Exact","506 BROWN CT, FRUITLAND PARK, FL, 34731",94097794,"R"
686318,"506 BUCHANAN","CANTON","MI",48188,42.3020178350001,-83.531053777,318,"506 BUCHANAN, CANTON, MI, 48188","Match","Non_Exact","506 BUCHANAN ST, CANTON, MI, 48188",617693725,"R"
686319,"506 BURNER HL","CASS","WV",24927,38.39206454,-79.912964673,319,"506 BURNER HL, CASS, WV, 24927","Match","Exact","506 BURNER HL, CASS, WV, 24927",635046717,"L"
686320,"506 BURNS DRIVE","KILL DEVIL HILLS","NC",27948,35.993096167,-75.660301736,320,"506 BURNS DRIVE, KILL DEVIL HILLS, NC, 27948","Match","Exact","506 BURNS DR, KILL DEVIL HILLS, NC, 27948",635437424,"L"
686321,"506 BURR OAK ST","ALBION","MI",49224,42.248435156,-84.743160609,321,"506 BURR OAK ST, ALBION, MI, 49224","Match","Exact","506 BURR OAK ST, ALBION, MI, 49224",11708986,"R"
686322,"506 CANYON SPRINGS RD","PRESCOTT","AZ",86303,34.5324013800001,-112.476456166,322,"506 CANYON SPRINGS RD, PRESCOTT, AZ, 86303","Match","Exact","506 CANYON SPRINGS RD, PRESCOTT, AZ, 86303",608166718,"L"
686323,"506 CAPE COD CIRCLE","VALRICO","FL",33594,27.932149979,-82.227388784,323,"506 CAPE COD CIRCLE, VALRICO, FL, 33594","Match","Exact","506 CAPE COD CIR, VALRICO, FL, 33594",104654126,"L"
686324,"506 CARANETTA DR","LAKEWOOD","NJ",8701,40.086928115,-74.2242267779999,324,"506 CARANETTA DR, LAKEWOOD, NJ, 8701","Match","Exact","506 CARANETTA DR, LAKEWOOD, NJ, 08701",203723990,"R"
686325,"506 CARANETTA DRIVE","LAKEWOOD","NJ",8701,40.086928115,-74.2242267779999,325,"506 CARANETTA DRIVE, LAKEWOOD, NJ, 8701","Match","Exact","506 CARANETTA DR, LAKEWOOD, NJ, 08701",203723990,"R"
686326,"506 CAROL","BENTON CITY","WA",99320,46.2621276400001,-119.482130062,326,"506 CAROL, BENTON CITY, WA, 99320","Match","Non_Exact","506 CAROL AVE, BENTON CITY, WA, 99320",175006395,"L"
686327,"506 CAULK RD","MILFORD","DE",19963,38.9073604060001,-75.437134209,327,"506 CAULK RD, MILFORD, DE, 19963","Match","Exact","506 CAULK RD, MILFORD, DE, 19963",106076966,"L"
686328,"506 CEDAR GLEN CR","CHATTANOOGA","TN",37412,34.998501741,-85.191369703,328,"506 CEDAR GLEN CR, CHATTANOOGA, TN, 37412","Match","Exact","506 CEDAR GLEN CIR, CHATTANOOGA, TN, 37412",59333531,"R"
686329,"506 CEDAR STREET","MONTICELLO","MN",55362,45.3020325370001,-93.794914133,329,"506 CEDAR STREET, MONTICELLO, MN, 55362","Match","Exact","506 CEDAR ST, MONTICELLO, MN, 55362",43987928,"R"
686330,"506 CENTRE DRIVE","MUSCATINE","IA",52761,41.441125685,-91.055215951,330,"506 CENTRE DRIVE, MUSCATINE, IA, 52761","Match","Exact","506 CENTRE DR, MUSCATINE, IA, 52761",99003845,"R"
686331,"506 CHAMBERLAIN DRIVE","MARIETTA","OH",45750,39.4714063170001,-81.478858942,331,"506 CHAMBERLAIN DRIVE, MARIETTA, OH, 45750","Match","Exact","506 CHAMBERLAIN DR, MARIETTA, OH, 45750",45685381,"R"
686332,"506 CHATTIN CIRCLE","BENTONVILLE","AR",72712,36.3079040040001,-94.221382852,332,"506 CHATTIN CIRCLE, BENTONVILLE, AR, 72712","Match","Non_Exact","506 CHATTIN CIR, BENTONVILLE, AR, 72713",619960814,"L"
686333,"506 CHERRY ST","LEWISVILLE","AR",71845,33.3594770560001,-93.579866164,333,"506 CHERRY ST, LEWISVILLE, AR, 71845","Match","Exact","506 CHERRY ST, LEWISVILLE, AR, 71845",11025878,"R"
686334,"506 CHILDRESS","AUSTIN","TX",78753,NA,NA,334,"506 CHILDRESS, AUSTIN, TX, 78753","No_Match",NA,NA,NA,NA
686335,"506 CLARK CIRCLE","FLEMINGTON","NJ",8822,40.499988639,-74.862046665,335,"506 CLARK CIRCLE, FLEMINGTON, NJ, 8822","Match","Exact","506 CLARK CIR, FLEMINGTON, NJ, 08822",60021969,"L"
686336,"506 CLINTON AVE","HUNTSVILLE","AL",35801,NA,NA,336,"506 CLINTON AVE, HUNTSVILLE, AL, 35801","Tie",NA,NA,NA,NA
686337,"506 CLINTON STREET","HARRIMAN","TN",37748,35.9339463090001,-84.548659603,337,"506 CLINTON STREET, HARRIMAN, TN, 37748","Match","Exact","506 CLINTON ST, HARRIMAN, TN, 37748",88588683,"R"
686338,"506 CLUB LANE","LOUISVILLE","KY",40207,38.2686778020001,-85.673679592,338,"506 CLUB LANE, LOUISVILLE, KY, 40207","Match","Exact","506 CLUB LN, LOUISVILLE, KY, 40207",96852091,"L"
686339,"506 CODDING ROAD","WESTFIELD","NJ",7090,40.643571271,-74.351875105,339,"506 CODDING ROAD, WESTFIELD, NJ, 7090","Match","Exact","506 CODDING RD, WESTFIELD, NJ, 07090",624752768,"R"
686340,"506 COLFAX AVENUE","SCRANTON","PA",18510,41.402403753,-75.644918161,340,"506 COLFAX AVENUE, SCRANTON, PA, 18510","Match","Exact","506 COLFAX AVE, SCRANTON, PA, 18510",139329117,"R"
686341,"506 COLLEGE HILL RD","OXFORD","MS",38655,34.3735989300001,-89.535690071,341,"506 COLLEGE HILL RD, OXFORD, MS, 38655","Match","Exact","506 COLLEGE HILL RD, OXFORD, MS, 38655",76963315,"L"
686342,"506 COLLIER AVE","JACKSON","MS",39213,32.3502349080001,-90.187524341,342,"506 COLLIER AVE, JACKSON, MS, 39213","Match","Exact","506 COLLIER AVE, JACKSON, MS, 39213",65370370,"R"
686343,"506 CORPORATE DR W","LANGHORNE","PA",19047,40.2207305750001,-74.90832206,343,"506 CORPORATE DR W, LANGHORNE, PA, 19047","Match","Exact","506 CORPORATE DR W, LANGHORNE, PA, 19047",134749158,"L"
686344,"506 COUNTY ROUTE 75","GREENVILLE","NY",12083,42.422297529,-74.093745805,344,"506 COUNTY ROUTE 75, GREENVILLE, NY, 12083","Match","Non_Exact","506 CO RD 75, GREENVILLE, NY, 12083",635549996,"R"
686345,"506 COVEY CT","NORMAL","IL",61761,40.533906325,-88.978698322,345,"506 COVEY CT, NORMAL, IL, 61761","Match","Exact","506 COVEY CT, NORMAL, IL, 61761",20563383,"L"
686346,"506 CRESTE DRIVE","DECATUR","GA",30035,33.7094491400001,-84.1909623029999,346,"506 CRESTE DRIVE, DECATUR, GA, 30035","Match","Exact","506 CRESTE DR, DECATUR, GA, 30035",648233655,"L"
686347,"506 CROSS STREET","HARRISON","NJ",7029,40.7501179860001,-74.1517924089999,347,"506 CROSS STREET, HARRISON, NJ, 7029","Match","Exact","506 CROSS ST, HARRISON, NJ, 07029",59608318,"L"
686348,"506 CROSSWOOD COURT","FRANKLIN","TN",37214,36.159291781,-86.649948786,348,"506 CROSSWOOD COURT, FRANKLIN, TN, 37214","Match","Non_Exact","506 CROSSWOOD CT, NASHVILLE, TN, 37214",97196215,"R"
686349,"506 CROWLEY WAY","MATTHEWS","NC",28104,35.016654546,-80.685286949,349,"506 CROWLEY WAY, MATTHEWS, NC, 28104","Match","Exact","506 CROWLEY WAY, MATTHEWS, NC, 28104",649578617,"R"
686350,"506 CROWLEYST","MATTHEWS","NC",28104,NA,NA,350,"506 CROWLEYST, MATTHEWS, NC, 28104","No_Match",NA,NA,NA,NA
686351,"506 CUMBERLAND ST E","COWAN","TN",37318,35.1681262020001,-86.007033445,351,"506 CUMBERLAND ST E, COWAN, TN, 37318","Match","Exact","506 CUMBERLAND ST E, COWAN, TN, 37318",57978851,"R"
686352,"506 CURTIS RD","TELLICO PLAINS","TN",37385,35.3890938870001,-84.304365256,352,"506 CURTIS RD, TELLICO PLAINS, TN, 37385","Match","Exact","506 CURTIS RD, TELLICO PLAINS, TN, 37385",612106276,"R"
686353,"506 DAHLIA AVE","IMPERIAL BEACH","CA",91932,32.583401198,-117.121958549,353,"506 DAHLIA AVE, IMPERIAL BEACH, CA, 91932","Match","Exact","506 DAHLIA AVE, IMPERIAL BEACH, CA, 91932",195354725,"L"
686354,"506 DAHLIA AVENUE","IMPERIAL BEACH","CA",91932,32.583401198,-117.121958549,354,"506 DAHLIA AVENUE, IMPERIAL BEACH, CA, 91932","Match","Exact","506 DAHLIA AVE, IMPERIAL BEACH, CA, 91932",195354725,"L"
686355,"506 DANN DRIVE","SMYRNA","TN",37167,35.9613002520001,-86.527415461,355,"506 DANN DRIVE, SMYRNA, TN, 37167","Match","Non_Exact","506 D ANN DR, SMYRNA, TN, 37167",59027603,"R"
686356,"506 DELANO DR SE","VIENNA","VA",22180,38.9036082330001,-77.2527797879999,356,"506 DELANO DR SE, VIENNA, VA, 22180","Match","Exact","506 DELANO DR SE, VIENNA, VA, 22180",75970725,"L"
686357,"506 DEVEREUX STREET","RALEIGH","NC",27605,35.789928198,-78.6457751569999,357,"506 DEVEREUX STREET, RALEIGH, NC, 27605","Match","Exact","506 DEVEREUX ST, RALEIGH, NC, 27605",208347546,"R"
686358,"506 DIEHL DR","MCKEESPORT","PA",15132,40.326253949,-79.829142092,358,"506 DIEHL DR, MCKEESPORT, PA, 15132","Match","Exact","506 DIEHL DR, MCKEESPORT, PA, 15132",51678850,"R"
686359,"506 DIVISION STREET","LUCAS","IA",50151,41.032328093,-93.460953017,359,"506 DIVISION STREET, LUCAS, IA, 50151","Match","Exact","506 DIVISION ST, LUCAS, IA, 50151",83734959,"R"
686360,"506 DOGWOOD AVE","ATHENS","PA",18810,NA,NA,360,"506 DOGWOOD AVE, ATHENS, PA, 18810","No_Match",NA,NA,NA,NA
686361,"506 DOGWOOD DR","ROCKVILLE","IN",47872,39.7711060770001,-87.233660527,361,"506 DOGWOOD DR, ROCKVILLE, IN, 47872","Match","Exact","506 DOGWOOD DR, ROCKVILLE, IN, 47872",641431714,"L"
686362,"506 DOMAR CT","TOWNSEND","TN",37882,35.6720247170001,-83.753068924,362,"506 DOMAR CT, TOWNSEND, TN, 37882","Match","Exact","506 DOMAR CT, TOWNSEND, TN, 37882",89837685,"L"
686363,"506 DRAYTON HALL BOULEVARD","DUNCAN","SC",29334,34.8870427890001,-82.084359717,363,"506 DRAYTON HALL BOULEVARD, DUNCAN, SC, 29334","Match","Exact","506 DRAYTON HALL BLVD, DUNCAN, SC, 29334",635566986,"L"
686364,"506 DREXEL CT","EL DORADO","AR",71730,33.2444424120001,-92.671234461,364,"506 DREXEL CT, EL DORADO, AR, 71730","Match","Exact","506 DREXEL CT, EL DORADO, AR, 71730",28159421,"R"
686365,"506 DUBLIN DRIVE","DOWNINGOWN","PA",19335,40.050800511,-75.679669179,365,"506 DUBLIN DRIVE, DOWNINGOWN, PA, 19335","Match","Non_Exact","506 DUBLIN DR, DOWNINGTOWN, PA, 19335",179538573,"L"
686366,"506 DUBLIN DRIVE","DOWNINGTOWN","PA",19335,40.050800511,-75.679669179,366,"506 DUBLIN DRIVE, DOWNINGTOWN, PA, 19335","Match","Exact","506 DUBLIN DR, DOWNINGTOWN, PA, 19335",179538573,"L"
686367,"506 E 11TH ST","DELL RAPIDS","SD",57022,43.829937833,-96.709945971,367,"506 E 11TH ST, DELL RAPIDS, SD, 57022","Match","Exact","506 E 11TH ST, DELL RAPIDS, SD, 57022",34996422,"R"
686368,"506 E 11TH STREET","DELL RAPIDS","SD",57022,43.829937833,-96.709945971,368,"506 E 11TH STREET, DELL RAPIDS, SD, 57022","Match","Exact","506 E 11TH ST, DELL RAPIDS, SD, 57022",34996422,"R"
686369,"506 E 1ST STREET","TONGANOXIE","KS",66086,39.1122459850001,-95.08706159,369,"506 E 1ST STREET, TONGANOXIE, KS, 66086","Match","Exact","506 E 1ST ST, TONGANOXIE, KS, 66086",91413871,"L"
686370,"506 E 32ND ST UNIT D","CHICAGO","IL",60616,NA,NA,370,"506 E 32ND ST UNIT D, CHICAGO, IL, 60616","Tie",NA,NA,NA,NA
686371,"506 E 44TH ST STE 100","KANSAS CITY","MO",64110,39.04685571,-94.580682257,371,"506 E 44TH ST STE 100, KANSAS CITY, MO, 64110","Match","Non_Exact","506 E 44TH ST, KANSAS CITY, MO, 64110",91447659,"L"
686372,"506 E 44TH ST SUITE 100","KANSAS CITY","MO",64110,39.04685571,-94.580682257,372,"506 E 44TH ST SUITE 100, KANSAS CITY, MO, 64110","Match","Non_Exact","506 E 44TH ST, KANSAS CITY, MO, 64110",91447659,"L"
686373,"506 E 4TH AVE","RITZVILLE","WA",99169,47.12836328,-118.370996379,373,"506 E 4TH AVE, RITZVILLE, WA, 99169","Match","Exact","506 E 4TH AVE, RITZVILLE, WA, 99169",181845354,"R"
686374,"506 E 5TH ST","BELLE","MO",65013,38.285039571,-91.7167478969999,374,"506 E 5TH ST, BELLE, MO, 65013","Match","Exact","506 5TH ST, BELLE, MO, 65013",647851317,"L"
686375,"506 E 9TH STREET","DELPHOS","OH",45833,40.8511839180001,-84.334238974,375,"506 E 9TH STREET, DELPHOS, OH, 45833","Match","Exact","506 E 9TH ST, DELPHOS, OH, 45833",35560202,"R"
686376,"506 E ALBION ST","AVILLA","IN",46710,41.36501372,-85.231166597,376,"506 E ALBION ST, AVILLA, IN, 46710","Match","Exact","506 E ALBION ST, AVILLA, IN, 46710",648145701,"L"
686377,"506 E BURBANK","APPLETON CITY","MO",64724,38.185290697,-94.021613717,377,"506 E BURBANK, APPLETON CITY, MO, 64724","Match","Non_Exact","506 E BURBANK ST, APPLETON CITY, MO, 64724",636259000,"L"
686378,"506 E DIAMOND","FARMINGTON","NM",87401,36.764449965,-108.197743361,378,"506 E DIAMOND, FARMINGTON, NM, 87401","Match","Non_Exact","506 E DIAMOND ST, FARMINGTON, NM, 87401",127403178,"R"
686379,"506 E IVY LANE","ARLINGTON HEIGHTS","IL",60004,42.116297219,-87.976874434,379,"506 E IVY LANE, ARLINGTON HEIGHTS, IL, 60004","Match","Exact","506 E IVY LN, ARLINGTON HEIGHTS, IL, 60004",111715033,"L"
686380,"506 E JACKSON","WINDSOR","MO",65360,38.528617388,-93.519589245,380,"506 E JACKSON, WINDSOR, MO, 65360","Match","Non_Exact","506 E JACKSON ST, WINDSOR, MO, 65360",44931042,"R"
686381,"506 E JOHNSON ST/PO BOX 1141","BURNET","TX",78611,NA,NA,381,"506 E JOHNSON ST/PO BOX 1141, BURNET, TX, 78611","No_Match",NA,NA,NA,NA
686382,"506 E KENNY RD STE 130","ST PAUL","MN",55130,44.95730229,-93.079555393,382,"506 E KENNY RD STE 130, ST PAUL, MN, 55130","Match","Non_Exact","506 E KENNY RD, SAINT PAUL, MN, 55130",97650621,"R"
686383,"506 E KERR ST","BURNET","TX",78611,30.763034745,-98.2233753359999,383,"506 E KERR ST, BURNET, TX, 78611","Match","Exact","506 E KERR ST, BURNET, TX, 78611",146486528,"L"
686384,"506 E LONGVIEW DR SUITE B","APPLETON","WI",54911,44.286357304,-88.3995484929999,384,"506 E LONGVIEW DR SUITE B, APPLETON, WI, 54911","Match","Non_Exact","506 E LONGVIEW DR, APPLETON, WI, 54911",74920350,"L"
686385,"506 E LOWER SPRINGBORO RD","SPRINGBORO","OH",45066,39.5338284760001,-84.185842274,385,"506 E LOWER SPRINGBORO RD, SPRINGBORO, OH, 45066","Match","Exact","506 E LOWER SPRINGBORO RD, SPRINGBORO, OH, 45066",159020052,"L"
686386,"506 E MARKET ST","FARMER CITY","IL",61842,40.244186174,-88.637786035,386,"506 E MARKET ST, FARMER CITY, IL, 61842","Match","Exact","506 E MARKET ST, FARMER CITY, IL, 61842",20506345,"L"
686387,"506 E MUMFORD DR","URBANA","IL",61801,40.090760253,-88.201660722,387,"506 E MUMFORD DR, URBANA, IL, 61801","Match","Exact","506 E MUMFORD DR, URBANA, IL, 61801",8813740,"L"
686388,"506 E PARKER ST","LAKELAND","FL",33801,28.0511294990001,-81.9530647729999,388,"506 E PARKER ST, LAKELAND, FL, 33801","Match","Exact","506 E PARKER ST, LAKELAND, FL, 33801",104810404,"L"
686389,"506 E PENN STREET","BUTLER","PA",16001,40.864984656,-79.887934453,389,"506 E PENN STREET, BUTLER, PA, 16001","Match","Exact","506 E PENN ST, BUTLER, PA, 16001",607360284,"R"
686390,"506 E PIKE ST","CYNTHIANA","KY",41031,38.3881311960001,-84.2851450109999,390,"506 E PIKE ST, CYNTHIANA, KY, 41031","Match","Exact","506 E PIKE ST, CYNTHIANA, KY, 41031",57894364,"R"
686391,"506 E PIKES PEAK AVE UNIT 3","COLORADO SPRINGS","CO",80903,38.8334582310001,-104.815410721,391,"506 E PIKES PEAK AVE UNIT 3, COLORADO SPRINGS, CO, 80903","Match","Non_Exact","506 E PIKES PEAK AVE, COLORADO SPRINGS, CO, 80903",105569314,"L"
686392,"506 E SUMMERWOOD PL","GALLOWAY","NJ",8205,39.4571014430001,-74.49048931,392,"506 E SUMMERWOOD PL, GALLOWAY, NJ, 8205","Match","Exact","506 SUMMERWOOD PL, GALLOWAY, NJ, 08205",202508251,"L"
686393,"506 E VINEYARD DR","PASCO","WA",99301,46.321781086,-119.083138454,393,"506 E VINEYARD DR, PASCO, WA, 99301","Match","Exact","506 E VINEYARD DR, PASCO, WA, 99301",625037755,"R"
686394,"506 E WILLIAMS STREET","LEBANON","IN",46052,40.0502278770001,-86.463250117,394,"506 E WILLIAMS STREET, LEBANON, IN, 46052","Match","Exact","506 E WILLIAMS ST, LEBANON, IN, 46052",611912001,"R"
686395,"506 EAST 13TH STREET","INDIANAPOLIS","IN",46202,39.784379539,-86.149314546,395,"506 EAST 13TH STREET, INDIANAPOLIS, IN, 46202","Match","Exact","506 E 13TH ST, INDIANAPOLIS, IN, 46202",108051458,"L"
686396,"506 EAST 24TH STREET  1ST FLOOR","PATERSON","NJ",7514,40.923062525,-74.1494170719999,396,"506 EAST 24TH STREET  1ST FLOOR, PATERSON, NJ, 7514","Match","Exact","506 E 24TH ST, PATERSON, NJ, 07514",65264591,"R"
686397,"506 EAST 2ND STREET","JENNINGS","LA",70546,30.2262473330001,-92.65245415,397,"506 EAST 2ND STREET, JENNINGS, LA, 70546","Match","Exact","506 E 2ND ST, JENNINGS, LA, 70546",88214905,"L"
686398,"506 EAST 3RD ST","STUTTGART","AR",72160,34.5001029530001,-91.5474845959999,398,"506 EAST 3RD ST, STUTTGART, AR, 72160","Match","Exact","506 E 3RD ST, STUTTGART, AR, 72160",11972531,"R"
686399,"506 EAST 4TH STREET","BOSTON","MA",2127,42.3345483750001,-71.044806885,399,"506 EAST 4TH STREET, BOSTON, MA, 2127","Match","Exact","506 E 4TH ST, BOSTON, MA, 02127",85712922,"L"
686400,"506 EAST 82ND STREET APT 14","NEW YORK","NY",10028,40.7732606910001,-73.9488267679999,400,"506 EAST 82ND STREET APT 14, NEW YORK, NY, 10028","Match","Exact","506 E 82ND ST, NEW YORK, NY, 10028",650090223,"R"
686401,"506 EAST COLLEGE STREET","IOWA CITY","IA",52240,41.6589369700001,-91.528482874,401,"506 EAST COLLEGE STREET, IOWA CITY, IA, 52240","Match","Exact","506 E COLLEGE ST, IOWA CITY, IA, 52240",84495516,"L"
686402,"506 EAST FIRST STREET","WEATHERFORD","TX",76086,32.7697039340001,-97.790072,402,"506 EAST FIRST STREET, WEATHERFORD, TX, 76086","Match","Exact","506 E 1ST ST, WEATHERFORD, TX, 76086",103575576,"R"
686403,"506 EAST GENEVA STREET","DELAVAN","WI",53115,42.6274296400001,-88.641995519,403,"506 EAST GENEVA STREET, DELAVAN, WI, 53115","Match","Exact","506 E GENEVA ST, DELAVAN, WI, 53115",53664790,"R"
686404,"506 EAST LONGVIEW","ARP","TX",75750,32.2294123770001,-95.053197751,404,"506 EAST LONGVIEW, ARP, TX, 75750","Match","Non_Exact","506 E LONGVIEW ST, ARP, TX, 75750",141312785,"R"
686405,"506 EAST MAIN ST","MAIDEN","NC",28650,35.573594675,-81.2061188979999,405,"506 EAST MAIN ST, MAIDEN, NC, 28650","Match","Exact","506 E MAIN ST, MAIDEN, NC, 28650",45901142,"L"
686406,"506 EAST MAIN STREET","MURFREESBORO","TN",37130,35.845115767,-86.383486879,406,"506 EAST MAIN STREET, MURFREESBORO, TN, 37130","Match","Exact","506 E MAIN ST, MURFREESBORO, TN, 37130",59014038,"L"
686407,"506 EAST SHAWNEE STREET","PAOLA","KS",66071,38.568989661,-94.872343773,407,"506 EAST SHAWNEE STREET, PAOLA, KS, 66071","Match","Exact","506 E SHAWNEE ST, PAOLA, KS, 66071",85222540,"R"
686408,"506 EAST STATE","ENID","OK",73701,36.3898430720001,-97.87099763,408,"506 EAST STATE, ENID, OK, 73701","Match","Non_Exact","506 E STATE AVE, ENID, OK, 73701",154083924,"L"
686409,"506 EAST TRUETT","WINTERS","TX",79567,31.961185437,-99.9593910199999,409,"506 EAST TRUETT, WINTERS, TX, 79567","Match","Non_Exact","506 E TRUETT ST, WINTERS, TX, 79567",129885489,"L"
686410,"506 EASTSIDE ST NE","OLYMPIA","WA",98506,47.049032439,-122.88881875,410,"506 EASTSIDE ST NE, OLYMPIA, WA, 98506","Match","Exact","506 EASTSIDE ST NE, OLYMPIA, WA, 98506",180944466,"R"
686411,"506 ECHO VALLEY DR","DEL RIO","TX",78840,29.4189219680001,-100.916800468,411,"506 ECHO VALLEY DR, DEL RIO, TX, 78840","Match","Exact","506 ECHO VALLEY DR, DEL RIO, TX, 78840",627561639,"L"
686412,"506 EDGEBROOK","HOUSTON","TX",77034,29.645588167,-95.2245362479999,412,"506 EDGEBROOK, HOUSTON, TX, 77034","Match","Non_Exact","506 EDGEBROOK DR, HOUSTON, TX, 77034",647668969,"L"
686413,"506 ELFORD ROAD","FAIRLESS HILLS","PA",19030,40.1708687,-74.8389831919999,413,"506 ELFORD ROAD, FAIRLESS HILLS, PA, 19030","Match","Exact","506 ELFORD RD, FAIRLESS HILLS, PA, 19030",134721946,"L"
686414,"506 ELKHURST PLACE","HENDERSON","NV",89012,36.009666005,-115.068335945,414,"506 ELKHURST PLACE, HENDERSON, NV, 89012","Match","Exact","506 ELKHURST PL, HENDERSON, NV, 89012",201926828,"L"
686415,"506 ELLEN POWELL APT 121","HEMPSTEAD","TX",77445,30.078152963,-96.003124121,415,"506 ELLEN POWELL APT 121, HEMPSTEAD, TX, 77445","Match","Exact","506 ELLEN POWELL, HEMPSTEAD, TX, 77445",78361338,"L"
686416,"506 ELMWOOD","SAN ANTONIO","TX",78212,29.4688347330001,-98.501775487,416,"506 ELMWOOD, SAN ANTONIO, TX, 78212","Match","Non_Exact","506 ELMWOOD DR, SAN ANTONIO, TX, 78212",101522873,"L"
686417,"506 FAIR OAKS CIRCLE","MARION","AR",72364,35.193336705,-90.186393696,417,"506 FAIR OAKS CIRCLE, MARION, AR, 72364","Match","Exact","506 FAIR OAKS CIR, MARION, AR, 72364",69377665,"L"
686418,"506 FAIRDALE STREET","FRIENDSWOOD","TX",77546,29.5187886570001,-95.200486425,418,"506 FAIRDALE STREET, FRIENDSWOOD, TX, 77546","Match","Exact","506 FAIRDALE ST, FRIENDSWOOD, TX, 77546",96681729,"L"
686419,"506 FAIRVIEW AVENUE","FREDERICK","MD",21701,39.4238223990001,-77.422638612,419,"506 FAIRVIEW AVENUE, FREDERICK, MD, 21701","Match","Exact","506 FAIRVIEW AVE, FREDERICK, MD, 21701",60672510,"R"
686420,"506 FAIRWAY COVE","JACKSON","MS",39272,32.2108560880001,-90.26668969,420,"506 FAIRWAY COVE, JACKSON, MS, 39272","Match","Exact","506 FAIRWAY COVE, JACKSON, MS, 39272",65381792,"R"
686421,"506 FELL ST","SAN FRANCISCO","CA",94102,37.775506879,-122.426288045,421,"506 FELL ST, SAN FRANCISCO, CA, 94102","Match","Exact","506 FELL ST, SAN FRANCISCO, CA, 94102",192283892,"R"
686422,"506 FITCHVILLE ROAD","GILMAN","CT",6336,41.5767362820001,-72.194668216,422,"506 FITCHVILLE ROAD, GILMAN, CT, 6336","Match","Exact","506 FITCHVILLE RD, GILMAN, CT, 06336",636469144,"L"
686423,"506 FLAMOS CIRCLE","CANTON","OH",44714,NA,NA,423,"506 FLAMOS CIRCLE, CANTON, OH, 44714","No_Match",NA,NA,NA,NA
686424,"506 FORT WASHINGTON AVE 2C","NEW YORK","NY",10033,40.8523457750001,-73.937744811,424,"506 FORT WASHINGTON AVE 2C, NEW YORK, NY, 10033","Match","Exact","506 FORT WASHINGTON AVE, NEW YORK, NY, 10033",59655549,"R"
686425,"506 FOX KNOLL DRIVE","LENA","IL",61048,42.392616914,-89.829530268,425,"506 FOX KNOLL DRIVE, LENA, IL, 61048","Match","Exact","506 FOX KNOLL DR, LENA, IL, 61048",32704378,"L"
686426,"506 FRIENDSHIP DRIVE","FLEETWOOD","PA",19522,40.458509271,-75.835945191,426,"506 FRIENDSHIP DRIVE, FLEETWOOD, PA, 19522","Match","Exact","506 FRIENDSHIP DR, FLEETWOOD, PA, 19522",80403450,"R"
686427,"506 GALLOWS HILL RD","CRANFORD","NJ",7016,40.6590044690001,-74.320910813,427,"506 GALLOWS HILL RD, CRANFORD, NJ, 7016","Match","Exact","506 GALLOWS HILL RD, CRANFORD, NJ, 07016",60569772,"R"
686428,"506 GARFIELD AVE","FOLCROFT","PA",19032,39.8980199060001,-75.277155154,428,"506 GARFIELD AVE, FOLCROFT, PA, 19032","Match","Exact","506 GARFIELD AVE, FOLCROFT, PA, 19032",134885234,"R"
686429,"506 GARWOOD","SMITHVILLE","TX",78957,30.00737192,-97.151773653,429,"506 GARWOOD, SMITHVILLE, TX, 78957","Match","Non_Exact","506 GARWOOD ST, SMITHVILLE, TX, 78957",45469162,"R"
686430,"506 GENIUS DRIVE","WINTER PARK","FL",32789,28.588841357,-81.33372198,430,"506 GENIUS DRIVE, WINTER PARK, FL, 32789","Match","Exact","506 GENIUS DR, WINTER PARK, FL, 32789",94408940,"R"
686431,"506 GENTRY CIRCLE WEST","RICHMOND HEIGHTS","OH",44143,41.547670243,-81.507804402,431,"506 GENTRY CIRCLE WEST, RICHMOND HEIGHTS, OH, 44143","Match","Exact","506 GENTRY CIR W, RICHMOND HEIGHTS, OH, 44143",639290234,"R"
686432,"506 GILES LANE","MADISON","MS",39110,32.4622220420001,-90.190502231,432,"506 GILES LANE, MADISON, MS, 39110","Match","Exact","506 GILES LN, MADISON, MS, 39110",152500088,"R"
686433,"506 GLENBURNIE RD","HOUSTON","TX",77022,29.8385474300001,-95.3922260639999,433,"506 GLENBURNIE RD, HOUSTON, TX, 77022","Match","Non_Exact","506 GLENBURNIE DR, HOUSTON, TX, 77022",96643876,"R"
686434,"506 GOLDSBOROUGH ST","EASTON","MD",21601,38.7759285330001,-76.068118064,434,"506 GOLDSBOROUGH ST, EASTON, MD, 21601","Match","Exact","506 GOLDSBOROUGH ST, EASTON, MD, 21601",68370560,"R"
686435,"506 GOLF VIEW DR","PEACHTREE CITY","GA",30269,33.416067593,-84.58080691,435,"506 GOLF VIEW DR, PEACHTREE CITY, GA, 30269","Match","Non_Exact","506 GOLFVIEW DR, PEACHTREE CITY, GA, 30269",75941813,"R"
686436,"506 GORDON","NORTH LITTLE ROCK","AR",72117,34.7568813340001,-92.211747525,436,"506 GORDON, NORTH LITTLE ROCK, AR, 72117","Match","Non_Exact","506 GORDON ST, N LITTLE ROCK, AR, 72117",83516374,"R"
686437,"506 GRANT ST","UPLAND","CA",91784,34.1238265000001,-117.657545568,437,"506 GRANT ST, UPLAND, CA, 91784","Match","Non_Exact","506 W GRANT ST, UPLAND, CA, 91784",144674440,"L"
686438,"506 GREEN HALL - 1535 W 15TH STREET","LAWRENCE","KS",66045,NA,NA,438,"506 GREEN HALL - 1535 W 15TH STREET, LAWRENCE, KS, 66045","No_Match",NA,NA,NA,NA
686439,"506 GREEN MOUNTAIN DRIVE UNIT 76","LITTLE ROCK","AR",72211,34.757889784,-92.4002555179999,439,"506 GREEN MOUNTAIN DRIVE UNIT 76, LITTLE ROCK, AR, 72211","Match","Exact","506 GREEN MOUNTAIN DR, LITTLE ROCK, AR, 72211",641820958,"L"
686440,"506 GREENBRIER AVE","RICHMOND","VA",23222,37.5899385970001,-77.427980895,440,"506 GREENBRIER AVE, RICHMOND, VA, 23222","Match","Exact","506 GREENBRIER AVE, RICHMOND, VA, 23222",106649230,"L"
686441,"506 GREENBRIER COURT -102","FREDERICKSBURG","VA",22401,38.290424101,-77.4814339019999,441,"506 GREENBRIER COURT -102, FREDERICKSBURG, VA, 22401","Match","Non_Exact","506 GREENBRIER DR, FREDERICKSBURG, VA, 22401",85036710,"L"
686442,"506 GREENWICH LN","COPPELL","TX",75019,32.9679442070001,-97.006908316,442,"506 GREENWICH LN, COPPELL, TX, 75019","Match","Exact","506 GREENWICH LN, COPPELL, TX, 75019",102992459,"L"
686443,"506 GRINNELL CT","BEAR","DE",19701,39.5723633060001,-75.665402694,443,"506 GRINNELL CT, BEAR, DE, 19701","Match","Exact","506 GRINNELL CT, BEAR, DE, 19701",638029092,"R"
686444,"506 GROSVENOR LN","AURORA","IL",60594,41.764409749,-88.2178989189999,444,"506 GROSVENOR LN, AURORA, IL, 60594","Match","Non_Exact","506 GROSVENOR LN, AURORA, IL, 60504",633557749,"L"
686445,"506 GROVE CREEK AVENUE","NASHVILLE","TN",37214,36.1619571200001,-86.632818331,445,"506 GROVE CREEK AVENUE, NASHVILLE, TN, 37214","Match","Exact","506 GROVE CREEK AVE, NASHVILLE, TN, 37214",97205597,"L"
686446,"506 GUINN STREET","CLOVER","SC",29710,35.11907892,-81.2289998959999,446,"506 GUINN STREET, CLOVER, SC, 29710","Match","Exact","506 GUINN ST, CLOVER, SC, 29710",19786524,"R"
686447,"506 GWYNN STREET","GREEN BAY","WI",54301,44.4527411190001,-88.033051262,447,"506 GWYNN STREET, GREEN BAY, WI, 54301","Match","Exact","506 GWYNN ST, GREEN BAY, WI, 54301",148102003,"R"
686448,"506 HAGERMAN AVE","EAST PATCHOGUE","NY",11772,40.773580377,-72.965392989,448,"506 HAGERMAN AVE, EAST PATCHOGUE, NY, 11772","Match","Exact","506 HAGERMAN AVE, E PATCHOGUE, NY, 11772",624936994,"L"
686449,"506 HANCOCK STREET","BROOKLYN","NY",11233,40.6842912830001,-73.934721504,449,"506 HANCOCK STREET, BROOKLYN, NY, 11233","Match","Exact","506 HANCOCK ST, BROOKLYN, NY, 11233",652208205,"R"
686450,"506 HARBOR VIEW CT","BEACON","NY",12508,41.5011719870001,-73.979434886,450,"506 HARBOR VIEW CT, BEACON, NY, 12508","Match","Exact","506 HARBOR VIEW CT, BEACON, NY, 12508",4180639,"R"
686451,"506 HARLEM STREET","EDNA","TX",77957,28.986356169,-96.640213436,451,"506 HARLEM STREET, EDNA, TX, 77957","Match","Exact","506 HARLEM ST, EDNA, TX, 77957",42116070,"R"
686452,"506 HARLEY STREET","SCOTTSBORO","AL",35768,34.6632296070001,-86.0456390419999,452,"506 HARLEY STREET, SCOTTSBORO, AL, 35768","Match","Exact","506 HARLEY ST, SCOTTSBORO, AL, 35768",640318288,"R"
686453,"506 HARTWOOD COURT","ALEXANDRIA","LA",71301,NA,NA,453,"506 HARTWOOD COURT, ALEXANDRIA, LA, 71301","No_Match",NA,NA,NA,NA
686454,"506 HARVARD PL","APOPKA","FL",32703,28.673798323,-81.457098305,454,"506 HARVARD PL, APOPKA, FL, 32703","Match","Exact","506 HARVARD PL, APOPKA, FL, 32703",93753779,"R"
686455,"506 HARVARD STREET","MESQUITE","TX",75149,32.7716634700001,-96.6028608669999,455,"506 HARVARD STREET, MESQUITE, TX, 75149","Match","Exact","506 HARVARD ST, MESQUITE, TX, 75149",102933877,"L"
686456,"506 HAWS AVE","NORRISTOWN","PA",19401,40.120748054,-75.352390917,456,"506 HAWS AVE, NORRISTOWN, PA, 19401","Match","Exact","506 HAWS AVE, NORRISTOWN, PA, 19401",135081797,"R"
686457,"506 HAWTHORNE","ST JOSEPH","IL",61873,40.1146048040001,-88.0215145669999,457,"506 HAWTHORNE, ST JOSEPH, IL, 61873","Match","Non_Exact","506 HAWTHORNE DR, SAINT JOSEPH, IL, 61873",640192504,"R"
686458,"506 HEATHERSTONE COURT","RIDGELAND","MS",39157,32.424064457,-90.117115225,458,"506 HEATHERSTONE COURT, RIDGELAND, MS, 39157","Match","Exact","506 HEATHERSTONE CT, RIDGELAND, MS, 39157",152490796,"L"
686459,"506 HEMLOCK","LIBERTYVILLE","IL",60048,42.267654943,-87.961857056,459,"506 HEMLOCK, LIBERTYVILLE, IL, 60048","Match","Non_Exact","506 HEMLOCK LN, LIBERTYVILLE, IL, 60048",119638927,"L"
686460,"506 HENDERSON DRIVE","HOPKINSVILLE","KY",42240,36.8592071960001,-87.5113504189999,460,"506 HENDERSON DRIVE, HOPKINSVILLE, KY, 42240","Match","Exact","506 HENDERSON DR, HOPKINSVILLE, KY, 42240",11273223,"L"
686461,"506 HERITAGE BROOK CIRCLE APT 102","TEMPLE TERRACE","FL",33617,NA,NA,461,"506 HERITAGE BROOK CIRCLE APT 102, TEMPLE TERRACE, FL, 33617","No_Match",NA,NA,NA,NA
686462,"506 HIDDEN MANOR","MATTHEWS","NC",28104,34.99703536,-80.6904205,462,"506 HIDDEN MANOR, MATTHEWS, NC, 28104","Match","Non_Exact","506 HIDDEN MANOR DR, MATTHEWS, NC, 28104",14206609,"R"
686463,"506 HIGH KNOB DR","WHEATON","IL",60189,41.841312755,-88.123886964,463,"506 HIGH KNOB DR, WHEATON, IL, 60189","Match","Exact","506 HIGH KNOB DR, WHEATON, IL, 60189",112680957,"R"
686464,"506 HIGHCREST CT","NEWBURY PARK","CA",91320,34.1688745070001,-118.945837504,464,"506 HIGHCREST CT, NEWBURY PARK, CA, 91320","Match","Exact","506 HIGHCREST CT, NEWBURY PARK, CA, 91320",109968679,"L"
686465,"506 HIGHCREST DRIVE","DALLAS","TX",75232,32.66373263,-96.8292793699999,465,"506 HIGHCREST DRIVE, DALLAS, TX, 75232","Match","Exact","506 HIGHCREST DR, DALLAS, TX, 75232",102953044,"L"
686466,"506 HIGHGREEN DR","WILMINGTON","NC",28411,34.2824231170001,-77.799590498,466,"506 HIGHGREEN DR, WILMINGTON, NC, 28411","Match","Exact","506 HIGHGREEN DR, WILMINGTON, NC, 28411",152736702,"R"
686467,"506 HIGHLAND DR","EDEN","NC",27288,36.4921590380001,-79.757070567,467,"506 HIGHLAND DR, EDEN, NC, 27288","Match","Exact","506 HIGHLAND DR, EDEN, NC, 27288",56213726,"R"
686468,"506 HIGHLAND ST","WALNUT","IA",51577,41.477227483,-95.2228067469999,468,"506 HIGHLAND ST, WALNUT, IA, 51577","Match","Exact","506 HIGHLAND ST, WALNUT, IA, 51577",647865723,"R"
686469,"506 HOLMES BOULEVARD","YORKTOWN","VA",23692,37.170890608,-76.466112572,469,"506 HOLMES BOULEVARD, YORKTOWN, VA, 23692","Match","Exact","506 HOLMES BLVD, YORKTOWN, VA, 23692",223120316,"R"
686470,"506 HOLTZ LANE","CARY","NC",27511,35.7812501560001,-78.768617982,470,"506 HOLTZ LANE, CARY, NC, 27511","Match","Exact","506 HOLTZ LN, CARY, NC, 27511",72499025,"L"
686471,"506 HUGER ST APT501","COLUMBIA","SC",29201,33.9884281330001,-81.040716948,471,"506 HUGER ST APT501, COLUMBIA, SC, 29201","Match","Exact","506 HUGER ST, COLUMBIA, SC, 29201",604771854,"R"
686472,"506 HUNDLEY DISTILLERY RD","CHURCHVILLE","VA",24421,38.2230445820001,-79.1190063349999,472,"506 HUNDLEY DISTILLERY RD, CHURCHVILLE, VA, 24421","Match","Exact","506 HUNDLEY DISTILLERY RD, CHURCHVILLE, VA, 24421",213458963,"R"
686473,"506 HUNTINGTON CT","LEES SUMMIT","MO",64034,38.847975567,-94.3492555079999,473,"506 HUNTINGTON CT, LEES SUMMIT, MO, 64034","Match","Non_Exact","506 HUNTINGTON CT, LAKE WINNEBAGO, MO, 64034",91493861,"R"
686474,"506 ILLINOIS ST","CARMI","IL",62821,38.092187616,-88.177774875,474,"506 ILLINOIS ST, CARMI, IL, 62821","Match","Exact","506 ILLINOIS ST, CARMI, IL, 62821",38203704,"R"
686475,"506 ILLINOIS STREET","CARMI","IL",62821,38.092187616,-88.177774875,475,"506 ILLINOIS STREET, CARMI, IL, 62821","Match","Exact","506 ILLINOIS ST, CARMI, IL, 62821",38203704,"R"
686476,"506 ILLINOIS STREET","JOLIET","IL",60435,41.5138785990001,-88.095888842,476,"506 ILLINOIS STREET, JOLIET, IL, 60435","Match","Non_Exact","506 ILLINOIS ST, JOLIET, IL, 60436",646579457,"L"
686477,"506 IRON","VICTORIA","KS",67671,38.851823869,-99.145150492,477,"506 IRON, VICTORIA, KS, 67671","Match","Non_Exact","506 IRON ST, VICTORIA, KS, 67671",149809732,"R"
686478,"506 IRONGATE BLVD","MURFREESBORO","TN",37129,35.8863051590001,-86.3922762129999,478,"506 IRONGATE BLVD, MURFREESBORO, TN, 37129","Match","Exact","506 IRONGATE BLVD, MURFREESBORO, TN, 37129",59032139,"L"
686479,"506 JACARANDA TER","PLANTATION","FL",33324,26.1147008190001,-80.267198768,479,"506 JACARANDA TER, PLANTATION, FL, 33324","Match","Exact","506 JACARANDA TER, PLANTATION, FL, 33324",114704017,"L"
686480,"506 JACKSON AVE","MARYVILLE","TN",37804,35.793163635,-83.9368038389999,480,"506 JACKSON AVE, MARYVILLE, TN, 37804","Match","Exact","506 JACKSON AVE, MARYVILLE, TN, 37804",89833281,"L"
686481,"506 JACOSN AVE","MARYVILLE","TN",37804,NA,NA,481,"506 JACOSN AVE, MARYVILLE, TN, 37804","No_Match",NA,NA,NA,NA
686482,"506 JASON DRIVE","MEMPHIS","TN",38120,35.1172281340001,-89.871275934,482,"506 JASON DRIVE, MEMPHIS, TN, 38120","Match","Exact","506 JASON DR, MEMPHIS, TN, 38120",72927194,"L"
686483,"506 JEANWOOD CT","BOWIE","MD",20721,38.8970090880001,-76.7434879159999,483,"506 JEANWOOD CT, BOWIE, MD, 20721","Match","Exact","506 JEANWOOD CT, BOWIE, MD, 20721",76345347,"L"
686484,"506 JEFFERSON AVENUE","MEDICINE LODGE","KS",67104,37.288658781,-98.585556396,484,"506 JEFFERSON AVENUE, MEDICINE LODGE, KS, 67104","Match","Non_Exact","506 W JEFFERSON AVE, MEDICINE LODGE, KS, 67104",160737061,"R"
686485,"506 JEROME STREET","MOUND BAYOU","MS",38732,33.873513131,-90.7313138499999,485,"506 JEROME STREET, MOUND BAYOU, MS, 38732","Match","Non_Exact","506 JEROME ST, MOUND BAYOU, MS, 38762",840282,"L"
686486,"506 JOHNSTOWN DRIVE","SMYRNA","TN",37167,35.973314493,-86.553550936,486,"506 JOHNSTOWN DRIVE, SMYRNA, TN, 37167","Match","Exact","506 JOHNSTOWN DR, SMYRNA, TN, 37167",606769943,"R"
686487,"506 JONAGOLD CIRCLE","MECHANICSBURG","PA",17055,40.1834847810001,-76.9679862259999,487,"506 JONAGOLD CIRCLE, MECHANICSBURG, PA, 17055","Match","Exact","506 JONAGOLD CIR, MECHANICSBURG, PA, 17055",640735936,"R"
686488,"506 JOY LANE","JONESBORO","AR",72401,35.8486719220001,-90.629345664,488,"506 JOY LANE, JONESBORO, AR, 72401","Match","Exact","506 JOY LN, JONESBORO, AR, 72401",46920151,"L"
686489,"506 KESSLER COURT","SAVANNAH","GA",31408,32.0919575720001,-81.1641673519999,489,"506 KESSLER COURT, SAVANNAH, GA, 31408","Match","Exact","506 KESSLER CT, SAVANNAH, GA, 31408",640254213,"L"
686490,"506 KNOX ROAD","CHAPMANSBORO","TN",37035,36.446896618,-87.123632583,490,"506 KNOX ROAD, CHAPMANSBORO, TN, 37035","Match","Exact","506 KNOX RD, CHAPMANSBORO, TN, 37035",72871979,"R"
686491,"506 LAKE REDMAN COURT","SEVEN VALLERY","PA",17360,39.86202453,-76.716453933,491,"506 LAKE REDMAN COURT, SEVEN VALLERY, PA, 17360","Match","Non_Exact","506 LAKE REDMAN CT, SEVEN VALLEYS, PA, 17360",617510789,"R"
686492,"506 LAKEVIEW ROAD","LYNNWOOD","WA",98087,47.859004714,-122.240577241,492,"506 LAKEVIEW ROAD, LYNNWOOD, WA, 98087","Match","Exact","506 LAKEVIEW RD, LYNNWOOD, WA, 98087",187759347,"R"
686493,"506 LASER ST","HOT SPRINGS","AR",71901,34.4910025950001,-93.0532775409999,493,"506 LASER ST, HOT SPRINGS, AR, 71901","Match","Exact","506 LASER ST, HOT SPRINGS, AR, 71901",22756667,"L"
686494,"506 LAUREL LN","FATE","TX",75087,32.9427798950001,-96.3733785699999,494,"506 LAUREL LN, FATE, TX, 75087","Match","Exact","506 LAUREL LN, FATE, TX, 75087",638791910,"R"
686495,"506 LEANING WAY","MCGREGOR","TX",76657,31.468083344,-97.321348788,495,"506 LEANING WAY, MCGREGOR, TX, 76657","Match","Non_Exact","506 LEANING WAY, MC GREGOR, TX, 76657",651913857,"R"
686496,"506 LEE ST","LOGANSPORT","LA",71049,31.9789014250001,-93.998974924,496,"506 LEE ST, LOGANSPORT, LA, 71049","Match","Exact","506 LEE ST, LOGANSPORT, LA, 71049",67653319,"L"
686497,"506 LEE ST","MOUND BAYOU","MS",38762,NA,NA,497,"506 LEE ST, MOUND BAYOU, MS, 38762","Tie",NA,NA,NA,NA
686498,"506 LEE STREET","MURFREESBORO","TN",37130,35.8495278890001,-86.3846673849999,498,"506 LEE STREET, MURFREESBORO, TN, 37130","Match","Exact","506 LEE ST, MURFREESBORO, TN, 37130",59013888,"R"
686499,"506 LEGACY RIDGE","SAN ANTONIO","TX",78260,29.6728502780001,-98.488566941,499,"506 LEGACY RIDGE, SAN ANTONIO, TX, 78260","Match","Exact","506 LEGACY RIDGE, SAN ANTONIO, TX, 78260",619993215,"R"
686500,"506 LEON DRIVE","ANDERSON","SC",29621,34.4864266430001,-82.589852116,500,"506 LEON DRIVE, ANDERSON, SC, 29621","Match","Exact","506 LEON DR, ANDERSON, SC, 29621",25477607,"R"
