"ID","Address","City","State","Zip","lat","long","id","input_address","match_indicator","match_type","matched_address","tiger_line_id","tiger_side"
261001,"1768 TONINI DRIVE - 87","SAN LUIS OBISPO","CA",93405,35.2548308770001,-120.691459814,1,"1768 TONINI DRIVE - 87, SAN LUIS OBISPO, CA, 93405","Match","Exact","1768 TONINI DR, SAN LUIS OBISPO, CA, 93405",642778866,"L"
261002,"1768 TURNPOST LANE","HACIENDA HEIGHTS","CA",91745,33.99177351,-117.939640823,2,"1768 TURNPOST LANE, HACIENDA HEIGHTS, CA, 91745","Match","Exact","1768 TURNPOST LN, HACIENDA HTS, CA, 91745",141756616,"L"
261003,"1768 W 12050 S","RIVERTON","UT",84065,40.532196291,-111.939784213,3,"1768 W 12050 S, RIVERTON, UT, 84065","Match","Exact","1768 W 12050 S, RIVERTON, UT, 84065",176091647,"L"
261004,"1768 W 4TH ST N UNIT 2","NEWTON","IA",50208,41.715984151,-93.057854872,4,"1768 W 4TH ST N UNIT 2, NEWTON, IA, 50208","Match","Non_Exact","1768 W 4TH ST N, NEWTON, IA, 50208",89436971,"R"
261005,"1768 WEST POINT ROAD","KILGORE","TX",75662,32.4326032380001,-94.9726923549999,5,"1768 WEST POINT ROAD, KILGORE, TX, 75662","Match","Exact","1768 W POINT RD, KILGORE, TX, 75662",141113478,"L"
261006,"1768 WILMONT DR","KENTWOOD","MI",49508,42.8623717140001,-85.620258685,6,"1768 WILMONT DR, KENTWOOD, MI, 49508","Match","Non_Exact","1768 WILMONT DR SE, KENTWOOD, MI, 49508",12472053,"L"
261007,"1768 WINCHESTER HWY APTB7","FAYETTEVILLE","TN",37334,35.162544628,-86.5191717659999,7,"1768 WINCHESTER HWY APTB7, FAYETTEVILLE, TN, 37334","Match","Exact","1768 WINCHESTER HWY, FAYETTEVILLE, TN, 37334",607079547,"R"
261008,"1768 WINDING RIDGE CIRCLE SE","PALM BAY","FL",32909,27.947115533,-80.6707699839999,8,"1768 WINDING RIDGE CIRCLE SE, PALM BAY, FL, 32909","Match","Non_Exact","1768 WINDING RIDGE CIR, PALM BAY, FL, 32909",604673232,"R"
261009,"1768 WINEWOOD ROAD","BIRMINGHAM","AL",35215,33.6346817960001,-86.718319628,9,"1768 WINEWOOD ROAD, BIRMINGHAM, AL, 35215","Match","Exact","1768 WINEWOOD RD, BIRMINGHAM, AL, 35215",81603005,"L"
261010,"1768 YALE ST","CHULA VISTA","CA",91913,32.645416293,-116.988326802,10,"1768 YALE ST, CHULA VISTA, CA, 91913","Match","Exact","1768 YALE ST, CHULA VISTA, CA, 91913",195364688,"R"
261011,"17680 SW 29TH CT","MIRAMAR","FL",33029,25.9817948460001,-80.382323367,11,"17680 SW 29TH CT, MIRAMAR, FL, 33029","Match","Exact","17680 SW 29TH CT, MIRAMAR, FL, 33029",114777748,"L"
261012,"17680 SW ALEXANDER STREET","BEAVERTON","OR",97003,45.494349314,-122.859219591,12,"17680 SW ALEXANDER STREET, BEAVERTON, OR, 97003","Match","Exact","17680 SW ALEXANDER ST, BEAVERTON, OR, 97003",158183171,"L"
261013,"17680 UNION LANDING RD","LIVINGTSTON","LA",70754,30.3233224360001,-90.694235426,13,"17680 UNION LANDING RD, LIVINGTSTON, LA, 70754","Match","Non_Exact","17680 UNION LANDING RD, LIVINGSTON, LA, 70754",649788726,"R"
261014,"17682 STATE ROUTE 58","WELLINGTON","OH",44090,41.22820018,-82.2187610569999,14,"17682 STATE ROUTE 58, WELLINGTON, OH, 44090","Match","Exact","17682 STATE RTE 58, WELLINGTON, OH, 44090",55433331,"R"
261015,"17683 HIBISCUS CT","FONTANA","CA",92335,34.089017207,-117.418655941,15,"17683 HIBISCUS CT, FONTANA, CA, 92335","Match","Exact","17683 HIBISCUS CT, FONTANA, CA, 92335",144645717,"R"
261016,"17684 KELLY BLVD","DALLAS","TX",75287,32.9911836690001,-96.867077969,16,"17684 KELLY BLVD, DALLAS, TX, 75287","Match","Exact","17684 KELLY BLVD, DALLAS, TX, 75287",103416020,"L"
261017,"17684 W GAGES LAKE ROAD","GRAYSLAKE","IL",60030,42.3531336680001,-87.977122913,17,"17684 W GAGES LAKE ROAD, GRAYSLAKE, IL, 60030","Match","Exact","17684 W GAGES LAKE RD, GRAYSLAKE, IL, 60030",119696822,"L"
261018,"17685 73RD COURT NORTH","LOXAHATCHEE","FL",33470,26.7856912180001,-80.3221625629999,18,"17685 73RD COURT NORTH, LOXAHATCHEE, FL, 33470","Match","Exact","17685 73RD CT N, LOXAHATCHEE, FL, 33470",115548208,"L"
261019,"17685 E PROGRESS DR","CENTENNIAL","CO",80015,39.622139127,-104.783406387,19,"17685 E PROGRESS DR, CENTENNIAL, CO, 80015","Match","Exact","17685 E PROGRESS DR, CENTENNIAL, CO, 80015",177359606,"L"
261020,"17685 PRINCE GEORGE CT","BROOKFIELD","WI",53045,43.073400301,-88.132349302,20,"17685 PRINCE GEORGE CT, BROOKFIELD, WI, 53045","Match","Exact","17685 PRINCE GEORGE CT, BROOKFIELD, WI, 53045",53829831,"R"
261021,"17685 W STATLER DR","SURPRISE","AZ",85388,33.6326094200001,-112.439441951,21,"17685 W STATLER DR, SURPRISE, AZ, 85388","Match","Exact","17685 W STATLER DR, SURPRISE, AZ, 85388",243968454,"R"
261022,"17687  6300 RD","MONTROSE","CO",81403,38.4293188010001,-107.909515885,22,"17687  6300 RD, MONTROSE, CO, 81403","Match","Exact","17687 6300 RD, MONTROSE, CO, 81403",122562283,"L"
261023,"17687 LOCUST ST","FOUNTAIN VALLEY","CA",92708,33.7062441090001,-117.965897497,23,"17687 LOCUST ST, FOUNTAIN VALLEY, CA, 92708","Match","Exact","17687 LOCUST ST, FOUNTAIN VALLEY, CA, 92708",144019045,"R"
261024,"17687 N MAIN STREET","GALESVILLE","WI",54630,44.0945343490001,-91.341908022,24,"17687 N MAIN STREET, GALESVILLE, WI, 54630","Match","Exact","17687 N MAIN ST, GALESVILLE, WI, 54630",615876067,"L"
261025,"1769 271ST AVE SE","SAMMAMISH","WA",98075,47.5937287940001,-121.976872708,25,"1769 271ST AVE SE, SAMMAMISH, WA, 98075","Match","Exact","1769 271ST AVE SE, SAMMAMISH, WA, 98075",640930322,"L"
261026,"1769 AIRPORT ROAD","OAKDALE","TN",37829,35.9728208650001,-84.6018141009999,26,"1769 AIRPORT ROAD, OAKDALE, TN, 37829","Match","Exact","1769 AIRPORT RD, OAKDALE, TN, 37829",26302861,"R"
261027,"1769 AVENIDA SELVA","FULLERTON","CA",92833,33.8919494350001,-117.967126924,27,"1769 AVENIDA SELVA, FULLERTON, CA, 92833","Match","Exact","1769 AVE SELVA, FULLERTON, CA, 92833",609050235,"L"
261028,"1769 BATELLO DR","VENICE","FL",34292,27.0827108350001,-82.358590914,28,"1769 BATELLO DR, VENICE, FL, 34292","Match","Exact","1769 BATELLO DR, VENICE, FL, 34292",614887406,"R"
261029,"1769 BROWN RD","HEPHZIBAH","GA",30815,33.3240831200001,-82.022721996,29,"1769 BROWN RD, HEPHZIBAH, GA, 30815","Match","Exact","1769 BROWN RD, HEPHZIBAH, GA, 30815",55658404,"L"
261030,"1769 CHICORY COURT","REDDING","CA",96002,40.5372680340001,-122.33805776,30,"1769 CHICORY COURT, REDDING, CA, 96002","Match","Exact","1769 CHICORY CT, REDDING, CA, 96002",126661349,"R"
261031,"1769 CREEK VUE DRIVE","FOND DU LAC","WI",54937,43.8222953630001,-88.496047787,31,"1769 CREEK VUE DRIVE, FOND DU LAC, WI, 54937","Match","Non_Exact","1769 CREEK VU DR, FOND DU LAC, WI, 54937",633579456,"R"
261032,"1769 DEL PRADO","POMONA","CA",91768,34.078607178,-117.777965497,32,"1769 DEL PRADO, POMONA, CA, 91768","Match","Exact","1769 DEL PRADO, POMONA, CA, 91768",141729657,"L"
261033,"1769 DUELS ST","NEW ORLEANS","LA",70119,29.985173231,-90.0684712359999,33,"1769 DUELS ST, NEW ORLEANS, LA, 70119","Match","Exact","1769 DUELS ST, NEW ORLEANS, LA, 70119",191709083,"L"
261034,"1769 E MOODY BOULEVARD","BUNNELL","FL",32110,29.4757988320001,-81.245805622,34,"1769 E MOODY BOULEVARD, BUNNELL, FL, 32110","Match","Non_Exact","1769 OLD MOODY BLVD, BUNNELL, FL, 32110",649909814,"R"
261035,"1769 EAST MOODY BLVD","BUNNELL","FL",32110,29.475800001,-81.245812025,35,"1769 EAST MOODY BLVD, BUNNELL, FL, 32110","Match","Non_Exact","1769 OLD MOODY BLVD, BUNNELL, FL, 32110",649909814,"R"
261036,"1769 FONESTER DRIVE","CINCINNATI","OH",45240,NA,NA,36,"1769 FONESTER DRIVE, CINCINNATI, OH, 45240","No_Match",NA,NA,NA,NA
261037,"1769 GEORGES LANE","PHILADELPHIA","PA",19131,39.9841517090001,-75.229341534,37,"1769 GEORGES LANE, PHILADELPHIA, PA, 19131","Match","Exact","1769 GEORGES LN, PHILADELPHIA, PA, 19131",131398068,"R"
261038,"1769 GLADESTONE DRIVE","MUSKEGON","MI",49445,43.27309218,-86.2856473429999,38,"1769 GLADESTONE DRIVE, MUSKEGON, MI, 49445","Match","Non_Exact","1769 GLADSTONE DR, MUSKEGON, MI, 49445",77649324,"L"
261039,"1769 HUNTSMAN","ORANGE","TX",77632,NA,NA,39,"1769 HUNTSMAN, ORANGE, TX, 77632","No_Match",NA,NA,NA,NA
261040,"1769 LADY COOPER STREET","CHARLESTON","SC",29412,32.738460833,-79.9708417589999,40,"1769 LADY COOPER STREET, CHARLESTON, SC, 29412","Match","Exact","1769 LADY COOPER ST, CHARLESTON, SC, 29412",108812337,"L"
261041,"1769 LEXINGTON AVE N","ROSEVILLE","MN",55113,44.995286294,-93.146432223,41,"1769 LEXINGTON AVE N, ROSEVILLE, MN, 55113","Match","Exact","1769 LEXINGTON AVE N, ROSEVILLE, MN, 55113",97641731,"L"
261042,"1769 MAXWELL CT","DE PERE","WI",54115,44.4079991340001,-88.1227074729999,42,"1769 MAXWELL CT, DE PERE, WI, 54115","Match","Exact","1769 MAXWELL CT, DE PERE, WI, 54115",627275208,"L"
261043,"1769 MOUNT CARMEL CIRCLE","DENVER","NC",28037,35.485433245,-81.033553976,43,"1769 MOUNT CARMEL CIRCLE, DENVER, NC, 28037","Match","Exact","1769 MT CARMEL CIR, DENVER, NC, 28037",69539305,"R"
261044,"1769 NE LIVINGSTON STREET","ARCADIA","FL",34266,NA,NA,44,"1769 NE LIVINGSTON STREET, ARCADIA, FL, 34266","No_Match",NA,NA,NA,NA
261045,"1769 NORTH MARKET STREET","EAST PALESTINE","OH",44413,40.8575437490001,-80.5489005859999,45,"1769 NORTH MARKET STREET, EAST PALESTINE, OH, 44413","Match","Exact","1769 N MARKET ST, E PALESTINE, OH, 44413",640434735,"L"
261046,"1769 OAK ST","MONROE","MI",48161,41.9019749820001,-83.3781667599999,46,"1769 OAK ST, MONROE, MI, 48161","Match","Exact","1769 OAK ST, MONROE, MI, 48161",40479733,"R"
261047,"1769 OCEAN BAY DRIVE","VIRGINIA BEACH","VA",23454,36.782845567,-75.9759245779999,47,"1769 OCEAN BAY DRIVE, VIRGINIA BEACH, VA, 23454","Match","Exact","1769 OCEAN BAY DR, VIRGINIA BCH, VA, 23454",122281711,"R"
261048,"1769 OLD TRAIL DRIVE","CROZET","VA",22932,38.067824575,-78.7115545299999,48,"1769 OLD TRAIL DRIVE, CROZET, VA, 22932","Match","Exact","1769 OLD TRAIL DR, CROZET, VA, 22932",632005467,"R"
261049,"1769 PAGE STREET","SAN FRANCISCO","CA",94117,37.7705865790001,-122.449852127,49,"1769 PAGE STREET, SAN FRANCISCO, CA, 94117","Match","Exact","1769 PAGE ST, SAN FRANCISCO, CA, 94117",192282353,"L"
261050,"1769 RAES CREEK DR","BOLINGBROOK","IL",60490,41.684708561,-88.148854442,50,"1769 RAES CREEK DR, BOLINGBROOK, IL, 60490","Match","Exact","1769 RAES CREEK DR, BOLINGBROOK, IL, 60490",111631280,"L"
261051,"1769 S 40 W","OREM","UT",84058,40.2657343970001,-111.6957533,51,"1769 S 40 W, OREM, UT, 84058","Match","Exact","1769 S 40 W, OREM, UT, 84058",134240013,"L"
261052,"1769 SALTVALE ROAD","WARSAW","NY",14569,NA,NA,52,"1769 SALTVALE ROAD, WARSAW, NY, 14569","No_Match",NA,NA,NA,NA
261053,"1769 SHADES VIEW LN","VESTAVIA HILLS","AL",35216,33.440237875,-86.802899005,53,"1769 SHADES VIEW LN, VESTAVIA HILLS, AL, 35216","Match","Exact","1769 SHADES VIEW LN, VESTAVIA HILLS, AL, 35216",81581989,"R"
261054,"1769 STANWICK CT SE","CALEDONIA","MI",49316,42.8430993310001,-85.6197750709999,54,"1769 STANWICK CT SE, CALEDONIA, MI, 49316","Match","Exact","1769 STANWICK CT SE, CALEDONIA, MI, 49316",12481994,"L"
261055,"1769 STATE RD 80 S","CUBA CITY","WI",53807,NA,NA,55,"1769 STATE RD 80 S, CUBA CITY, WI, 53807","No_Match",NA,NA,NA,NA
261056,"1769 VICTORIA COURT","OGDEN","UT",84403,41.1774645880001,-111.93349967,56,"1769 VICTORIA COURT, OGDEN, UT, 84403","Match","Exact","1769 VICTORIA CT, OGDEN, UT, 84403",155701417,"R"
261057,"1769 VICTORIA CT","OGDEN","UT",84403,41.1774645880001,-111.93349967,57,"1769 VICTORIA CT, OGDEN, UT, 84403","Match","Exact","1769 VICTORIA CT, OGDEN, UT, 84403",155701417,"R"
261058,"1769 WOODGROVE LANE","BLOOMFIELD HILLS","MI",48302,42.562847762,-83.3114018329999,58,"1769 WOODGROVE LANE, BLOOMFIELD HILLS, MI, 48302","Match","Exact","1769 WOODGROVE LN, BLOOMFIELD HILLS, MI, 48302",69726902,"L"
261059,"17690 CLAYTON AVE","ROSEMOUNT","MN",55068,44.693513856,-93.0347504009999,59,"17690 CLAYTON AVE, ROSEMOUNT, MN, 55068","Match","Exact","17690 CLAYTON AVE, ROSEMOUNT, MN, 55068",37911848,"L"
261060,"17690 REBECCA LANE","YORBA LINDA","CA",92886,33.8794933290001,-117.825000666,60,"17690 REBECCA LANE, YORBA LINDA, CA, 92886","Match","Exact","17690 REBECCA LN, YORBA LINDA, CA, 92886",144120422,"R"
261061,"17691 CR 467","DEXTER","MO",63841,36.8721274820001,-90.059876781,61,"17691 CR 467, DEXTER, MO, 63841","Match","Exact","17691 CO RD 467, DEXTER, MO, 63841",35392908,"L"
261062,"17691 SW 31ST CT","MIRAMAR","FL",33029,25.980719816,-80.381951541,62,"17691 SW 31ST CT, MIRAMAR, FL, 33029","Match","Exact","17691 SW 31ST CT, MIRAMAR, FL, 33029",114777733,"R"
261063,"17691 YELLOW PINE DR","SHASTA LAKE CITY","CA",96019,40.6667942670001,-122.405687143,63,"17691 YELLOW PINE DR, SHASTA LAKE CITY, CA, 96019","Match","Non_Exact","17691 YELLOW PINE AVE, SHASTA LAKE, CA, 96019",126660903,"R"
261064,"17692 CAMERON LANE APT 215","HUNTINGTON BEACH","CA",92647,33.7055642890001,-117.988021794,64,"17692 CAMERON LANE APT 215, HUNTINGTON BEACH, CA, 92647","Match","Exact","17692 CAMERON LN, HUNTINGTON BEACH, CA, 92647",651722682,"L"
261065,"17692 COLLINSON","EAST POINTE","MI",48021,42.4549591250001,-82.938633249,65,"17692 COLLINSON, EAST POINTE, MI, 48021","Match","Non_Exact","17692 COLLINSON AVE, EASTPOINTE, MI, 48021",110699833,"R"
261066,"17692 LOCUST DRIVE","LANSING","IL",60438,NA,NA,66,"17692 LOCUST DRIVE, LANSING, IL, 60438","Tie",NA,NA,NA,NA
261067,"17693 COUNTY ROAD 3810","COALGATE","OK",74538,NA,NA,67,"17693 COUNTY ROAD 3810, COALGATE, OK, 74538","No_Match",NA,NA,NA,NA
261068,"17693 CR 467","DEXTER","MO",63841,36.87288728,-90.059874478,68,"17693 CR 467, DEXTER, MO, 63841","Match","Exact","17693 CO RD 467, DEXTER, MO, 63841",35392911,"L"
261069,"17693 E LOYOLA DRIVE","AURORA","CO",80013,39.6454387590001,-104.781979977,69,"17693 E LOYOLA DRIVE, AURORA, CO, 80013","Match","Exact","17693 E LOYOLA DR, AURORA, CO, 80013",177548313,"L"
261070,"17694 FIELDCREST AVENUE","FARMINGTON","MN",55024,44.694609143,-93.190581607,70,"17694 FIELDCREST AVENUE, FARMINGTON, MN, 55024","Match","Exact","17694 FIELDCREST AVE, FARMINGTON, MN, 55024",37931543,"L"
261071,"17695 HORNHILL","OPP","AL",36467,31.2354166650001,-86.322962247,71,"17695 HORNHILL, OPP, AL, 36467","Match","Non_Exact","17695 HORN HILL RD, OPP, AL, 36467",633457516,"L"
261072,"17695 ISABELLA TRL","KILKENNY","MN",56052,44.3300190040001,-93.451540827,72,"17695 ISABELLA TRL, KILKENNY, MN, 56052","Match","Exact","17695 ISABELLA TRL, KILKENNY, MN, 56052",37323632,"R"
261073,"17696 SE 117TH CIRCLE","SUMMERFIELD","FL",34491,28.9724167140001,-81.959211137,73,"17696 SE 117TH CIRCLE, SUMMERFIELD, FL, 34491","Match","Exact","17696 SE 117TH CIR, SUMMERFIELD, FL, 34491",624650496,"L"
261074,"17697 STATE ROUTE 247","SEAMAN","OH",45679,38.9394916150001,-83.5710408039999,74,"17697 STATE ROUTE 247, SEAMAN, OH, 45679","Match","Exact","17697 STATE RTE 247, SEAMAN, OH, 45679",100847347,"L"
261075,"17697 W 10 MILE RD","SOUTHFIELD","MI",48075,42.473420773,-83.219505283,75,"17697 W 10 MILE RD, SOUTHFIELD, MI, 48075","Match","Exact","17697 W 10 MILE RD, SOUTHFIELD, MI, 48075",69793423,"L"
261076,"17698 NW 181 STREET","ALACHUA","FL",32615,29.817080764,-82.5351566269999,76,"17698 NW 181 STREET, ALACHUA, FL, 32615","Match","Exact","17698 NW 181ST ST, ALACHUA, FL, 32615",6833555,"L"
261077,"17698 NW 181ST ST","ALACHUA","FL",32615,29.817080764,-82.5351566269999,77,"17698 NW 181ST ST, ALACHUA, FL, 32615","Match","Exact","17698 NW 181ST ST, ALACHUA, FL, 32615",6833555,"L"
261078,"17698 NW 181ST STREET","ALACHUA","FL",32615,29.817080764,-82.5351566269999,78,"17698 NW 181ST STREET, ALACHUA, FL, 32615","Match","Exact","17698 NW 181ST ST, ALACHUA, FL, 32615",6833555,"L"
261079,"17699 MEDLEY RIDGE DR","CANYON COUNTRY","CA",91387,34.406664172,-118.445148774,79,"17699 MEDLEY RIDGE DR, CANYON COUNTRY, CA, 91387","Match","Exact","17699 MEDLEY RIDGE DR, CANYON COUNTRY, CA, 91387",627893191,"R"
261080,"176A NORWOOD STREET","NEWARK","NJ",7106,NA,NA,80,"176A NORWOOD STREET, NEWARK, NJ, 7106","Tie",NA,NA,NA,NA
261081,"177 16TH STREET","SPRINGFIELD","OR",97477,44.0466779070001,-123.001775724,81,"177 16TH STREET, SPRINGFIELD, OR, 97477","Match","Exact","177 16TH ST, SPRINGFIELD, OR, 97477",178173471,"R"
261082,"177 22ND STREET UNIT 9","COSTA MESA","CA",92627,33.649681882,-117.90526927,82,"177 22ND STREET UNIT 9, COSTA MESA, CA, 92627","Match","Exact","177 22ND ST, COSTA MESA, CA, 92627",144048370,"R"
261083,"177 3RD AVENUE","KOTZEBUE","AK",99752,NA,NA,83,"177 3RD AVENUE, KOTZEBUE, AK, 99752","No_Match",NA,NA,NA,NA
261084,"177 A D MCLENDON RD","MENDENHALL","MS",39114,31.905408139,-89.828216979,84,"177 A D MCLENDON RD, MENDENHALL, MS, 39114","Match","Exact","177 A D MCLENDON RD, MENDENHALL, MS, 39114",649945316,"R"
261085,"177 ACADEMY WOODS DR","JEFFERSON","GA",30549,34.1410711030001,-83.623834492,85,"177 ACADEMY WOODS DR, JEFFERSON, GA, 30549","Match","Exact","177 ACADEMY WOODS DR, JEFFERSON, GA, 30549",632104864,"L"
261086,"177 ADMIRAL COCHRANE DRIVE","ANNAPOLIS","MD",21401,38.9735160170001,-76.550258135,86,"177 ADMIRAL COCHRANE DRIVE, ANNAPOLIS, MD, 21401","Match","Exact","177 ADMIRAL COCHRANE DR, ANNAPOLIS, MD, 21401",606925971,"L"
261087,"177 ALICE AVE","HAMILTON","MT",59840,46.252363845,-114.147603913,87,"177 ALICE AVE, HAMILTON, MT, 59840","Match","Exact","177 ALICE AVE, HAMILTON, MT, 59840",153530229,"R"
261088,"177 ARBORVIEW DRIVE","VILLA RIDGE","MO",63089,38.4392645230001,-90.899779984,88,"177 ARBORVIEW DRIVE, VILLA RIDGE, MO, 63089","Match","Exact","177 ARBORVIEW DR, VILLA RIDGE, MO, 63089",99753955,"L"
261089,"177 ARLINGTON STREET","QUINCY","MA",2170,42.2674824760001,-71.022911721,89,"177 ARLINGTON STREET, QUINCY, MA, 2170","Match","Exact","177 ARLINGTON ST, QUINCY, MA, 02170",87248715,"R"
261090,"177 ATLANTA AVENUE SE","ATLANTA","GA",30316,33.7303499920001,-84.381975045,90,"177 ATLANTA AVENUE SE, ATLANTA, GA, 30316","Match","Non_Exact","177 ATLANTA AVE SE, ATLANTA, GA, 30315",17346526,"R"
261091,"177 BANBURY RD","COLUMBIA","SC",29210,34.048072307,-81.1484239069999,91,"177 BANBURY RD, COLUMBIA, SC, 29210","Match","Exact","177 BANBURY RD, COLUMBIA, SC, 29210",70049915,"L"
261092,"177 BAYVIEW DRIVE","TEN MILE","TN",37880,35.75356765,-84.6555643409999,92,"177 BAYVIEW DRIVE, TEN MILE, TN, 37880","Match","Exact","177 BAYVIEW DR, TEN MILE, TN, 37880",88612517,"L"
261093,"177 BEECH STREET APT 2","MANCHESTER","NH",3103,42.9791349000001,-71.455404672,93,"177 BEECH STREET APT 2, MANCHESTER, NH, 3103","Match","Exact","177 BEECH ST, MANCHESTER, NH, 03103",113532014,"R"
261094,"177 BELL TOP DRIVE","KITTANNING","PA",16201,40.8023327870001,-79.555129398,94,"177 BELL TOP DRIVE, KITTANNING, PA, 16201","Match","Exact","177 BELL TOP DR, KITTANNING, PA, 16201",634146160,"R"
261095,"177 BELVIDERE AVE","WASHINGTON","NJ",7882,40.7622172590001,-74.982522664,95,"177 BELVIDERE AVE, WASHINGTON, NJ, 7882","Match","Exact","177 BELVIDERE AVE, WASHINGTON, NJ, 07882",98089658,"L"
261096,"177 BENNINGTON STREET","BOSTON","MA",2128,42.3772197440001,-71.032602622,96,"177 BENNINGTON STREET, BOSTON, MA, 2128","Match","Exact","177 BENNINGTON ST, BOSTON, MA, 02128",85711561,"R"
261097,"177 BENTWILLOW DR","NILES","OH",44446,41.1987615100001,-80.762398472,97,"177 BENTWILLOW DR, NILES, OH, 44446","Match","Non_Exact","177 BENTWILLOW DR SE, NILES, OH, 44446",117408765,"L"
261098,"177 BERWICK DR","SUMMERVILLE","SC",29483,33.037371239,-80.2388162189999,98,"177 BERWICK DR, SUMMERVILLE, SC, 29483","Match","Exact","177 BERWICK DR, SUMMERVILLE, SC, 29483",641132543,"L"
261099,"177 BIG FORK ROAD","BARNWELL","SC",29812,33.1275892940001,-81.33906862,99,"177 BIG FORK ROAD, BARNWELL, SC, 29812","Match","Exact","177 BIG FORK RD, BARNWELL, SC, 29812",19072222,"L"
261100,"177 BLACK HILL ROAD","BRYSON CITY","NC",28713,35.432386358,-83.449207143,100,"177 BLACK HILL ROAD, BRYSON CITY, NC, 28713","Match","Exact","177 BLACK HILL RD, BRYSON CITY, NC, 28713",648268283,"R"
261101,"177 BLAIR BRANCH","JEREMIAH","KY",41826,37.1698500360001,-82.9060232849999,101,"177 BLAIR BRANCH, JEREMIAH, KY, 41826","Match","Exact","177 BLAIR BRANCH, JEREMIAH, KY, 41826",88055005,"L"
261102,"177 BLAIR BRANCH","JEREMIAH","KY",41858,37.1698500360001,-82.9060232849999,102,"177 BLAIR BRANCH, JEREMIAH, KY, 41858","Match","Non_Exact","177 BLAIR BRANCH, JEREMIAH, KY, 41826",88055005,"L"
261103,"177 BRATMORE TERRACE","HOT SPRINGS","AR",71901,34.550449632,-92.891022864,103,"177 BRATMORE TERRACE, HOT SPRINGS, AR, 71901","Match","Exact","177 BRATMORE TER, HOT SPRINGS, AR, 71901",22748115,"R"
261104,"177 BRUNNER ROAD","MADISONVILLE","TN",37354,35.5554441900001,-84.368185018,104,"177 BRUNNER ROAD, MADISONVILLE, TN, 37354","Match","Exact","177 BRUNNER RD, MADISONVILLE, TN, 37354",639202973,"R"
261105,"177 BUFFALO AVENUE 1ST FLOOR","BROOKLYN","NY",11213,40.6732404030001,-73.9251271969999,105,"177 BUFFALO AVENUE 1ST FLOOR, BROOKLYN, NY, 11213","Match","Exact","177 BUFFALO AVE, BROOKLYN, NY, 11213",59101433,"L"
261106,"177 BURKE","RIVER ROUGE","MI",48218,42.2741918080001,-83.13208529,106,"177 BURKE, RIVER ROUGE, MI, 48218","Match","Non_Exact","177 BURKE ST, RIVER ROUGE, MI, 48218",95480536,"L"
261107,"177 BURRIS LENORE RD","CROWHEART","WY",82512,43.3799342990001,-109.262662546,107,"177 BURRIS LENORE RD, CROWHEART, WY, 82512","Match","Non_Exact","177 BURRIS-LENORE RD, CROWHEART, WY, 82512",148488808,"R"
261108,"177 CAMDEN STREET             APT1A","NEWARK","NJ",7103,40.7398958570001,-74.193729574,108,"177 CAMDEN STREET             APT1A, NEWARK, NJ, 7103","Match","Exact","177 CAMDEN ST, NEWARK, NJ, 07103",63465839,"R"
261109,"177 CARLTON TERRACE","STEWART MANOR","NY",11530,40.717841381,-73.686195406,109,"177 CARLTON TERRACE, STEWART MANOR, NY, 11530","Match","Exact","177 CARLTON TER, STEWART MANOR, NY, 11530",147667010,"R"
261110,"177 CARMIA RD","MUNROE FALLS","OH",44262,41.144125219,-81.429069066,110,"177 CARMIA RD, MUNROE FALLS, OH, 44262","Match","Exact","177 CARMIA RD, MUNROE FALLS, OH, 44262",61351904,"L"
261111,"177 CARRIAGE HILL","BRATTLEBORO","VT",5301,NA,NA,111,"177 CARRIAGE HILL, BRATTLEBORO, VT, 5301","Tie",NA,NA,NA,NA
261112,"177 CENTURY ROAD","LEESBURG","GA",31763,NA,NA,112,"177 CENTURY ROAD, LEESBURG, GA, 31763","Tie",NA,NA,NA,NA
261113,"177 CHAPEL HILL RD","BRANDON","VT",5733,43.832397638,-73.058922507,113,"177 CHAPEL HILL RD, BRANDON, VT, 5733","Match","Exact","177 CHAPEL HILL RD, BRANDON, VT, 05733",138960056,"R"
261114,"177 CHELSEA DRIVE","SHREVEPORT","LA",71105,32.452801229,-93.716880712,114,"177 CHELSEA DRIVE, SHREVEPORT, LA, 71105","Match","Exact","177 CHELSEA DR, SHREVEPORT, LA, 71105",57441728,"L"
261115,"177 CHURCH RD","FOMBELL","PA",16123,40.823035593,-80.172495636,115,"177 CHURCH RD, FOMBELL, PA, 16123","Match","Exact","177 CHURCH RD, FOMBELL, PA, 16123",652292515,"R"
261116,"177 CHURCH STREET","FALLS","PA",18615,41.461951035,-75.859580701,116,"177 CHURCH STREET, FALLS, PA, 18615","Match","Exact","177 CHURCH ST, FALLS, PA, 18615",612270941,"L"
261117,"177 CLEAR SPRING ROAD","BIGLERVILLE","PA",17307,39.9363724290001,-77.272126138,117,"177 CLEAR SPRING ROAD, BIGLERVILLE, PA, 17307","Match","Exact","177 CLEAR SPRING RD, BIGLERVILLE, PA, 17307",637980487,"R"
261118,"177 CONANICUS AVENUE","JAMESTOWN","RI",2835,41.502955694,-71.364557028,118,"177 CONANICUS AVENUE, JAMESTOWN, RI, 2835","Match","Exact","177 CONANICUS AVE, JAMESTOWN, RI, 02835",47348456,"R"
261119,"177 CONCORD STREET APT 2D","BROOKLYN","NY",11201,40.697579917,-73.9839688279999,119,"177 CONCORD STREET APT 2D, BROOKLYN, NY, 11201","Match","Exact","177 CONCORD ST, BROOKLYN, NY, 11201",59075185,"L"
261120,"177 CONOVER AVE","NUTLEY","NJ",7110,40.809929939,-74.1560371429999,120,"177 CONOVER AVE, NUTLEY, NJ, 7110","Match","Exact","177 CONOVER AVE, NUTLEY, NJ, 07110",612994059,"L"
261121,"177 CONVER AVE","NUTLEY","NJ",7110,40.809929939,-74.1560371429999,121,"177 CONVER AVE, NUTLEY, NJ, 7110","Match","Non_Exact","177 CONOVER AVE, NUTLEY, NJ, 07110",612994059,"L"
261122,"177 COTTON TRACE","MAYLENE","AL",35114,33.2206029000001,-86.8686575249999,122,"177 COTTON TRACE, MAYLENE, AL, 35114","Match","Exact","177 COTTON TRCE, MAYLENE, AL, 35114",82120388,"R"
261123,"177 COUNTY HIGHWAY 449","SIKESTON","MO",63801,36.9558762410001,-89.552349717,123,"177 COUNTY HIGHWAY 449, SIKESTON, MO, 63801","Match","Non_Exact","177 CO RD 449, SIKESTON, MO, 63801",623842967,"L"
261124,"177 COUNTY RD 309C","PALATKA","FL",32177,29.638949956,-81.708347899,124,"177 COUNTY RD 309C, PALATKA, FL, 32177","Match","Exact","177 CO RD 309C, PALATKA, FL, 32177",86089926,"L"
261125,"177 COUNTY ROAD 155","STRINGER","MS",39481,31.8474202030001,-89.245172786,125,"177 COUNTY ROAD 155, STRINGER, MS, 39481","Match","Exact","177 CO RD 155, STRINGER, MS, 39481",636705086,"L"
261126,"177 COUNTY ROUTE 19","HUDSON","NY",12534,NA,NA,126,"177 COUNTY ROUTE 19, HUDSON, NY, 12534","Tie",NA,NA,NA,NA
261127,"177 CR 3504","JACKSONVILLE","TX",75762,NA,NA,127,"177 CR 3504, JACKSONVILLE, TX, 75762","No_Match",NA,NA,NA,NA
261128,"177 DAFFODIL DR APT D102","PALM BAY","FL",32908,27.9968551220001,-80.68193245,128,"177 DAFFODIL DR APT D102, PALM BAY, FL, 32908","Match","Exact","177 DAFFODIL DR, PALM BAY, FL, 32908",640620808,"L"
261129,"177 DAFFODIL DR SW APT D102","PALM BAY","FL",32908,27.9968551220001,-80.68193245,129,"177 DAFFODIL DR SW APT D102, PALM BAY, FL, 32908","Match","Non_Exact","177 DAFFODIL DR, PALM BAY, FL, 32908",640620808,"L"
261130,"177 DANIELS RD","CUBA","MO",65453,NA,NA,130,"177 DANIELS RD, CUBA, MO, 65453","No_Match",NA,NA,NA,NA
261131,"177 DAWSON LANE","WHITE STONE","VA",22578,37.68253587,-76.371278256,131,"177 DAWSON LANE, WHITE STONE, VA, 22578","Match","Exact","177 DAWSON LN, WHITE STONE, VA, 22578",30806767,"R"
261132,"177 DEAN ST","BROOKLYN","NY",11217,40.6859708490001,-73.986465746,132,"177 DEAN ST, BROOKLYN, NY, 11217","Match","Exact","177 DEAN ST, BROOKLYN, NY, 11217",59075347,"L"
261133,"177 DEAN STREET","BROOKLYN","NY",11217,40.6859708490001,-73.986465746,133,"177 DEAN STREET, BROOKLYN, NY, 11217","Match","Exact","177 DEAN ST, BROOKLYN, NY, 11217",59075347,"L"
261134,"177 DENVER AVE","MNATUA","NJ",8051,39.777562376,-75.18968904,134,"177 DENVER AVE, MNATUA, NJ, 8051","Match","Non_Exact","177 DENVER AVE, MANTUA, NJ, 08051",134582765,"L"
261135,"177 DINATALI DRIVE","WATERBURY","CT",6705,41.5311969590001,-72.986088616,135,"177 DINATALI DRIVE, WATERBURY, CT, 6705","Match","Exact","177 DINATALI DR, WATERBURY, CT, 06705",617946669,"L"
261136,"177 DINGLEY ISLAND ROAD","HARPSWELL","ME",4079,43.815833162,-69.8823885419999,136,"177 DINGLEY ISLAND ROAD, HARPSWELL, ME, 4079","Match","Exact","177 DINGLEY ISLAND RD, HARPSWELL, ME, 04079",78052465,"R"
261137,"177 DOGWOOD TRAIL NE","CLEVELAND","TN",37323,35.1541761440001,-84.742432779,137,"177 DOGWOOD TRAIL NE, CLEVELAND, TN, 37323","Match","Non_Exact","177 DOGWOOD TRL, CLEVELAND, TN, 37323",57576877,"L"
261138,"177 DORRY LANE","GRANTS PASS","OR",97526,42.391631562,-123.298476064,138,"177 DORRY LANE, GRANTS PASS, OR, 97526","Match","Non_Exact","177 DORRY LN, GRANTS PASS, OR, 97527",156573907,"L"
261139,"177 DREAMZ ESTATES DRIVE","PERRYVILLE","MO",63775,37.6760867200001,-89.909594987,139,"177 DREAMZ ESTATES DRIVE, PERRYVILLE, MO, 63775","Match","Non_Exact","177 DREAMZ ESTATES LN, PERRYVILLE, MO, 63775",627953807,"R"
261140,"177 DRIFT AVE","LAWRENCE","NJ",8648,40.2705427670001,-74.750298041,140,"177 DRIFT AVE, LAWRENCE, NJ, 8648","Match","Exact","177 DRIFT AVE, LAWRENCE, NJ, 08648",60226163,"L"
261141,"177 DUBLIN ROAD","JAFFREY","NH",3452,42.8403872150001,-72.0708355519999,141,"177 DUBLIN ROAD, JAFFREY, NH, 3452","Match","Exact","177 DUBLIN RD, JAFFREY, NH, 03452",124069298,"L"
261142,"177 E 229TH STREET","CARSON","CA",90745,33.8179629640001,-118.273315312,142,"177 E 229TH STREET, CARSON, CA, 90745","Match","Exact","177 E 229TH ST, CARSON, CA, 90745",141669791,"L"
261143,"177 E 31ST ST","BROOKLYN","NY",11226,40.6463334700001,-73.948103456,143,"177 E 31ST ST, BROOKLYN, NY, 11226","Match","Exact","177 E 31ST ST, BROOKLYN, NY, 11226",59081519,"L"
261144,"177 E 900 S SUITE 202","SALT LAKE CITY","UT",84111,NA,NA,144,"177 E 900 S SUITE 202, SALT LAKE CITY, UT, 84111","No_Match",NA,NA,NA,NA
261145,"177 E ALEXANDER AVE","SAN BERNARDINO","CA",92404,34.141493478,-117.281659058,145,"177 E ALEXANDER AVE, SAN BERNARDINO, CA, 92404","Match","Exact","177 E ALEXANDER AVE, SAN BERNARDINO, CA, 92404",144993715,"R"
261146,"177 E BRITTANY LANE","HAINSEVILLE","IL",60030,42.3491498170001,-88.0636032049999,146,"177 E BRITTANY LANE, HAINSEVILLE, IL, 60030","Match","Non_Exact","177 E BRITTANY LN, HAINESVILLE, IL, 60030",119695788,"L"
261147,"177 E COLORADO BLVD STE 200","PASADENA","CA",91105,34.1457629080001,-118.153699476,147,"177 E COLORADO BLVD STE 200, PASADENA, CA, 91105","Match","Non_Exact","177 W COLORADO BLVD, PASADENA, CA, 91105",141629425,"R"
261148,"177 E COLORADO BLVD SUITE 200","PASADENA","CA",91105,34.1457629080001,-118.153699476,148,"177 E COLORADO BLVD SUITE 200, PASADENA, CA, 91105","Match","Non_Exact","177 W COLORADO BLVD, PASADENA, CA, 91105",141629425,"R"
261149,"177 E GIBBONS AVE","PORTERVILLE","CA",93257,36.04039536,-119.013609308,149,"177 E GIBBONS AVE, PORTERVILLE, CA, 93257","Match","Exact","177 E GIBBONS AVE, PORTERVILLE, CA, 93257",202788581,"R"
261150,"177 E HAVERHILL ST APT 1","LAWRENCE","MA",1841,42.710972407,-71.157523705,150,"177 E HAVERHILL ST APT 1, LAWRENCE, MA, 1841","Match","Exact","177 HAVERHILL ST, LAWRENCE, MA, 01841",642521545,"R"
261151,"177 E STREET NW","ARDMORE","OK",73401,34.1759752,-97.133602283,151,"177 E STREET NW, ARDMORE, OK, 73401","Match","Exact","177 E ST NW, ARDMORE, OK, 73401",14828674,"L"
261152,"177 E SYCAMORE DRIVE APT 509","PARK FOREST","IL",60466,41.4641132790001,-87.665845395,152,"177 E SYCAMORE DRIVE APT 509, PARK FOREST, IL, 60466","Match","Exact","177 SYCAMORE DR, PARK FOREST, IL, 60466",111621417,"L"
261153,"177 E US HWY 52","MENDOTA","IL",61342,41.611455354,-89.188669476,153,"177 E US HWY 52, MENDOTA, IL, 61342","Match","Exact","177 E US HWY 52, MENDOTA, IL, 61342",48751756,"L"
261154,"177 EAGLE DR","GOLDEN","CO",80403,39.762035832,-105.234507927,154,"177 EAGLE DR, GOLDEN, CO, 80403","Match","Exact","177 EAGLE DR, GOLDEN, CO, 80403",177758863,"L"
261155,"177 EAST AVE","SARATOGA SPRINGS","NY",12866,43.083578458,-73.7717308809999,155,"177 EAST AVE, SARATOGA SPRINGS, NY, 12866","Match","Exact","177 EAST AVE, SARATOGA SPGS, NY, 12866",18766513,"L"
261156,"177 EAST BACON ST","PLAINVILLE","MA",2762,42.008827873,-71.311173103,156,"177 EAST BACON ST, PLAINVILLE, MA, 2762","Match","Exact","177 E BACON ST, PLAINVILLE, MA, 02762",87299094,"L"
261157,"177 EAST DAVILLA STREET","BARTLETT","TX",76511,30.797186905,-97.426604057,157,"177 EAST DAVILLA STREET, BARTLETT, TX, 76511","Match","Exact","177 E DAVILLA ST, BARTLETT, TX, 76511",146133678,"L"
261158,"177 EAST MAIN STREET","NEW ROCHELLE","NY",10801,40.9160095870001,-73.770224836,158,"177 EAST MAIN STREET, NEW ROCHELLE, NY, 10801","Match","Exact","177 E MAIN ST, NEW ROCHELLE, NY, 10801",139843062,"R"
261159,"177 EASTGATE DRIVE","MORGANTOWN","WV",26508,39.6024526250001,-79.9104331199999,159,"177 EASTGATE DRIVE, MORGANTOWN, WV, 26508","Match","Exact","177 EASTGATE DR, MORGANTOWN, WV, 26508",50746981,"R"
261160,"177 ESTATE PROFIT","KINGSHILL","VI",850,NA,NA,160,"177 ESTATE PROFIT, KINGSHILL, VI, 850","No_Match",NA,NA,NA,NA
261161,"177 EVAN DR NE","COMSTOCK PARK","MI",49321,43.0679903290001,-85.665048739,161,"177 EVAN DR NE, COMSTOCK PARK, MI, 49321","Match","Exact","177 EVAN DR NE, COMSTOCK PARK, MI, 49321",625605795,"L"
261162,"177 FARMING ACRES ROAD","DUFFIELD","VA",24244,36.71327123,-82.7256029489999,162,"177 FARMING ACRES ROAD, DUFFIELD, VA, 24244","Match","Exact","177 FARMING ACRES RD, DUFFIELD, VA, 24244",79172280,"L"
261163,"177 FINLEY AVE","STATEN ISLAND","NY",10306,40.562523453,-74.105094938,163,"177 FINLEY AVE, STATEN ISLAND, NY, 10306","Match","Exact","177 FINLEY AVE, STATEN ISLAND, NY, 10306",59868976,"R"
261164,"177 FLAT ROCK RD","TOCCOA","GA",30577,34.5906780060001,-83.3376030169999,164,"177 FLAT ROCK RD, TOCCOA, GA, 30577","Match","Exact","177 FLAT ROCK RD, TOCCOA, GA, 30577",97854350,"L"
261165,"177 FLINTRIDGE DR","ROCKFORD","IL",61107,42.2651285540001,-89.022974607,165,"177 FLINTRIDGE DR, ROCKFORD, IL, 61107","Match","Exact","177 FLINTRIDGE DR, ROCKFORD, IL, 61107",49262561,"R"
261166,"177 FM 253","BUNA","TX",77612,NA,NA,166,"177 FM 253, BUNA, TX, 77612","No_Match",NA,NA,NA,NA
261167,"177 FRANKLIN ST","OSWEGO","IL",60543,41.6810221120001,-88.3453253069999,167,"177 FRANKLIN ST, OSWEGO, IL, 60543","Match","Exact","177 FRANKLIN ST, OSWEGO, IL, 60543",54484748,"R"
261168,"177 FRANKLIN ST","SECAUCUS","NJ",7094,40.799223177,-74.0564392539999,168,"177 FRANKLIN ST, SECAUCUS, NJ, 7094","Match","Exact","177 FRANKLIN ST, SECAUCUS, NJ, 07094",59597041,"L"
261169,"177 FRANKLIN STREET","SECAUCUS","NJ",7094,40.799223177,-74.0564392539999,169,"177 FRANKLIN STREET, SECAUCUS, NJ, 7094","Match","Exact","177 FRANKLIN ST, SECAUCUS, NJ, 07094",59597041,"L"
261170,"177 FREMONT LOOP","MOORESVILLE","NC",28115,35.546772699,-80.84187797,170,"177 FREMONT LOOP, MOORESVILLE, NC, 28115","Match","Exact","177 FREMONT LOOP, MOORESVILLE, NC, 28115",46009095,"L"
261171,"177 FROZEN RIDGE RD","NEWBURGH","NY",12550,41.5613241360001,-74.0283227799999,171,"177 FROZEN RIDGE RD, NEWBURGH, NY, 12550","Match","Exact","177 FROZEN RIDGE RD, NEWBURGH, NY, 12550",640444478,"L"
261172,"177 GEORGIAN COURT ROAD","ROCHESTER","NY",14810,43.1335019530001,-77.540564387,172,"177 GEORGIAN COURT ROAD, ROCHESTER, NY, 14810","Match","Non_Exact","177 GEORGIAN COURT RD, ROCHESTER, NY, 14610",14543670,"R"
261173,"177 GILBERT DRIVE","MORRISVILLE","PA",19067,40.2006081530001,-74.833637556,173,"177 GILBERT DRIVE, MORRISVILLE, PA, 19067","Match","Exact","177 GILBERT DR, MORRISVILLE, PA, 19067",134760582,"L"
261174,"177 GLEN EAGLE WAY","MCDONOUGH","GA",30253,33.5008987750001,-84.213661304,174,"177 GLEN EAGLE WAY, MCDONOUGH, GA, 30253","Match","Exact","177 GLEN EAGLE WAY, MCDONOUGH, GA, 30253",23212052,"R"
261175,"177 GLENWOOD AVE NO 312","MINNEAPOLIS","MN",55405,44.9790635630001,-93.284136641,175,"177 GLENWOOD AVE NO 312, MINNEAPOLIS, MN, 55405","Match","Non_Exact","177 GLENWOOD AVE, MINNEAPOLIS, MN, 55405",43663169,"L"
261176,"177 GRANDVIEW DR","LAKE OZARK","MO",65049,38.2076889910001,-92.6733579849999,176,"177 GRANDVIEW DR, LAKE OZARK, MO, 65049","Match","Exact","177 GRANDVIEW DR, LAKE OZARK, MO, 65049",610867913,"L"
261177,"177 GREAT BROOK ROAD","GROTON","CT",6340,41.386117498,-72.036227813,177,"177 GREAT BROOK ROAD, GROTON, CT, 6340","Match","Exact","177 GREAT BROOK RD, GROTON, CT, 06340",650143758,"L"
261178,"177 GREEN COVE","BRUNSWICK","GA",31525,31.3014164910001,-81.53908771,178,"177 GREEN COVE, BRUNSWICK, GA, 31525","Match","Non_Exact","177 GREEN COVE DR, BRUNSWICK, GA, 31525",636127032,"L"
261179,"177 GREENVIEW DRIVE","RICHLAND","WA",99352,46.2194134120001,-119.269514841,179,"177 GREENVIEW DRIVE, RICHLAND, WA, 99352","Match","Exact","177 GREENVIEW DR, RICHLAND, WA, 99352",649890985,"L"
261180,"177 GROVE ROAD","SOUTH ORANGE","NJ",7079,40.74695755,-74.250767422,180,"177 GROVE ROAD, SOUTH ORANGE, NJ, 7079","Match","Exact","177 GROVE RD, SOUTH ORANGE, NJ, 07079",63463039,"L"
261181,"177 GROVE STREET","LEXINGTON","MA",2420,42.482798062,-71.239601044,181,"177 GROVE STREET, LEXINGTON, MA, 2420","Match","Exact","177 GROVE ST, LEXINGTON, MA, 02420",86881660,"R"
261182,"177 GUNNELL ROAD","GEORGETOWN","KY",40324,38.2724461270001,-84.4910064429999,182,"177 GUNNELL ROAD, GEORGETOWN, KY, 40324","Match","Exact","177 GUNNELL RD, GEORGETOWN, KY, 40324",41242427,"R"
261183,"177 GUNSTOCK HILL ROAD","GILFORD","NH",3249,43.5556610100001,-71.415630848,183,"177 GUNSTOCK HILL ROAD, GILFORD, NH, 3249","Match","Exact","177 GUNSTOCK HILL RD, GILFORD, NH, 03249",145503589,"R"
261184,"177 HADLEY AVE","CLIFTON","NJ",7011,40.871284517,-74.143317376,184,"177 HADLEY AVE, CLIFTON, NJ, 7011","Match","Exact","177 HADLEY AVE, CLIFTON, NJ, 07011",65250874,"L"
261185,"177 HALE STREET","ATLANTA","GA",30307,33.759274868,-84.3593201429999,185,"177 HALE STREET, ATLANTA, GA, 30307","Match","Non_Exact","177 HALE ST NE, ATLANTA, GA, 30307",17357619,"R"
261186,"177 HANCOCK ST","BROOKLYN","NY",11216,40.682680068,-73.9488272629999,186,"177 HANCOCK ST, BROOKLYN, NY, 11216","Match","Exact","177 HANCOCK ST, BROOKLYN, NY, 11216",59078922,"L"
261187,"177 HARDENBURGH AVENUE","DEMAREST","NJ",7627,40.956808891,-73.95948384,187,"177 HARDENBURGH AVENUE, DEMAREST, NJ, 7627","Match","Exact","177 HARDENBURGH AVE, DEMAREST, NJ, 07627",64440583,"L"
261188,"177 HAUGER ROAD","THETFORD","VT",5075,43.7976049100001,-72.24654896,188,"177 HAUGER ROAD, THETFORD, VT, 5075","Match","Non_Exact","177 HAUGER RD, THETFORD CTR, VT, 05075",649804983,"L"
261189,"177 HAYES AVE","SOUTH BURLINGTON","VT",5403,44.451584338,-73.1617343629999,189,"177 HAYES AVE, SOUTH BURLINGTON, VT, 5403","Match","Exact","177 HAYES AVE, S BURLINGTON, VT, 05403",640654307,"R"
261190,"177 HEATH ST APT 1","BOSTON","MA",2130,42.3260965220001,-71.1045694429999,190,"177 HEATH ST APT 1, BOSTON, MA, 2130","Match","Exact","177 HEATH ST, BOSTON, MA, 02130",642551498,"R"
261191,"177 HELENA CIRCLE","LITTLETON","CO",80124,39.5550792350001,-104.89563831,191,"177 HELENA CIRCLE, LITTLETON, CO, 80124","Match","Exact","177 HELENA CIR, LITTLETON, CO, 80124",130801057,"R"
261192,"177 HIDDEN LAKES TRL","JEFFERSON","GA",30549,34.1650806370001,-83.571267877,192,"177 HIDDEN LAKES TRL, JEFFERSON, GA, 30549","Match","Exact","177 HIDDEN LAKES TRL, JEFFERSON, GA, 30549",642925003,"L"
261193,"177 HIGH STREET","NEW BRITAIN","CT",6051,41.6727373190001,-72.785919888,193,"177 HIGH STREET, NEW BRITAIN, CT, 6051","Match","Exact","177 HIGH ST, NEW BRITAIN, CT, 06051",633042505,"R"
261194,"177 HILLCREST AVE","ANCHORAGE","AK",99669,60.4830919170001,-151.077982884,194,"177 HILLCREST AVE, ANCHORAGE, AK, 99669","Match","Non_Exact","177 HILLCREST AVE, SOLDOTNA, AK, 99669",190997437,"L"
261195,"177 HILLCREST DRIVE","MT. VERNON","NY",10552,40.9265382620001,-73.809008212,195,"177 HILLCREST DRIVE, MT. VERNON, NY, 10552","Match","Non_Exact","177 HILLCREST RD, MOUNT VERNON, NY, 10552",139748973,"R"
261196,"177 HOLDERNESS STREET","ATLANTA","GA",30314,33.749496993,-84.4264354059999,196,"177 HOLDERNESS STREET, ATLANTA, GA, 30314","Match","Non_Exact","177 HOLDERNESS ST SW, ATLANTA, GA, 30314",17342513,"R"
261197,"177 HOLIDAY BLVD","CENTER MORICHES","NY",11934,40.785716473,-72.8097205829999,197,"177 HOLIDAY BLVD, CENTER MORICHES, NY, 11934","Match","Exact","177 HOLIDAY BLVD, CENTER MORICHES, NY, 11934",647297987,"L"
261198,"177 HOLSTON DR","LANCASTER","CA",93535,NA,NA,198,"177 HOLSTON DR, LANCASTER, CA, 93535","No_Match",NA,NA,NA,NA
261199,"177 HOLSTON DRIVE","LANCASTER","CA",93535,NA,NA,199,"177 HOLSTON DRIVE, LANCASTER, CA, 93535","No_Match",NA,NA,NA,NA
261200,"177 HOWARD BLVD","NEWPORT","NC",28570,34.787309001,-76.8626610599999,200,"177 HOWARD BLVD, NEWPORT, NC, 28570","Match","Exact","177 HOWARD BLVD, NEWPORT, NC, 28570",33856591,"L"
261201,"177 HOWARD STREET","BUFFALO","NY",14208,42.883335592,-78.847520011,201,"177 HOWARD STREET, BUFFALO, NY, 14208","Match","Non_Exact","177 HOWARD ST, BUFFALO, NY, 14206",48300414,"R"
261202,"177 HUGHES AVENUE","SANFORD","FL",32771,28.7922316470001,-81.2513730919999,202,"177 HUGHES AVENUE, SANFORD, FL, 32771","Match","Exact","177 HUGHES AVE, SANFORD, FL, 32771",93750971,"L"
261203,"177 HULL STREET","BROOKLYN","NY",11233,40.6796690830001,-73.909792314,203,"177 HULL STREET, BROOKLYN, NY, 11233","Match","Exact","177 HULL ST, BROOKLYN, NY, 11233",59083287,"L"
261204,"177 HUNTINGTON AVE","BOSTON","MA",2115,42.3447910520001,-71.082596859,204,"177 HUNTINGTON AVE, BOSTON, MA, 2115","Match","Exact","177 HUNTINGTON AVE, BOSTON, MA, 02115",85697646,"R"
261205,"177 HUNTINGTON AVENUE STE 1700-3018","BOSTON","MA",2115,42.3447910520001,-71.082596859,205,"177 HUNTINGTON AVENUE STE 1700-3018, BOSTON, MA, 2115","Match","Exact","177 HUNTINGTON AVE, BOSTON, MA, 02115",85697646,"R"
261206,"177 HWY 42 SUITE E","ASHEBORO","NC",27203,NA,NA,206,"177 HWY 42 SUITE E, ASHEBORO, NC, 27203","No_Match",NA,NA,NA,NA
261207,"177 INDEPENDENT AVE","QUICNY","MA",2169,NA,NA,207,"177 INDEPENDENT AVE, QUICNY, MA, 2169","No_Match",NA,NA,NA,NA
261208,"177 INVERNESS TRACE","RIVERDALE","GA",30274,33.505174637,-84.3985907329999,208,"177 INVERNESS TRACE, RIVERDALE, GA, 30274","Match","Exact","177 INVERNESS TRCE, RIVERDALE, GA, 30274",23328413,"R"
261209,"177 JACKS DR","YOUNGSVILLE","NC",27596,36.0674253830001,-78.503650008,209,"177 JACKS DR, YOUNGSVILLE, NC, 27596","Match","Exact","177 JACKS DR, YOUNGSVILLE, NC, 27596",90235062,"L"
261210,"177 JEFFERSON STREET","WARWICK","RI",2888,41.757509924,-71.4028495319999,210,"177 JEFFERSON STREET, WARWICK, RI, 2888","Match","Exact","177 JEFFERSON ST, WARWICK, RI, 02888",159145020,"R"
261211,"177 JENNY STREET","PHILIPPI","WV",26416,39.1491737420001,-80.058149186,211,"177 JENNY STREET, PHILIPPI, WV, 26416","Match","Exact","177 JENNY ST, PHILIPPI, WV, 26416",53182156,"L"
261212,"177 JESSI OURS RD","SCHERR","WV",26726,NA,NA,212,"177 JESSI OURS RD, SCHERR, WV, 26726","No_Match",NA,NA,NA,NA
261213,"177 JOE MAC DR","STONEWALL","LA",71078,NA,NA,213,"177 JOE MAC DR, STONEWALL, LA, 71078","No_Match",NA,NA,NA,NA
261214,"177 JOHNATHAN LANE","BRYSON CITY","NC",28713,35.4644411370001,-83.406302193,214,"177 JOHNATHAN LANE, BRYSON CITY, NC, 28713","Match","Exact","177 JOHNATHAN LN, BRYSON CITY, NC, 28713",36129039,"L"
261215,"177 JUNIPER AVE","WESTERVILLE","OH",43081,40.1305945180001,-82.915038252,215,"177 JUNIPER AVE, WESTERVILLE, OH, 43081","Match","Exact","177 JUNIPER AVE, WESTERVILLE, OH, 43081",135624771,"L"
261216,"177 JUNIPER AVENUE","WESTERVILLE","OH",43081,40.1305945180001,-82.915038252,216,"177 JUNIPER AVENUE, WESTERVILLE, OH, 43081","Match","Exact","177 JUNIPER AVE, WESTERVILLE, OH, 43081",135624771,"L"
261217,"177 KING ST - RM 1002","SAN FRANCISCO","CA",94107,37.7786815310001,-122.390856933,217,"177 KING ST - RM 1002, SAN FRANCISCO, CA, 94107","Match","Exact","177 KING ST, SAN FRANCISCO, CA, 94107",192301759,"L"
261218,"177 KINGSWOOD","ELLENWOOD","GA",30294,NA,NA,218,"177 KINGSWOOD, ELLENWOOD, GA, 30294","Tie",NA,NA,NA,NA
261219,"177 KIRKLAND SR","STOW","MA",1775,42.458031996,-71.539628992,219,"177 KIRKLAND SR, STOW, MA, 1775","Match","Non_Exact","177 KIRKLAND DR, STOW, MA, 01775",86900586,"L"
261220,"177 KNOTTING PLACE","MADISON","AL",35756,34.7330824260001,-86.772280128,220,"177 KNOTTING PLACE, MADISON, AL, 35756","Match","Non_Exact","177 KNOTTING PL, MADISON, AL, 35758",236745808,"L"
261221,"177 LAFAYETTE ST","WINONA","MN",55987,44.0514808300001,-91.635446847,221,"177 LAFAYETTE ST, WINONA, MN, 55987","Match","Exact","177 LAFAYETTE ST, WINONA, MN, 55987",636506052,"L"
261222,"177 LAKE AVENUE","SARATOGA SPRINGS","NY",12866,43.083694215,-73.774193157,222,"177 LAKE AVENUE, SARATOGA SPRINGS, NY, 12866","Match","Exact","177 LAKE AVE, SARATOGA SPGS, NY, 12866",18765305,"L"
261223,"177 LAKE VALLEY DRIVE","DANVILLE","GA",31017,32.6023515100001,-83.3311727129999,223,"177 LAKE VALLEY DRIVE, DANVILLE, GA, 31017","Match","Non_Exact","177 LAKE VALLEY RD, DANVILLE, GA, 31017",612360639,"R"
261224,"177 LARISSA LANE","VALLEJO","CA",94590,38.0831736270001,-122.241426309,224,"177 LARISSA LANE, VALLEJO, CA, 94590","Match","Exact","177 LARISSA LN, VALLEJO, CA, 94590",192529411,"L"
261225,"177 LEE DRIVE","FRIES","VA",24330,36.7127524140001,-80.971187415,225,"177 LEE DRIVE, FRIES, VA, 24330","Match","Exact","177 LEE DR, FRIES, VA, 24330",153849342,"R"
261226,"177 LEFFERTS PLACE","BROOKLYN","NY",11238,40.680638797,-73.957599318,226,"177 LEFFERTS PLACE, BROOKLYN, NY, 11238","Match","Exact","177 LEFFERTS PL, BROOKLYN, NY, 11238",59078086,"L"
261227,"177 LEMAI ST","MANGILAO","GU",96913,13.4959575120001,144.846206484,227,"177 LEMAI ST, MANGILAO, GU, 96913","Match","Exact","177 LEMAI ST, MANGILAO, GU, 96913",641565655,"L"
261228,"177 LEONARD WOOD","NORTH HIGHLAND PARK","IL",60035,42.220132247,-87.813276356,228,"177 LEONARD WOOD, NORTH HIGHLAND PARK, IL, 60035","Match","Non_Exact","177 LEONARD WOOD N, HIGHLAND PARK, IL, 60035",119751534,"L"
261229,"177 LIVELY STREET","FAYETTEVILLE","WV",25840,38.052373349,-81.1092812209999,229,"177 LIVELY STREET, FAYETTEVILLE, WV, 25840","Match","Exact","177 LIVELY ST, FAYETTEVILLE, WV, 25840",75071294,"L"
261230,"177 LONGBOAT RD","MOORESVILLE","NC",28117,35.5813153730001,-80.891983309,230,"177 LONGBOAT RD, MOORESVILLE, NC, 28117","Match","Exact","177 LONGBOAT RD, MOORESVILLE, NC, 28117",649732236,"L"
261231,"177 LYNNWOOD DRIVE","LONGMEADOW","MA",1106,42.0524719920001,-72.569142069,231,"177 LYNNWOOD DRIVE, LONGMEADOW, MA, 1106","Match","Exact","177 LYNNWOOD DR, LONGMEADOW, MA, 01106",4038653,"L"
261232,"177 M STREET","SOUTH BOSTON","MA",2127,42.3317926070001,-71.033249494,232,"177 M STREET, SOUTH BOSTON, MA, 2127","Match","Exact","177 M ST, SOUTH BOSTON, MA, 02127",85726347,"R"
261233,"177 MABON DRIVE","INDIANA","PA",15701,40.667014206,-79.1167067769999,233,"177 MABON DRIVE, INDIANA, PA, 15701","Match","Exact","177 MABON DR, INDIANA, PA, 15701",66323596,"L"
261234,"177 MADISON 7149","HINDSVILLE","AR",72738,36.142083214,-93.8962331879999,234,"177 MADISON 7149, HINDSVILLE, AR, 72738","Match","Exact","177 MADISON 7149, HINDSVILLE, AR, 72738",634046492,"L"
261235,"177 MAIN STREET - 2ND FLOOR","BRADFORD","PA",16701,41.955997933,-78.6443762229999,235,"177 MAIN STREET - 2ND FLOOR, BRADFORD, PA, 16701","Match","Exact","177 MAIN ST, BRADFORD, PA, 16701",122645503,"L"
261236,"177 MAIN STREET - 2ND FLOOR","BRAFFORD","PA",16701,41.955997933,-78.6443762229999,236,"177 MAIN STREET - 2ND FLOOR, BRAFFORD, PA, 16701","Match","Non_Exact","177 MAIN ST, BRADFORD, PA, 16701",122645503,"L"
261237,"177 MAIN STREET","FRANCESTOWN","NH",3043,42.9915618430001,-71.8170181469999,237,"177 MAIN STREET, FRANCESTOWN, NH, 3043","Match","Exact","177 MAIN ST, FRANCESTOWN, NH, 03043",113579864,"L"
261238,"177 MAJORCA CIRCLE","SACRAMENTO","CA",95823,38.463423081,-121.44007198,238,"177 MAJORCA CIRCLE, SACRAMENTO, CA, 95823","Match","Exact","177 MAJORCA CIR, SACRAMENTO, CA, 95823",133403455,"L"
261239,"177 MAJORCA CIRCLE","SACRMENTO","CA",95823,38.463423081,-121.44007198,239,"177 MAJORCA CIRCLE, SACRMENTO, CA, 95823","Match","Non_Exact","177 MAJORCA CIR, SACRAMENTO, CA, 95823",133403455,"L"
261240,"177 MARCONE BOX 434","DE QUEEN","AR",71832,34.0501205140001,-94.340002929,240,"177 MARCONE BOX 434, DE QUEEN, AR, 71832","Match","Non_Exact","177 MARCONE DR, DE QUEEN, AR, 71832",84836847,"R"
261241,"177 MCKINNEY RD","HARRIMAN","TN",37748,35.928266308,-84.538790153,241,"177 MCKINNEY RD, HARRIMAN, TN, 37748","Match","Exact","177 MCKINNEY RD, HARRIMAN, TN, 37748",88607766,"L"
261242,"177 MCNUTTS CREEK PLACE","ATHENS","GA",30606,33.9236830080001,-83.438285234,242,"177 MCNUTTS CREEK PLACE, ATHENS, GA, 30606","Match","Exact","177 MCNUTTS CREEK PL, ATHENS, GA, 30606",635607928,"L"
261243,"177 MEANY ROAD","WRIGHTSTOWN","NJ",8562,40.066340595,-74.561009347,243,"177 MEANY ROAD, WRIGHTSTOWN, NJ, 8562","Match","Exact","177 MEANY RD, WRIGHTSTOWN, NJ, 08562",134042851,"R"
261244,"177 MELBOURNE DRIVE","WILLOW PARK","TX",76087,32.7426911150001,-97.6452286749999,244,"177 MELBOURNE DRIVE, WILLOW PARK, TX, 76087","Match","Exact","177 MELBOURNE DR, WILLOW PARK, TX, 76087",653210957,"L"
261245,"177 MERRY MOUNT STREET","STATEN ISLAND","NY",10314,40.5895109730001,-74.159825192,245,"177 MERRY MOUNT STREET, STATEN ISLAND, NY, 10314","Match","Non_Exact","177 MERRYMOUNT ST, STATEN ISLAND, NY, 10314",59872304,"L"
261246,"177 MIDDLE ROAD","HAMMONTON","NJ",8037,39.652545161,-74.78187106,246,"177 MIDDLE ROAD, HAMMONTON, NJ, 8037","Match","Exact","177 MIDDLE RD, HAMMONTON, NJ, 08037",653294680,"R"
261247,"177 MILL STREET","RANDOLPH","MA",2368,42.162609591,-71.031660727,247,"177 MILL STREET, RANDOLPH, MA, 2368","Match","Exact","177 MILL ST, RANDOLPH, MA, 02368",87282784,"R"
261248,"177 MONUMENT DR","MONTROSS","VA",22520,38.1676514710001,-76.7833049509999,248,"177 MONUMENT DR, MONTROSS, VA, 22520","Match","Exact","177 MONUMENT DR, MONTROSS, VA, 22520",636667186,"R"
261249,"177 MOUNTAIN RD","CAPE NEDDICK","ME",3902,43.205333764,-70.646738829,249,"177 MOUNTAIN RD, CAPE NEDDICK, ME, 3902","Match","Exact","177 MOUNTAIN RD, CAPE NEDDICK, ME, 03902",92747212,"R"
261250,"177 MOURY AVE SW 2103APT","ALTANTA","GA",30315,33.7139834870001,-84.391064671,250,"177 MOURY AVE SW 2103APT, ALTANTA, GA, 30315","Match","Non_Exact","177 MOURY AVE SW, ATLANTA, GA, 30315",643285338,"L"
261251,"177 MOURY AVENUE APT 2109","ATLANTA","GA",30315,NA,NA,251,"177 MOURY AVENUE APT 2109, ATLANTA, GA, 30315","Tie",NA,NA,NA,NA
261252,"177 N CHURCH AVE 703","TUCSON","AZ",85701,NA,NA,252,"177 N CHURCH AVE 703, TUCSON, AZ, 85701","Tie",NA,NA,NA,NA
261253,"177 N HUDSON APT 511","PASADENA","CA",91101,NA,NA,253,"177 N HUDSON APT 511, PASADENA, CA, 91101","No_Match",NA,NA,NA,NA
261254,"177 N MAIN ST","MONTICELLO","KY",42633,36.8266309910001,-84.852106812,254,"177 N MAIN ST, MONTICELLO, KY, 42633","Match","Non_Exact","177 S MAIN ST, MONTICELLO, KY, 42633",627397781,"R"
261255,"177 N US HWY SUITE 260","TEQUESTA","FL",33469,NA,NA,255,"177 N US HWY SUITE 260, TEQUESTA, FL, 33469","No_Match",NA,NA,NA,NA
261256,"177 NAGLE AVE APT 12B","NEW YORK","NY",10034,40.8616462040001,-73.924587249,256,"177 NAGLE AVE APT 12B, NEW YORK, NY, 10034","Match","Exact","177 NAGLE AVE, NEW YORK, NY, 10034",610068337,"R"
261257,"177 NAGLE AVE APT 3J","NEW YORK","NY",10034,40.8616462040001,-73.924587249,257,"177 NAGLE AVE APT 3J, NEW YORK, NY, 10034","Match","Exact","177 NAGLE AVE, NEW YORK, NY, 10034",610068337,"R"
261258,"177 NAGLE AVENUE APT 3J","NEW YORK","NY",10034,40.8616462040001,-73.924587249,258,"177 NAGLE AVENUE APT 3J, NEW YORK, NY, 10034","Match","Exact","177 NAGLE AVE, NEW YORK, NY, 10034",610068337,"R"
261259,"177 NE 219TH ST","BATTLE GROUND","WA",98604,NA,NA,259,"177 NE 219TH ST, BATTLE GROUND, WA, 98604","No_Match",NA,NA,NA,NA
261260,"177 NE MAPLEWOOD CT","BELFAIR","WA",98528,47.451142933,-122.841727148,260,"177 NE MAPLEWOOD CT, BELFAIR, WA, 98528","Match","Exact","177 NE MAPLEWOOD CT, BELFAIR, WA, 98528",180862176,"L"
261261,"177 NOBILITY LN","MCDONOUGH","GA",30252,33.45472311,-83.9903176019999,261,"177 NOBILITY LN, MCDONOUGH, GA, 30252","Match","Exact","177 NOBILITY LN, MCDONOUGH, GA, 30252",619914340,"L"
261262,"177 NORMAN ROAD","NEWARK","NJ",7106,40.734507697,-74.243613892,262,"177 NORMAN ROAD, NEWARK, NJ, 7106","Match","Exact","177 NORMAN RD, NEWARK, NJ, 07106",63463490,"R"
261263,"177 NORTH MAIN STE 276","TOOELE","UT",84074,40.5337273750001,-112.298472012,263,"177 NORTH MAIN STE 276, TOOELE, UT, 84074","Match","Non_Exact","177 N MAIN ST, TOOELE, UT, 84074",155390082,"L"
261264,"177 NORTH ROAD","MILTON","NY",12547,41.662735866,-73.955931033,264,"177 NORTH ROAD, MILTON, NY, 12547","Match","Exact","177 NORTH RD, MILTON, NY, 12547",41881280,"L"
261265,"177 NORTH STREET","DALEVILLE","AL",36322,NA,NA,265,"177 NORTH STREET, DALEVILLE, AL, 36322","No_Match",NA,NA,NA,NA
261266,"177 OLD SHACKLE ISLAND RD","HENDERSONVILLE","TN",37075,36.3114938900001,-86.619450096,266,"177 OLD SHACKLE ISLAND RD, HENDERSONVILLE, TN, 37075","Match","Exact","177 OLD SHACKLE ISLAND RD, HENDERSONVILLE, TN, 37075",615210046,"L"
261267,"177 ORR ROAD","JERICHO","VT",5465,NA,NA,267,"177 ORR ROAD, JERICHO, VT, 5465","No_Match",NA,NA,NA,NA
261268,"177 OUTER LINCOLN AVE","NEWBURGH","IN",47630,NA,NA,268,"177 OUTER LINCOLN AVE, NEWBURGH, IN, 47630","No_Match",NA,NA,NA,NA
261269,"177 OXBOW DR","STRASBURG","VA",22657,39.001596664,-78.339817061,269,"177 OXBOW DR, STRASBURG, VA, 22657","Match","Exact","177 OXBOW DR, STRASBURG, VA, 22657",625257021,"L"
261270,"177 PARK AVE SUITE 200","SAN JOSE","CA",95113,NA,NA,270,"177 PARK AVE SUITE 200, SAN JOSE, CA, 95113","No_Match",NA,NA,NA,NA
261271,"177 PARK AVENUE SUITE 200","SAN JOSE","CA",95113,NA,NA,271,"177 PARK AVENUE SUITE 200, SAN JOSE, CA, 95113","No_Match",NA,NA,NA,NA
261272,"177 PARK PLACE 1ST FLOOR","IRVINGTON","NJ",7111,40.720278395,-74.2398599589999,272,"177 PARK PLACE 1ST FLOOR, IRVINGTON, NJ, 7111","Match","Exact","177 PARK PL, IRVINGTON, NJ, 07111",63464609,"R"
261273,"177 PASO ROBLES DR","SAN LUIS OBISPO","CA",93405,35.2948841460001,-120.648023745,273,"177 PASO ROBLES DR, SAN LUIS OBISPO, CA, 93405","Match","Exact","177 PASO ROBLES DR, SAN LUIS OBISPO, CA, 93405",109733747,"R"
261274,"177 PATTON ROAD","JASPER","AL",35503,33.926264018,-87.2399585109999,274,"177 PATTON ROAD, JASPER, AL, 35503","Match","Exact","177 PATTON RD, JASPER, AL, 35503",120543197,"L"
261275,"177 PAYNE LANE","JONESBOROUGH","TN",37659,36.339288138,-82.515528036,275,"177 PAYNE LANE, JONESBOROUGH, TN, 37659","Match","Exact","177 PAYNE LN, JONESBOROUGH, TN, 37659",127945696,"R"
261276,"177 PEBBLE BEACH DR","GEORGETOWN","KY",40324,38.24765402,-84.5753518129999,276,"177 PEBBLE BEACH DR, GEORGETOWN, KY, 40324","Match","Exact","177 PEBBLE BEACH DR, GEORGETOWN, KY, 40324",41232718,"R"
261277,"177 PEPPER LANE","ELM MOTT","TX",76640,31.6721045630001,-97.103227884,277,"177 PEPPER LANE, ELM MOTT, TX, 76640","Match","Exact","177 PEPPER LN, ELM MOTT, TX, 76640",146762615,"L"
261278,"177 PINE STREET","GARDEN CITY","NY",11530,40.723434588,-73.6116233669999,278,"177 PINE STREET, GARDEN CITY, NY, 11530","Match","Exact","177 PINE ST, GARDEN CITY, NY, 11530",147627454,"L"
261279,"177 PRESTON LANE","CLAYTON","DE",19938,39.2835473490001,-75.6337757489999,279,"177 PRESTON LANE, CLAYTON, DE, 19938","Match","Exact","177 PRESTON LN, CLAYTON, DE, 19938",68108453,"L"
261280,"177 PROMINENCE CIRCLE","WINCHESTER","VA",22603,39.20243837,-78.214993544,280,"177 PROMINENCE CIRCLE, WINCHESTER, VA, 22603","Match","Exact","177 PROMINENCE CIR, WINCHESTER, VA, 22603",651767215,"L"
261281,"177 PRUITT LANE","PEARL","MS",39208,32.2819496610001,-90.096600334,281,"177 PRUITT LANE, PEARL, MS, 39208","Match","Exact","177 PRUITT LN, PEARL, MS, 39208",116918258,"L"
261282,"177 RACHEL STR APT 1","MELBOURNE","FL",32901,28.0572571650001,-80.6219501959999,282,"177 RACHEL STR APT 1, MELBOURNE, FL, 32901","Match","Exact","177 RACHEL ST, MELBOURNE, FL, 32901",601706595,"L"
261283,"177 RAINBOW DRIVE 7777","LIVINGSTON","TX",77933,NA,NA,283,"177 RAINBOW DRIVE 7777, LIVINGSTON, TX, 77933","No_Match",NA,NA,NA,NA
261284,"177 RALEIGH STREET","ROCHESTER","MD",14620,NA,NA,284,"177 RALEIGH STREET, ROCHESTER, MD, 14620","No_Match",NA,NA,NA,NA
261285,"177 REBECCA PARK","BUFFALO","NY",14207,42.954080016,-78.885583359,285,"177 REBECCA PARK, BUFFALO, NY, 14207","Match","Exact","177 REBECCA PARK, BUFFALO, NY, 14207",48323276,"R"
261286,"177 RESERVOIR RD","PLYMOUTH","NH",3264,43.758946,-71.719380074,286,"177 RESERVOIR RD, PLYMOUTH, NH, 3264","Match","Exact","177 RESERVOIR RD, PLYMOUTH, NH, 03264",647325806,"R"
261287,"177 RETFORD AVE","STATEN ISLAND","NY",10312,40.5379589020001,-74.161522787,287,"177 RETFORD AVE, STATEN ISLAND, NY, 10312","Match","Exact","177 RETFORD AVE, STATEN ISLAND, NY, 10312",59875488,"L"
261288,"177 REX MILLSAPS ROAD","LYNCHBURG","TN",37352,35.2230276240001,-86.323039826,288,"177 REX MILLSAPS ROAD, LYNCHBURG, TN, 37352","Match","Exact","177 REX MILLSAPS RD, LYNCHBURG, TN, 37352",58472030,"L"
261289,"177 RIDGEDALE LANE","FRONT ROYAL","VA",22630,38.8583710140001,-78.225128952,289,"177 RIDGEDALE LANE, FRONT ROYAL, VA, 22630","Match","Exact","177 RIDGEDALE LN, FRONT ROYAL, VA, 22630",159082009,"L"
261290,"177 RIVERBROOKE DRIVE","SHREVEPORT","LA",71115,32.413488801,-93.6897068919999,290,"177 RIVERBROOKE DRIVE, SHREVEPORT, LA, 71115","Match","Exact","177 RIVERBROOKE DR, SHREVEPORT, LA, 71115",624470045,"L"
261291,"177 RIVERDELL S MEWS","LANCASTER","TX",75146,32.587612676,-96.790991376,291,"177 RIVERDELL S MEWS, LANCASTER, TX, 75146","Match","Exact","177 RIVERDELL SOUTH MEWS, LANCASTER, TX, 75146",618776572,"R"
261292,"177 RIVERWOOD DRIVE","FRANKLIN","TN",37069,35.9699310290001,-86.9128445329999,292,"177 RIVERWOOD DRIVE, FRANKLIN, TN, 37069","Match","Exact","177 RIVERWOOD DR, FRANKLIN, TN, 37069",73116254,"L"
261293,"177 ROBINHOOD CIR","HENDERSONVILLE","TN",37075,36.2681285740001,-86.6234289879999,293,"177 ROBINHOOD CIR, HENDERSONVILLE, TN, 37075","Match","Exact","177 ROBINHOOD CIR, HENDERSONVILLE, TN, 37075",636669637,"R"
261294,"177 ROSE HILL DRIVE","ATHENS","GA",30601,34.045886147,-83.365105192,294,"177 ROSE HILL DRIVE, ATHENS, GA, 30601","Match","Exact","177 ROSE HILL DR, ATHENS, GA, 30601",617947738,"R"
261295,"177 S KENT PLACE","EAST WENATCHEE","WA",98802,47.402817273,-120.261111175,295,"177 S KENT PLACE, EAST WENATCHEE, WA, 98802","Match","Exact","177 S KENT PL, EAST WENATCHEE, WA, 98802",156907698,"L"
261296,"177 S OLD LITCHFIELD ROAD","LITCHFIELD PARK","AZ",85340,33.4906021360001,-112.358089524,296,"177 S OLD LITCHFIELD ROAD, LITCHFIELD PARK, AZ, 85340","Match","Exact","177 S OLD LITCHFIELD RD, LITCHFIELD PARK, AZ, 85340",128167311,"L"
261297,"177 S PADDOCK ST","PONTIAC","MI",48342,42.6328043890001,-83.2822163929999,297,"177 S PADDOCK ST, PONTIAC, MI, 48342","Match","Exact","177 S PADDOCK ST, PONTIAC, MI, 48342",69705937,"L"
261298,"177 S SHADOWBAY BLVD","LONGWOOD","FL",32779,28.6933982100001,-81.414046282,298,"177 S SHADOWBAY BLVD, LONGWOOD, FL, 32779","Match","Exact","177 S SHADOWBAY BLVD, LONGWOOD, FL, 32779",93735235,"L"
261299,"177 SAN SOUCI STREET","CHARLESTON","SC",29403,32.810521367,-79.959153848,299,"177 SAN SOUCI STREET, CHARLESTON, SC, 29403","Match","Exact","177 SAN SOUCI ST, CHARLESTON, SC, 29403",108805803,"L"
261300,"177 SANDRA DRIVE","TOTOWA","NJ",7512,40.905156607,-74.237928212,300,"177 SANDRA DRIVE, TOTOWA, NJ, 7512","Match","Exact","177 SANDRA DR, TOTOWA, NJ, 07512",65280681,"L"
261301,"177 SANDS STREET 5A","BROOKLYN","NY",11201,40.699800666,-73.9835824849999,301,"177 SANDS STREET 5A, BROOKLYN, NY, 11201","Match","Exact","177 SANDS ST, BROOKLYN, NY, 11201",623911506,"L"
261302,"177 SANDS STREET","BROOKLYN","NY",11201,40.699800666,-73.9835824849999,302,"177 SANDS STREET, BROOKLYN, NY, 11201","Match","Exact","177 SANDS ST, BROOKLYN, NY, 11201",623911506,"L"
261303,"177 SAUNDERSDALE ROAD","CHARLTON","MA",1507,42.0813288040001,-71.99130679,303,"177 SAUNDERSDALE ROAD, CHARLTON, MA, 1507","Match","Exact","177 SAUNDERSDALE RD, CHARLTON, MA, 01507",40088300,"R"
261304,"177 Shady Grove Lane","WESTLAKE VILLAGE","CA",91361,34.1728957300001,-118.874526616,304,"177 Shady Grove Lane, WESTLAKE VILLAGE, CA, 91361","Match","Exact","177 SHADY GROVE LN, WESTLAKE VILLAGE, CA, 91361",109976722,"R"
261305,"177 SHADY LN","SOLDOTNA","AK",99669,60.488955595,-151.066942292,305,"177 SHADY LN, SOLDOTNA, AK, 99669","Match","Exact","177 SHADY LN, SOLDOTNA, AK, 99669",639859510,"R"
261306,"177 SHANNON RIDGE","FLORESVILLE","TX",78114,29.1993912460001,-98.205401165,306,"177 SHANNON RIDGE, FLORESVILLE, TX, 78114","Match","Exact","177 SHANNON RIDGE, FLORESVILLE, TX, 78114",54878703,"L"
261307,"177 SHERMAN ST","CAMBRIDGE","MA",2140,42.3917047030001,-71.132781243,307,"177 SHERMAN ST, CAMBRIDGE, MA, 2140","Match","Exact","177 SHERMAN ST, CAMBRIDGE, MA, 02140",86892178,"L"
261308,"177 SILVER GLEN AVENUE","ST AUGUSTINE","FL",32092,29.965483455,-81.5260732369999,308,"177 SILVER GLEN AVENUE, ST AUGUSTINE, FL, 32092","Match","Exact","177 SILVER GLEN AVE, SAINT AUGUSTINE, FL, 32092",637786193,"R"
261309,"177 SLADE COURT","PROVIDENCE","NC",27315,36.4800049580001,-79.3778101999999,309,"177 SLADE COURT, PROVIDENCE, NC, 27315","Match","Exact","177 SLADE CT, PROVIDENCE, NC, 27315",636011359,"L"
261310,"177 SLAUGHETR","CAMPHILL","AL",36850,NA,NA,310,"177 SLAUGHETR, CAMPHILL, AL, 36850","No_Match",NA,NA,NA,NA
261311,"177 SLAUGHTER AVENUE","CAMPHILL","AL",36850,NA,NA,311,"177 SLAUGHTER AVENUE, CAMPHILL, AL, 36850","No_Match",NA,NA,NA,NA
261312,"177 SLAUGHTER","CAMPHILL","AL",36850,NA,NA,312,"177 SLAUGHTER, CAMPHILL, AL, 36850","No_Match",NA,NA,NA,NA
261313,"177 SMALLMOUTH LN","WILMINGTON","IL",60481,41.2888556670001,-88.196826919,313,"177 SMALLMOUTH LN, WILMINGTON, IL, 60481","Match","Exact","177 SMALLMOUTH LN, WILMINGTON, IL, 60481",111616653,"R"
261314,"177 SMOKE RISE RD","BASKING RIDGE","NJ",7920,40.659339964,-74.6247239529999,314,"177 SMOKE RISE RD, BASKING RIDGE, NJ, 7920","Match","Exact","177 SMOKE RISE RD, BASKING RIDGE, NJ, 07920",59958047,"L"
261315,"177 SOUTH MAIN STREET","CRESTON","OH",44217,40.979893691,-81.898285369,315,"177 SOUTH MAIN STREET, CRESTON, OH, 44217","Match","Exact","177 S MAIN ST, CRESTON, OH, 44217",58718455,"R"
261316,"177 SOUTH PADDOCK","PONTIAC","MI",48342,42.632820587,-83.282217224,316,"177 SOUTH PADDOCK, PONTIAC, MI, 48342","Match","Non_Exact","177 S PADDOCK ST, PONTIAC, MI, 48342",69705937,"L"
261317,"177 SOUTH ST","RIALTO","CA",92376,NA,NA,317,"177 SOUTH ST, RIALTO, CA, 92376","Tie",NA,NA,NA,NA
261318,"177 SOUTH TAYLOR LANE","GEORGETOWN","KY",40324,38.2101011340001,-84.438390197,318,"177 SOUTH TAYLOR LANE, GEORGETOWN, KY, 40324","Match","Exact","177 S TAYLOR LN, GEORGETOWN, KY, 40324",41241806,"L"
261319,"177 SOUTH UNION ROAD","MIAMISBURG","OH",45342,39.6421513170001,-84.308929875,319,"177 SOUTH UNION ROAD, MIAMISBURG, OH, 45342","Match","Exact","177 S UNION RD, MIAMISBURG, OH, 45342",143577005,"R"
261320,"177 SOUTHAMPTON","KISSIMMEE","FL",34744,28.293055856,-81.336429492,320,"177 SOUTHAMPTON, KISSIMMEE, FL, 34744","Match","Non_Exact","177 SOUTHAMPTON DR, KISSIMMEE, FL, 34744",176687848,"R"
261321,"177 SPRINGVILLE RD","HAMPTON BAYS","NY",11946,40.8596411660001,-72.525364243,321,"177 SPRINGVILLE RD, HAMPTON BAYS, NY, 11946","Match","Exact","177 SPRINGVILLE RD, HAMPTON BAYS, NY, 11946",114027158,"L"
261322,"177 STAGECOACH ROAD","ALBERTVILLE","AL",35951,34.3479258670001,-86.208826511,322,"177 STAGECOACH ROAD, ALBERTVILLE, AL, 35951","Match","Non_Exact","177 STAGE COACH RD, ALBERTVILLE, AL, 35951",99230027,"L"
261323,"177 STAGETRAIL ROAD","CAMARILLO","CA",93010,34.2204458620001,-119.075316946,323,"177 STAGETRAIL ROAD, CAMARILLO, CA, 93010","Match","Non_Exact","177 STAGE TRAIL RD, CAMARILLO, CA, 93010",645670964,"L"
261324,"177 STAHLS WAY","NORTH PLAINFIELD","NJ",7060,40.618744394,-74.4462536999999,324,"177 STAHLS WAY, NORTH PLAINFIELD, NJ, 7060","Match","Exact","177 STAHLS WAY, N PLAINFIELD, NJ, 07060",59941229,"L"
261325,"177 STAPLETON WAY","GEORGETOWN","KY",40324,38.198996821,-84.583750848,325,"177 STAPLETON WAY, GEORGETOWN, KY, 40324","Match","Exact","177 STAPLETON WAY, GEORGETOWN, KY, 40324",642385459,"L"
261326,"177 STEAM PLANT RD","NATCHEZ","MS",39120,31.600358054,-91.340282723,326,"177 STEAM PLANT RD, NATCHEZ, MS, 39120","Match","Exact","177 STEAM PLANT RD, NATCHEZ, MS, 39120",646725857,"L"
261327,"177 STEWART DRIVE","TIBURON","CA",94920,37.8968614790001,-122.483492914,327,"177 STEWART DRIVE, TIBURON, CA, 94920","Match","Exact","177 STEWART DR, TIBURON, CA, 94920",192769074,"L"
261328,"177 STIRLING DRIVE NORTH","ORANGE","NJ",7050,40.753162081,-74.239784801,328,"177 STIRLING DRIVE NORTH, ORANGE, NJ, 7050","Match","Exact","177 STIRLING DR N, ORANGE, NJ, 07050",637462005,"R"
261329,"177 STONE OAKS DR","HARTSDALE","NY",10530,41.0310649990001,-73.804604286,329,"177 STONE OAKS DR, HARTSDALE, NY, 10530","Match","Exact","177 STONE OAKS DR, HARTSDALE, NY, 10530",139738157,"R"
261330,"177 SUNBROOK DR","CHAMBERSBURG","PA",17201,39.93879006,-77.6418197689999,330,"177 SUNBROOK DR, CHAMBERSBURG, PA, 17201","Match","Exact","177 SUNBROOK DR, CHAMBERSBURG, PA, 17201",625293164,"L"
261331,"177 SUNCREST DRIVE","VERONA","PA",15147,40.471530022,-79.865017456,331,"177 SUNCREST DRIVE, VERONA, PA, 15147","Match","Exact","177 SUNCREST DR, VERONA, PA, 15147",51702374,"R"
261332,"177 SUNRISE CIRCLE","RIVERDALE","GA",30274,33.570888247,-84.384930071,332,"177 SUNRISE CIRCLE, RIVERDALE, GA, 30274","Match","Exact","177 SUNRISE CIR, RIVERDALE, GA, 30274",23318870,"R"
261333,"177 TALON PLACE","MCDONOUGH","GA",30253,33.521792212,-84.187509338,333,"177 TALON PLACE, MCDONOUGH, GA, 30253","Match","Exact","177 TALON PL, MCDONOUGH, GA, 30253",23207980,"L"
261334,"177 TAYLOR ST APT 8","BROOKLYN","NY",11211,40.7065663830001,-73.9620560929999,334,"177 TAYLOR ST APT 8, BROOKLYN, NY, 11211","Match","Exact","177 TAYLOR ST, BROOKLYN, NY, 11211",59076166,"L"
261335,"177 TCHEFUNCTE DRIVE","COVINGTON","LA",70433,30.4102591280001,-90.098507152,335,"177 TCHEFUNCTE DRIVE, COVINGTON, LA, 70433","Match","Exact","177 TCHEFUNCTE DR, COVINGTON, LA, 70433",111307228,"L"
261336,"177 TELLES LANE","FREMONT","CA",94539,37.536493896,-121.920547434,336,"177 TELLES LANE, FREMONT, CA, 94539","Match","Exact","177 TELLES LN, FREMONT, CA, 94539",125033890,"R"
261337,"177 THE VALE","SYOSSET","NY",11791,40.8188347760001,-73.491074318,337,"177 THE VALE, SYOSSET, NY, 11791","Match","Exact","177 THE VALE, SYOSSET, NY, 11791",147640462,"L"
261338,"177 TOMOCHICHI ROAD","GRIFFIN","GA",30223,33.248014805,-84.171251992,338,"177 TOMOCHICHI ROAD, GRIFFIN, GA, 30223","Match","Exact","177 TOMOCHICHI RD, GRIFFIN, GA, 30223",23762632,"L"
261339,"177 TORTUNA","BALLWIN","MO",63021,38.573167488,-90.53653531,339,"177 TORTUNA, BALLWIN, MO, 63021","Match","Non_Exact","177 TORTUNA DR, BALLWIN, MO, 63021",100173611,"L"
261340,"177 TRAVIS RD","SHEPHERDSVILLE","KY",40165,38.048700954,-85.620486923,340,"177 TRAVIS RD, SHEPHERDSVILLE, KY, 40165","Match","Exact","177 TRAVIS RD, SHEPHERDSVILLE, KY, 40165",47744008,"L"
261341,"177 TUSCANY CT","MORTON","IL",61550,40.5893657300001,-89.471227375,341,"177 TUSCANY CT, MORTON, IL, 61550","Match","Exact","177 TUSCANY CT, MORTON, IL, 61550",613726271,"L"
261342,"177 VALLEY VIEW WAY","SOUTH SAN FRANCISCO","CA",94080,37.6371846650001,-122.443832873,342,"177 VALLEY VIEW WAY, SOUTH SAN FRANCISCO, CA, 94080","Match","Non_Exact","177 VALLEYVIEW WAY, S SAN FRAN, CA, 94080",192372117,"R"
261343,"177 VILLAGE RD","LEWISBURG","WV",24901,37.8161974710001,-80.4304496829999,343,"177 VILLAGE RD, LEWISBURG, WV, 24901","Match","Non_Exact","177 VILLAGE DR, LEWISBURG, WV, 24901",648498454,"L"
261344,"177 VILLANOVA DRIVE","PARAMUS","NJ",7652,40.955574289,-74.0844983919999,344,"177 VILLANOVA DRIVE, PARAMUS, NJ, 7652","Match","Exact","177 VILLANOVA DR, PARAMUS, NJ, 07652",64380840,"R"
261345,"177 VON HUENFELD STREET","MASSAPEQUA PARK","NY",11762,40.685643569,-73.451788849,345,"177 VON HUENFELD STREET, MASSAPEQUA PARK, NY, 11762","Match","Exact","177 VON HUENFELD ST, MASSAPEQUA PARK, NY, 11762",147651542,"L"
261346,"177 W POCKET RD","FORENCE","SC",29506,34.2761755490001,-79.7254272069999,346,"177 W POCKET RD, FORENCE, SC, 29506","Match","Non_Exact","177 W POCKET RD, FLORENCE, SC, 29506",28863221,"R"
261347,"177 WALNUT ST","BUFFALO","NY",14204,42.887167999,-78.860503025,347,"177 WALNUT ST, BUFFALO, NY, 14204","Match","Exact","177 WALNUT ST, BUFFALO, NY, 14204",48291142,"R"
261348,"177 WASHAKIE DR","ROCK SPRINGS","WY",82901,41.645218438,-109.260037461,348,"177 WASHAKIE DR, ROCK SPRINGS, WY, 82901","Match","Exact","177 WASHAKIE DR, ROCK SPRINGS, WY, 82901",149496776,"L"
261349,"177 WASHINGTON ST","NORTHVALE","NJ",7674,NA,NA,349,"177 WASHINGTON ST, NORTHVALE, NJ, 7674","No_Match",NA,NA,NA,NA
261350,"177 WASHINGTON STREET","NORTHVALE","NJ",7674,NA,NA,350,"177 WASHINGTON STREET, NORTHVALE, NJ, 7674","No_Match",NA,NA,NA,NA
261351,"177 WATCHUNG TERRACE","SCOTCH PLAINS","NJ",7076,40.662741108,-74.392540428,351,"177 WATCHUNG TERRACE, SCOTCH PLAINS, NJ, 7076","Match","Exact","177 WATCHUNG TER, SCOTCH PLAINS, NJ, 07076",60590436,"L"
261352,"177 WELDON PKWY 1964","MARYLAND HEIGHTS","MO",63043,NA,NA,352,"177 WELDON PKWY 1964, MARYLAND HEIGHTS, MO, 63043","No_Match",NA,NA,NA,NA
261353,"177 WELLS HILL ROAD","LAKEVILLE","CT",6039,41.952518856,-73.425593536,353,"177 WELLS HILL ROAD, LAKEVILLE, CT, 6039","Match","Exact","177 WELLS HILL RD, LAKEVILLE, CT, 06039",3130218,"R"
261354,"177 WHITE PLAINS ROAD APT 79D","TARRYTOWN","NY",10591,41.064092117,-73.838722366,354,"177 WHITE PLAINS ROAD APT 79D, TARRYTOWN, NY, 10591","Match","Non_Exact","177 OLD WHITE PLAINS RD, TARRYTOWN, NY, 10591",139731386,"R"
261355,"177 WHITLEY CHURCH ROAD","PRINCETON","NC",27569,35.44506017,-78.114914793,355,"177 WHITLEY CHURCH ROAD, PRINCETON, NC, 27569","Match","Exact","177 WHITLEY CHURCH RD, PRINCETON, NC, 27569",636099862,"R"
261356,"177 WILLOWICK DRIVE","NAPLES","FL",34110,26.2815322650001,-81.760988589,356,"177 WILLOWICK DRIVE, NAPLES, FL, 34110","Match","Exact","177 WILLOWICK DR, NAPLES, FL, 34110",115137265,"L"
261357,"177 WILLOWWICK DRIVE","NAPLES","FL",34110,NA,NA,357,"177 WILLOWWICK DRIVE, NAPLES, FL, 34110","No_Match",NA,NA,NA,NA
261358,"177 WINDMILL HILL","WETHERSFIELD","CT",6109,41.695239368,-72.696035196,358,"177 WINDMILL HILL, WETHERSFIELD, CT, 6109","Match","Exact","177 WINDMILL HILL, WETHERSFIELD, CT, 06109",3529999,"R"
261359,"177 WINDSONG CIR","EAST BRUNSWICK","NJ",8816,40.4240133260001,-74.363546421,359,"177 WINDSONG CIR, EAST BRUNSWICK, NJ, 8816","Match","Exact","177 WINDSONG CIR, E BRUNSWICK, NJ, 08816",60306419,"R"
261360,"177 WINDSONG DR","EAST BRUNSWICK","NJ",8816,40.4240133260001,-74.363546421,360,"177 WINDSONG DR, EAST BRUNSWICK, NJ, 8816","Match","Non_Exact","177 WINDSONG CIR, E BRUNSWICK, NJ, 08816",60306419,"R"
261361,"177 WINDWALKER CT","BOONE","NC",28607,36.225592256,-81.665957063,361,"177 WINDWALKER CT, BOONE, NC, 28607","Match","Non_Exact","177 WIND WALKER CT, BOONE, NC, 28607",52053131,"L"
261362,"177 WINDWOOD DRIVE","MORGANTOWN","WV",26505,39.6671162270001,-79.961102147,362,"177 WINDWOOD DRIVE, MORGANTOWN, WV, 26505","Match","Exact","177 WINDWOOD DR, MORGANTOWN, WV, 26505",624844504,"L"
261363,"177 WINN RD","FALMOUTH","ME",4105,43.765159528,-70.273780799,363,"177 WINN RD, FALMOUTH, ME, 4105","Match","Exact","177 WINN RD, FALMOUTH, ME, 04105",78047497,"L"
261364,"177 WORLD OF TENNIS SQ","LAKEWAY","TX",78738,30.3510714540001,-97.997159263,364,"177 WORLD OF TENNIS SQ, LAKEWAY, TX, 78738","Match","Exact","177 WORLD OF TENNIS SQ, LAKEWAY, TX, 78738",639637659,"L"
261365,"177 YALE LANE","SEAL BEACH","CA",90740,33.779173373,-118.093077473,365,"177 YALE LANE, SEAL BEACH, CA, 90740","Match","Exact","177 YALE LN, SEAL BEACH, CA, 90740",144002559,"L"
261366,"177 YORDY ROAD","MORTON","IL",61550,40.5880975260001,-89.470517312,366,"177 YORDY ROAD, MORTON, IL, 61550","Match","Exact","177 YORDY RD, MORTON, IL, 61550",608216216,"L"
261367,"177-12 SAYRES AVENUE","JAMAICA","NY",11433,40.696710481,-73.776132603,367,"177-12 SAYRES AVENUE, JAMAICA, NY, 11433","Match","Exact","177-12 SAYRES AVE, JAMAICA, NY, 11433",59718634,"R"
261368,"177-15 TROUTVILLE RD","JAMAICA","NY",11434,40.6836071070001,-73.767120898,368,"177-15 TROUTVILLE RD, JAMAICA, NY, 11434","Match","Exact","177-15 TROUTVILLE RD, JAMAICA, NY, 11434",59718953,"L"
261369,"177-16 SOUTH CONDUIT AVE1H","JAMAICA","NY",11434,40.667043547,-73.772430946,369,"177-16 SOUTH CONDUIT AVE1H, JAMAICA, NY, 11434","Match","Non_Exact","177-16 S CONDUIT AVE, JAMAICA, NY, 11434",613556570,"R"
261370,"177-46 MEADOW ROAD 1ST FL","JAMAICA","NY",11434,40.6665058500001,-73.7697062239999,370,"177-46 MEADOW ROAD 1ST FL, JAMAICA, NY, 11434","Match","Exact","177-46 MEADOW RD, JAMAICA, NY, 11434",59740341,"R"
261371,"177-47 LESLIE ROAD","JAMAICA","NY",11434,40.682932249,-73.765592096,371,"177-47 LESLIE ROAD, JAMAICA, NY, 11434","Match","Exact","177-47 LESLIE RD, JAMAICA, NY, 11434",59719335,"L"
261372,"177-71 MEADOW ROAD","JAMAICA","NY",11434,40.666476769,-73.768896043,372,"177-71 MEADOW ROAD, JAMAICA, NY, 11434","Match","Exact","177-71 MEADOW RD, JAMAICA, NY, 11434",59737217,"R"
261373,"1770 25TH AVE","SAN FRANCISCO","CA",94122,37.7545566900001,-122.482934481,373,"1770 25TH AVE, SAN FRANCISCO, CA, 94122","Match","Exact","1770 25TH AVE, SAN FRANCISCO, CA, 94122",192278071,"L"
261374,"1770 2ND AVE APT 10304","WEST DES MOINES","IA",50266,41.610245961,-93.619828965,374,"1770 2ND AVE APT 10304, WEST DES MOINES, IA, 50266","Match","Non_Exact","1770 2ND AVE, DES MOINES, IA, 50314",65782295,"L"
261375,"1770 570TH AVE","ARMSTRONG","IA",50514,43.39008325,-94.46284148,375,"1770 570TH AVE, ARMSTRONG, IA, 50514","Match","Exact","1770 570TH AVE, ARMSTRONG, IA, 50514",9587011,"R"
261376,"1770 ALPINE DRIVE 3","VAIL","CO",81657,39.6309632370001,-106.410802467,376,"1770 ALPINE DRIVE 3, VAIL, CO, 81657","Match","Exact","1770 ALPINE DR, VAIL, CO, 81657",647248443,"R"
261377,"1770 ANDREWS DRIVE","PLEASANT HILL","IA",50327,41.608201523,-93.520706264,377,"1770 ANDREWS DRIVE, PLEASANT HILL, IA, 50327","Match","Exact","1770 ANDREWS DR, PLEASANT HILL, IA, 50327",65854572,"L"
261378,"1770 BEECHER DR","EAGAN","MN",55122,44.792974004,-93.194819222,378,"1770 BEECHER DR, EAGAN, MN, 55122","Match","Exact","1770 BEECHER DR, EAGAN, MN, 55122",37905822,"L"
261379,"1770 BIRCH DR","VENICE","FL",34293,27.069023917,-82.415799477,379,"1770 BIRCH DR, VENICE, FL, 34293","Match","Exact","1770 BIRCH DR, VENICE, FL, 34293",16362624,"R"
261380,"1770 BISING AVE UNIT 2","CINCINNATI","OH",45239,39.2207333470001,-84.553250911,380,"1770 BISING AVE UNIT 2, CINCINNATI, OH, 45239","Match","Exact","1770 BISING AVE, CINCINNATI, OH, 45239",652713709,"R"
261381,"1770 BLUEWATER LANE","WOODBURY","MN",55129,44.9245026410001,-92.880302891,381,"1770 BLUEWATER LANE, WOODBURY, MN, 55129","Match","Exact","1770 BLUEWATER LN, WOODBURY, MN, 55129",649626402,"R"
261382,"1770 BRAMBLE BUSH WAY","SUWANEE","GA",30024,34.108131832,-84.1341793239999,382,"1770 BRAMBLE BUSH WAY, SUWANEE, GA, 30024","Match","Exact","1770 BRAMBLE BUSH WAY, SUWANEE, GA, 30024",634100762,"R"
261383,"1770 BRANCH VINE DRIVE","JACKSONVILLE","FL",32246,30.3152793260001,-81.459195349,383,"1770 BRANCH VINE DRIVE, JACKSONVILLE, FL, 32246","Match","Non_Exact","1770 BRANCH VINE DR W, JACKSONVILLE, FL, 32246",83941693,"R"
261384,"1770 BRANDENBURG COURT","THE VILLAGES","FL",32163,28.8603333,-81.9960655309999,384,"1770 BRANDENBURG COURT, THE VILLAGES, FL, 32163","Match","Exact","1770 BRANDENBURG CT, THE VILLAGES, FL, 32163",641348517,"L"
261385,"1770 BRYANT AVENUE SOUTH APT 303","MINNEAPOLIS","MN",55403,44.965718005,-93.290522392,385,"1770 BRYANT AVENUE SOUTH APT 303, MINNEAPOLIS, MN, 55403","Match","Exact","1770 BRYANT AVE S, MINNEAPOLIS, MN, 55403",43624526,"R"
261386,"1770 CALIFORNIA AVENUE","RENO","NV",89509,39.512199578,-119.841068441,386,"1770 CALIFORNIA AVENUE, RENO, NV, 89509","Match","Exact","1770 CALIFORNIA AVE, RENO, NV, 89509",107044344,"L"
261387,"1770 CENTENNIAL WAY","POINT ROBERTS","WA",98281,48.9890542410001,-123.057168801,387,"1770 CENTENNIAL WAY, POINT ROBERTS, WA, 98281","Match","Non_Exact","1770 CENTENNIAL PL, POINT ROBERTS, WA, 98281",183770669,"R"
261388,"1770 COUNTY ROAD 4","RISINGSUN","OH",43457,41.2926121260001,-83.4079199459999,388,"1770 COUNTY ROAD 4, RISINGSUN, OH, 43457","Match","Exact","1770 CO RD 4, RISINGSUN, OH, 43457",38667446,"L"
261389,"1770 COUNTY ROAD 657","FARMERSVILLE","TX",75442,33.1816452400001,-96.349062056,389,"1770 COUNTY ROAD 657, FARMERSVILLE, TX, 75442","Match","Exact","1770 CO RD 657, FARMERSVILLE, TX, 75442",647644969,"R"
261390,"1770 COUNTY ROAD NN","ELKHORN","WI",53121,NA,NA,390,"1770 COUNTY ROAD NN, ELKHORN, WI, 53121","No_Match",NA,NA,NA,NA
261391,"1770 COVINGTON RIDGE","AUBURN","AL",36830,32.594369584,-85.445402023,391,"1770 COVINGTON RIDGE, AUBURN, AL, 36830","Match","Exact","1770 COVINGTON RIDGE, AUBURN, AL, 36830",1603029,"R"
261392,"1770 CRAWFORD RD","CLEVELAND","OH",44106,41.508714404,-81.627700503,392,"1770 CRAWFORD RD, CLEVELAND, OH, 44106","Match","Exact","1770 CRAWFORD RD, CLEVELAND, OH, 44106",61162573,"L"
261393,"1770 CRAWFORD ROAD","CLEVELAND","OH",44106,41.508714404,-81.627700503,393,"1770 CRAWFORD ROAD, CLEVELAND, OH, 44106","Match","Exact","1770 CRAWFORD RD, CLEVELAND, OH, 44106",61162573,"L"
261394,"1770 CUMBERLAND HEIGHTS ROAD","CLARKSVILLE","TN",37040,36.4750687820001,-87.402679416,394,"1770 CUMBERLAND HEIGHTS ROAD, CLARKSVILLE, TN, 37040","Match","Exact","1770 CUMBERLAND HEIGHTS RD, CLARKSVILLE, TN, 37040",635036615,"R"
261395,"1770 D STREET","MERCED","CA",95340,37.2976503030001,-120.470814788,395,"1770 D STREET, MERCED, CA, 95340","Match","Exact","1770 D ST, MERCED, CA, 95340",125282534,"R"
261396,"1770 E LAS OLAS BLVD - APT 302","FT LAUDERDALE","FL",33301,26.1198022630001,-80.122865543,396,"1770 E LAS OLAS BLVD - APT 302, FT LAUDERDALE, FL, 33301","Match","Non_Exact","1770 E LAS OLAS BLVD, FORT LAUDERDALE, FL, 33301",114726145,"R"
261397,"1770 E LAS OLAS BLVD APT 305","FORT LAUDERDALE","FL",33301,26.1198022630001,-80.122865543,397,"1770 E LAS OLAS BLVD APT 305, FORT LAUDERDALE, FL, 33301","Match","Non_Exact","1770 E LAS OLAS BLVD, FORT LAUDERDALE, FL, 33301",114726145,"R"
261398,"1770 E MCMILLAN ST","CINCINNATI","OH",45206,39.1255151450001,-84.472651092,398,"1770 E MCMILLAN ST, CINCINNATI, OH, 45206","Match","Exact","1770 E MCMILLAN ST, CINCINNATI, OH, 45206",103930232,"L"
261399,"1770 E STREET NE","WASHINGTON","DC",20002,38.896121178,-76.978825881,399,"1770 E STREET NE, WASHINGTON, DC, 20002","Match","Exact","1770 E ST NE, WASHINGTON, DC, 20002",76231333,"L"
261400,"1770 E STREET","NAPA","CA",94558,38.303235075,-122.301759246,400,"1770 E STREET, NAPA, CA, 94558","Match","Non_Exact","1770 E ST, NAPA, CA, 94559",67427929,"R"
261401,"1770 E VILLA DR STE 1","COTTONWOOD","AZ",86326,34.726145698,-112.005500161,401,"1770 E VILLA DR STE 1, COTTONWOOD, AZ, 86326","Match","Non_Exact","1770 E VILLA DR, COTTONWOOD, AZ, 86326",608234307,"L"
261402,"1770 EAST FORT UNION BLVD STE 101","COTTONWOOD HEIGHTS","UT",84121,40.6249107890001,-111.841679863,402,"1770 EAST FORT UNION BLVD STE 101, COTTONWOOD HEIGHTS, UT, 84121","Match","Non_Exact","1770 FORT UNION BLVD, COTTONWOOD HEIGHTS, UT, 84121",176088359,"R"
261403,"1770 EAST PALOMAR ST APT 2128","CHULA VISTA","CA",91913,32.6316883810001,-116.983504147,403,"1770 EAST PALOMAR ST APT 2128, CHULA VISTA, CA, 91913","Match","Exact","1770 E PALOMAR ST, CHULA VISTA, CA, 91913",195680118,"R"
261404,"1770 EWER DRIVE","SAN JOSE","CA",95124,37.2564898640001,-121.914250055,404,"1770 EWER DRIVE, SAN JOSE, CA, 95124","Match","Exact","1770 EWER DR, SAN JOSE, CA, 95124",122921293,"L"
261405,"1770 FRONT STREET","LYNDEN","WA",98264,48.9393390540001,-122.472884626,405,"1770 FRONT STREET, LYNDEN, WA, 98264","Match","Exact","1770 FRONT ST, LYNDEN, WA, 98264",648550293,"L"
261406,"1770 FRUITVALE ROAD","MONTAGUE","MI",49437,43.4571957220001,-86.2855716019999,406,"1770 FRUITVALE ROAD, MONTAGUE, MI, 49437","Match","Non_Exact","1770 W FRUITVALE RD, MONTAGUE, MI, 49437",77676594,"L"
261407,"1770 GARDEN LN","SAINT PAUL","MN",55110,45.0952879860001,-93.02685895,407,"1770 GARDEN LN, SAINT PAUL, MN, 55110","Match","Exact","1770 GARDEN LN, SAINT PAUL, MN, 55110",97636672,"L"
261408,"1770 GRAND CONCOURSE APT 12A","BRONX","NY",10457,40.8460235040001,-73.90969159,408,"1770 GRAND CONCOURSE APT 12A, BRONX, NY, 10457","Match","Exact","1770 GRAND CONCOURSE, BRONX, NY, 10457",640810612,"R"
261409,"1770 GRAND CONCOURSE","BRONX","NY",10457,40.8460235040001,-73.90969159,409,"1770 GRAND CONCOURSE, BRONX, NY, 10457","Match","Exact","1770 GRAND CONCOURSE, BRONX, NY, 10457",640810612,"R"
261410,"1770 HARBOR DRIVE","WARRENTON","OR",97416,NA,NA,410,"1770 HARBOR DRIVE, WARRENTON, OR, 97416","No_Match",NA,NA,NA,NA
261411,"1770 HAWK PLACE","WILLITS","CA",95490,39.4553263280001,-123.385416253,411,"1770 HAWK PLACE, WILLITS, CA, 95490","Match","Exact","1770 HAWK PL, WILLITS, CA, 95490",67259186,"R"
261412,"1770 IDAHO ST APT 9","GREEN RIVER","WY",82935,41.4980143110001,-109.448703703,412,"1770 IDAHO ST APT 9, GREEN RIVER, WY, 82935","Match","Exact","1770 IDAHO ST, GREEN RIVER, WY, 82935",646147669,"R"
261413,"1770 INDIAN TRAIL LIBURN","LITHONIA","GA",30058,NA,NA,413,"1770 INDIAN TRAIL LIBURN, LITHONIA, GA, 30058","No_Match",NA,NA,NA,NA
261414,"1770 JASMINE STREET","DENVER","CO",80220,39.7444619820001,-104.918775092,414,"1770 JASMINE STREET, DENVER, CO, 80220","Match","Exact","1770 JASMINE ST, DENVER, CO, 80220",177312319,"R"
261415,"1770 KINCADE AVE","CHULA VISTA","CA",91913,32.6137727330001,-116.982709969,415,"1770 KINCADE AVE, CHULA VISTA, CA, 91913","Match","Non_Exact","1770 KINCAID AVE, CHULA VISTA, CA, 91913",612879610,"R"
261416,"1770 KINMOUNT DR","ORION","MI",48359,42.7179866450001,-83.279203304,416,"1770 KINMOUNT DR, ORION, MI, 48359","Match","Exact","1770 KINMOUNT DR, ORION, MI, 48359",69701317,"R"
261417,"1770 KINRIDGE ROAD","MARIETTA","GA",30062,33.9998482830001,-84.501228456,417,"1770 KINRIDGE ROAD, MARIETTA, GA, 30062","Match","Exact","1770 KINRIDGE RD, MARIETTA, GA, 30062",643361603,"R"
261418,"1770 LAUREN LANE","AUBURN","AL",36830,32.5881623980001,-85.442250104,418,"1770 LAUREN LANE, AUBURN, AL, 36830","Match","Exact","1770 LAUREN LN, AUBURN, AL, 36830",1608500,"L"
261419,"1770 MAGNOLIA TREE ROAD","GERMANTOWN","TN",38138,35.101353391,-89.813547002,419,"1770 MAGNOLIA TREE ROAD, GERMANTOWN, TN, 38138","Match","Exact","1770 MAGNOLIA TREE RD, GERMANTOWN, TN, 38138",72973068,"L"
261420,"1770 MCCONNELL DRIVE","WILLIAMSPORT","PA",17701,41.2727115700001,-76.969899433,420,"1770 MCCONNELL DRIVE, WILLIAMSPORT, PA, 17701","Match","Exact","1770 MCCONNELL DR, WILLIAMSPORT, PA, 17701",59454007,"L"
261421,"1770 MELBOURNE ROAD","DUNDALK","MD",21222,39.2646453350001,-76.4855346259999,421,"1770 MELBOURNE ROAD, DUNDALK, MD, 21222","Match","Exact","1770 MELBOURNE RD, DUNDALK, MD, 21222",191531650,"R"
261422,"1770 MICKENS CLAY ROAD","BROOKSVILLE","MS",39739,33.2312996370001,-88.486790506,422,"1770 MICKENS CLAY ROAD, BROOKSVILLE, MS, 39739","Match","Non_Exact","1770 MICKENS-CLAY RD, BROOKSVILLE, MS, 39739",607958956,"R"
261423,"1770 MIDAY AVE NE","EAST CANTON","OH",44730,40.798229043,-81.2614967329999,423,"1770 MIDAY AVE NE, EAST CANTON, OH, 44730","Match","Exact","1770 MIDAY AVE NE, EAST CANTON, OH, 44730",64714684,"R"
261424,"1770 MONTECITO AVE","DELTONA","FL",32738,28.913524958,-81.2024515689999,424,"1770 MONTECITO AVE, DELTONA, FL, 32738","Match","Exact","1770 MONTECITO AVE, DELTONA, FL, 32738",94502265,"L"
261425,"1770 MORNINGTIDE CT","ANCHORAGE","AK",99501,61.2053573760001,-149.841485455,425,"1770 MORNINGTIDE CT, ANCHORAGE, AK, 99501","Match","Exact","1770 MORNINGTIDE CT, ANCHORAGE, AK, 99501",190799119,"L"
261426,"1770 N CO RD 800 W","SCIPIO","IN",47273,39.0101103420001,-85.7603886539999,426,"1770 N CO RD 800 W, SCIPIO, IN, 47273","Match","Exact","1770 N CO RD 800 W, SCIPIO, IN, 47273",633588613,"R"
261427,"1770 N GREEN VALLEY PKWY APT 4021","HENDERSON","NV",89074,36.0374683900001,-115.082938173,427,"1770 N GREEN VALLEY PKWY APT 4021, HENDERSON, NV, 89074","Match","Non_Exact","1770 N GREEN VALLEY PKWY, HENDERSON, NV, 89074",632505707,"R"
261428,"1770 N RIDLEY CREEK RD","MEDIA","PA",19063,39.936704009,-75.4098934529999,428,"1770 N RIDLEY CREEK RD, MEDIA, PA, 19063","Match","Exact","1770 N RIDLEY CREEK RD, MEDIA, PA, 19063",134893331,"L"
261429,"1770 NE 191 STREET APT 511","MIAMI","FL",33179,25.951389337,-80.166899874,429,"1770 NE 191 STREET APT 511, MIAMI, FL, 33179","Match","Non_Exact","1770 NE 191ST ST, MIAMI, FL, 33179",647892161,"R"
261430,"1770 NE 191 STREET","MIAMI","FL",33179,25.951389337,-80.166899874,430,"1770 NE 191 STREET, MIAMI, FL, 33179","Match","Exact","1770 NE 191ST ST, MIAMI, FL, 33179",647892161,"R"
261431,"1770 NEBO ROAD","CERES","VA",24318,36.984866891,-81.395639816,431,"1770 NEBO ROAD, CERES, VA, 24318","Match","Exact","1770 NEBO RD, CERES, VA, 24318",46690965,"R"
261432,"1770 NORTH DOWNS DR","FLORISSANT","MO",63033,38.8028156030001,-90.302416151,432,"1770 NORTH DOWNS DR, FLORISSANT, MO, 63033","Match","Exact","1770 N DOWNS DR, FLORISSANT, MO, 63033",100144558,"R"
261433,"1770 NW 130TH AVE","PORTLAND","OR",97229,45.5323493720001,-122.810895454,433,"1770 NW 130TH AVE, PORTLAND, OR, 97229","Match","Exact","1770 NW 130TH AVE, PORTLAND, OR, 97229",158184572,"R"
261434,"1770 NW 187TH TERRACE","MIAMI","FL",33168,NA,NA,434,"1770 NW 187TH TERRACE, MIAMI, FL, 33168","No_Match",NA,NA,NA,NA
261435,"1770 NW MAPLE ST","ISSAQUAH","WA",98027,47.543019529,-122.063672904,435,"1770 NW MAPLE ST, ISSAQUAH, WA, 98027","Match","Exact","1770 NW MAPLE ST, ISSAQUAH, WA, 98027",186616314,"R"
261436,"1770 OBRIEN DRIVE","BATON ROUGE","LA",70810,30.374521804,-91.09383924,436,"1770 OBRIEN DRIVE, BATON ROUGE, LA, 70810","Match","Exact","1770 OBRIEN DR, BATON ROUGE, LA, 70810",92204622,"R"
261437,"1770 OLD BUCKHEAD ROAD","MADISON","GA",30650,33.5917246450001,-83.4421913309999,437,"1770 OLD BUCKHEAD ROAD, MADISON, GA, 30650","Match","Exact","1770 BUCKHEAD RD, MADISON, GA, 30650",611073868,"R"
261438,"1770 OLIVE AVE APT 11","EL CENTRO","CA",92243,32.7906932120001,-115.576246226,438,"1770 OLIVE AVE APT 11, EL CENTRO, CA, 92243","Match","Non_Exact","1770 W OLIVE AVE, EL CENTRO, CA, 92243",194496145,"R"
261439,"1770 PIONEER WAY","LANCASTER","TX",75149,32.559958212,-96.766033029,439,"1770 PIONEER WAY, LANCASTER, TX, 75149","Match","Non_Exact","1770 PIONEER WAY, LANCASTER, TX, 75146",646808347,"R"
261440,"1770 POST ST- BOX 288","SAN FRANCISCO","CA",94115,37.7854490080001,-122.430800813,440,"1770 POST ST- BOX 288, SAN FRANCISCO, CA, 94115","Match","Non_Exact","1770 POST ST, SAN FRANCISCO, CA, 94115",641009015,"R"
261441,"1770 POST STREET NO 197","SAN FRANCISCO","CA",94115,37.7854490080001,-122.430800813,441,"1770 POST STREET NO 197, SAN FRANCISCO, CA, 94115","Match","Non_Exact","1770 POST ST, SAN FRANCISCO, CA, 94115",641009015,"R"
261442,"1770 PR 3799","QUINLAN","TX",75474,32.8686132,-96.090826873,442,"1770 PR 3799, QUINLAN, TX, 75474","Match","Non_Exact","1770 CO RD 3799, QUINLAN, TX, 75474",42859510,"L"
261443,"1770 RENWICK DRIVE APT 204","FAYETTEVILLE","NC",28304,35.015959228,-78.984201747,443,"1770 RENWICK DRIVE APT 204, FAYETTEVILLE, NC, 28304","Match","Exact","1770 RENWICK DR, FAYETTEVILLE, NC, 28304",64261080,"R"
261444,"1770 RICHFIELD DR","SEVERN","MD",21144,39.1165627240001,-76.703965097,444,"1770 RICHFIELD DR, SEVERN, MD, 21144","Match","Exact","1770 RICHFIELD DR, SEVERN, MD, 21144",68184345,"R"
261445,"1770 RICHMOND CIR APT 600A","ATLANTA","GA",30315,NA,NA,445,"1770 RICHMOND CIR APT 600A, ATLANTA, GA, 30315","No_Match",NA,NA,NA,NA
261446,"1770 RIDGELEE ROAD","HIGHLAND PARK","IL",60035,42.1562444300001,-87.811226038,446,"1770 RIDGELEE ROAD, HIGHLAND PARK, IL, 60035","Match","Exact","1770 RIDGELEE RD, HIGHLAND PARK, IL, 60035",119651575,"L"
261447,"1770 RIVERVIEW DR","WISCONSIN RAPIDS","WI",54494,44.404670841,-89.815037683,447,"1770 RIVERVIEW DR, WISCONSIN RAPIDS, WI, 54494","Match","Exact","1770 RIVERVIEW DR, WISCONSIN RAPIDS, WI, 54494",51294212,"R"
261448,"1770 ROSS AVE","ALAMOSA","CO",81101,37.4511563940001,-105.870164889,448,"1770 ROSS AVE, ALAMOSA, CO, 81101","Match","Exact","1770 ROSS AVE, ALAMOSA, CO, 81101",640297691,"R"
261449,"1770 S HALL STREET APT C","ALLENTOWN","PA",18103,40.5811564840001,-75.465904858,449,"1770 S HALL STREET APT C, ALLENTOWN, PA, 18103","Match","Non_Exact","1770 S HALL ST, ALLENTOWN, PA, 18103",80781272,"R"
261450,"1770 S POST OAK LANE","HOUSTON","TX",77056,29.748237906,-95.4633145719999,450,"1770 S POST OAK LANE, HOUSTON, TX, 77056","Match","Exact","1770 S POST OAK LN, HOUSTON, TX, 77056",645201698,"R"
261451,"1770 SHOPTON ROAD","CHARLOTTE","NC",28217,35.1638782590001,-80.919936961,451,"1770 SHOPTON ROAD, CHARLOTTE, NC, 28217","Match","Exact","1770 SHOPTON RD, CHARLOTTE, NC, 28217",636703060,"R"
261452,"1770 SKYLINE DR","ROCHESTER HILLS","MO",48306,NA,NA,452,"1770 SKYLINE DR, ROCHESTER HILLS, MO, 48306","No_Match",NA,NA,NA,NA
261453,"1770 SOUTH HENEFER RD","HENEFER","UT",84017,41.002275781,-111.488572082,453,"1770 SOUTH HENEFER RD, HENEFER, UT, 84017","Match","Non_Exact","1770 S HENEFER RD, HENEFER, UT, 84033",638950620,"L"
261454,"1770 ST JAMES PL STE 100","HOUSTON","TX",77056,NA,NA,454,"1770 ST JAMES PL STE 100, HOUSTON, TX, 77056","No_Match",NA,NA,NA,NA
261455,"1770 SUMMIT AVE","RIALTO","CA",92377,34.1509467130001,-117.40655692,455,"1770 SUMMIT AVE, RIALTO, CA, 92377","Match","Non_Exact","1770 W SUMMIT AVE, RIALTO, CA, 92377",144966297,"R"
261456,"1770 TCHOUPITOULAS ST APT 315","NEW ORLEANS","LA",70139,29.9274984630001,-90.067146254,456,"1770 TCHOUPITOULAS ST APT 315, NEW ORLEANS, LA, 70139","Match","Non_Exact","1770 TCHOUPITOULAS ST, NEW ORLEANS, LA, 70130",191714865,"L"
261457,"1770 TCHOUPITOULAS UNIT 214","NEW ORLEANS","LA",70130,29.9274984630001,-90.067146254,457,"1770 TCHOUPITOULAS UNIT 214, NEW ORLEANS, LA, 70130","Match","Non_Exact","1770 TCHOUPITOULAS ST, NEW ORLEANS, LA, 70130",191714865,"L"
261458,"1770 THOMAS ROAD","BEAUMONT","TX",77706,30.0983276420001,-94.1496447169999,458,"1770 THOMAS ROAD, BEAUMONT, TX, 77706","Match","Exact","1770 THOMAS RD, BEAUMONT, TX, 77706",73852592,"R"
261459,"1770 THOMASVILLE ROAD","TALLAHASSEE","FL",32303,30.4632555210001,-84.271629731,459,"1770 THOMASVILLE ROAD, TALLAHASSEE, FL, 32303","Match","Exact","1770 THOMASVILLE RD, TALLAHASSEE, FL, 32303",82853023,"L"
261460,"1770 THOUSAND OAKS BLVD","BERKELEY","CA",93707,37.897304911,-122.282057396,460,"1770 THOUSAND OAKS BLVD, BERKELEY, CA, 93707","Match","Non_Exact","1770 THOUSAND OAKS BLVD, BERKELEY, CA, 94707",124992231,"R"
261461,"1770 TIMBERLAKE","AZLE","TX",76020,NA,NA,461,"1770 TIMBERLAKE, AZLE, TX, 76020","No_Match",NA,NA,NA,NA
261462,"1770 WALTON AVENUE 12A","BRONX","NY",10453,40.8476858590001,-73.9101378949999,462,"1770 WALTON AVENUE 12A, BRONX, NY, 10453","Match","Exact","1770 WALTON AVE, BRONX, NY, 10453",80311686,"R"
261463,"1770 WENTZ RD","QUAKERTOWN","PA",18951,40.4459501220001,-75.424648856,463,"1770 WENTZ RD, QUAKERTOWN, PA, 18951","Match","Exact","1770 WENTZ RD, QUAKERTOWN, PA, 18951",653371753,"L"
261464,"1770 WEST FARM RD","ORONO","MN",55356,44.9932297180001,-93.570412872,464,"1770 WEST FARM RD, ORONO, MN, 55356","Match","Exact","1770 W FARM RD, ORONO, MN, 55356",43818633,"L"
261465,"1770 WILD DUNES CIRCLE","ORANGE PARK","FL",32065,30.1565126680001,-81.861537503,465,"1770 WILD DUNES CIRCLE, ORANGE PARK, FL, 32065","Match","Exact","1770 WILD DUNES CIR, ORANGE PARK, FL, 32065",606226556,"R"
261466,"1770 WINCHESTER DRIVE","WINTER PARK","FL",32789,28.5814100170001,-81.3422038639999,466,"1770 WINCHESTER DRIVE, WINTER PARK, FL, 32789","Match","Exact","1770 WINCHESTER DR, WINTER PARK, FL, 32789",94279197,"L"
261467,"17700 ALPENTAL ACCESS RD 2008","SNOQUALMIE PASS","WA",98068,47.4522399150001,-121.436601271,467,"17700 ALPENTAL ACCESS RD 2008, SNOQUALMIE PASS, WA, 98068","Match","Exact","17700 ALPENTAL ACCESS RD, SNOQUALMIE PASS, WA, 98068",187025366,"R"
261468,"17700 AVALON BLVD 250","CARAON","CA",90746,33.867764166,-118.265985763,468,"17700 AVALON BLVD 250, CARAON, CA, 90746","Match","Non_Exact","17700 S AVALON BLVD, CARSON, CA, 90746",142766189,"L"
261469,"17700 AVALON BLVD UNIT 250","CARSON","CA",90746,33.867764166,-118.265985763,469,"17700 AVALON BLVD UNIT 250, CARSON, CA, 90746","Match","Non_Exact","17700 S AVALON BLVD, CARSON, CA, 90746",142766189,"L"
261470,"17700 AVALON BOULEVARD / 354","CARSON","CA",90746,33.867764166,-118.265985763,470,"17700 AVALON BOULEVARD / 354, CARSON, CA, 90746","Match","Non_Exact","17700 S AVALON BLVD, CARSON, CA, 90746",142766189,"L"
261471,"17700 BAYBERRY LN J","TINLEY PARK","IL",60487,41.566817331,-87.845775969,471,"17700 BAYBERRY LN J, TINLEY PARK, IL, 60487","Match","Exact","17700 BAYBERRY LN, TINLEY PARK, IL, 60487",111863303,"L"
261472,"17700 CASTLETON STREET SUITE 402","CITY OF INDUSTRY","CA",91748,NA,NA,472,"17700 CASTLETON STREET SUITE 402, CITY OF INDUSTRY, CA, 91748","No_Match",NA,NA,NA,NA
261473,"17700 CORKSCREW ROAD","ESTERO","FL",33928,26.450389994,-81.661914866,473,"17700 CORKSCREW ROAD, ESTERO, FL, 33928","Match","Exact","17700 CORKSCREW RD, ESTERO, FL, 33928",117980515,"L"
261474,"17700 COSHOCTON ROAD","MOUNT VERNON","OH",43050,40.4059559410001,-82.432243387,474,"17700 COSHOCTON ROAD, MOUNT VERNON, OH, 43050","Match","Exact","17700 COSHOCTON RD, MOUNT VERNON, OH, 43050",24667637,"R"
261475,"17700 EVA CT","CARSON","CA",90746,NA,NA,475,"17700 EVA CT, CARSON, CA, 90746","No_Match",NA,NA,NA,NA
261476,"17700 HUFSMITH KOHRVILLE RD","TOMBALL","TX",77375,30.0241296500001,-95.5857172999999,476,"17700 HUFSMITH KOHRVILLE RD, TOMBALL, TX, 77375","Match","Non_Exact","17700 HUFFSMITH KOHRVILLE RD, TOMBALL, TX, 77375",642134206,"R"
261477,"17700 HUFSMITH KORVILLE RD","TOMBALL","TX",77375,30.0241296500001,-95.5857172999999,477,"17700 HUFSMITH KORVILLE RD, TOMBALL, TX, 77375","Match","Non_Exact","17700 HUFFSMITH KOHRVILLE RD, TOMBALL, TX, 77375",642134206,"R"
261478,"17700 HWY 20","BISON","SD",57620,NA,NA,478,"17700 HWY 20, BISON, SD, 57620","No_Match",NA,NA,NA,NA
261479,"17700 JAMESTOWN WAY","LUTZ","FL",33558,28.1387324350001,-82.5415376029999,479,"17700 JAMESTOWN WAY, LUTZ, FL, 33558","Match","Exact","17700 JAMESTOWN WAY, LUTZ, FL, 33558",633396175,"L"
261480,"17700 M68 HWY","ONAWAY","MI",49765,NA,NA,480,"17700 M68 HWY, ONAWAY, MI, 49765","No_Match",NA,NA,NA,NA
261481,"17700 MAHRLE RD","MANCHESTER","MI",48158,42.1164501430001,-84.076351086,481,"17700 MAHRLE RD, MANCHESTER, MI, 48158","Match","Exact","17700 MAHRLE RD, MANCHESTER, MI, 48158",625543906,"L"
261482,"17700 MCCOURTNEY RD","GRASS VALLEY","CA",95949,39.1433679350001,-121.143541335,482,"17700 MCCOURTNEY RD, GRASS VALLEY, CA, 95949","Match","Exact","17700 MCCOURTNEY RD, GRASS VALLEY, CA, 95949",106561130,"L"
261483,"17700 NW CORNELL RD","BEAVERTON","OR",97006,45.53542666,-122.85734345,483,"17700 NW CORNELL RD, BEAVERTON, OR, 97006","Match","Exact","17700 NW CORNELL RD, BEAVERTON, OR, 97006",650759536,"L"
261484,"17700 S AVALON BL UNIT 302","CARSON","CA",90746,33.867764166,-118.265985763,484,"17700 S AVALON BL UNIT 302, CARSON, CA, 90746","Match","Non_Exact","17700 S AVALON BLVD, CARSON, CA, 90746",142766189,"L"
261485,"17700 S AVALON BLVD 184","CARSON","CA",90746,33.867764166,-118.265985763,485,"17700 S AVALON BLVD 184, CARSON, CA, 90746","Match","Non_Exact","17700 S AVALON BLVD, CARSON, CA, 90746",142766189,"L"
261486,"17700 S AVALON BLVD SPC 184","CARSON","CA",90746,33.867764166,-118.265985763,486,"17700 S AVALON BLVD SPC 184, CARSON, CA, 90746","Match","Non_Exact","17700 S AVALON BLVD, CARSON, CA, 90746",142766189,"L"
261487,"17700 S AVALON BLVD UNIT 309","CARSON","CA",90746,33.867764166,-118.265985763,487,"17700 S AVALON BLVD UNIT 309, CARSON, CA, 90746","Match","Non_Exact","17700 S AVALON BLVD, CARSON, CA, 90746",142766189,"L"
261488,"17700 SOUTH WOODLAND ROAD","SHAKER HEIGHTS","OH",44120,41.474927112,-81.5563592189999,488,"17700 SOUTH WOODLAND ROAD, SHAKER HEIGHTS, OH, 44120","Match","Exact","17700 S WOODLAND RD, SHAKER HEIGHTS, OH, 44120",61125334,"R"
261489,"17700 SPRING LAKE DRIVE","CANYON","TX",79015,35.02980567,-101.930383545,489,"17700 SPRING LAKE DRIVE, CANYON, TX, 79015","Match","Exact","17700 SPRING LAKE DR, CANYON, TX, 79015",625663398,"L"
261490,"17700 STATE ROUTE D","BELTON","MO",64012,NA,NA,490,"17700 STATE ROUTE D, BELTON, MO, 64012","No_Match",NA,NA,NA,NA
261491,"17700 WAGONWHEEL LANE","PORT SAINT LUCIE","FL",34987,27.35813705,-80.50722415,491,"17700 WAGONWHEEL LANE, PORT SAINT LUCIE, FL, 34987","Match","Exact","17700 WAGONWHEEL LN, PORT ST LUCIE, FL, 34987",610768463,"L"
261492,"17701 108TH AVE SE SUITE 521","RENTON","GA",98055,NA,NA,492,"17701 108TH AVE SE SUITE 521, RENTON, GA, 98055","No_Match",NA,NA,NA,NA
261493,"17701 AVALON BLVD  UNIT 213","CARSON","CA",90746,33.8718429900001,-118.266244721,493,"17701 AVALON BLVD  UNIT 213, CARSON, CA, 90746","Match","Non_Exact","17701 S AVALON BLVD, CARSON, CA, 90746",142852649,"R"
261494,"17701 BARNWALL","BELLFLOWER","CA",90706,NA,NA,494,"17701 BARNWALL, BELLFLOWER, CA, 90706","No_Match",NA,NA,NA,NA
261495,"17701 BISCAYNE BLVD SUITE 202","AVENTURA","FL",33160,NA,NA,495,"17701 BISCAYNE BLVD SUITE 202, AVENTURA, FL, 33160","No_Match",NA,NA,NA,NA
261496,"17701 BISCAYNE BLVD","AVENTURA","FL",33160,NA,NA,496,"17701 BISCAYNE BLVD, AVENTURA, FL, 33160","No_Match",NA,NA,NA,NA
261497,"17701 KILMARNOCK TERRACE APT H","GERMANTOWN","MD",20874,39.147943341,-77.277587887,497,"17701 KILMARNOCK TERRACE APT H, GERMANTOWN, MD, 20874","Match","Exact","17701 KILMARNOCK TER, GERMANTOWN, MD, 20874",62095951,"L"
261498,"17701 LIFFEY COVE","PFLUFERVILLE","TX",78660,30.4721381270001,-97.6390984559999,498,"17701 LIFFEY COVE, PFLUFERVILLE, TX, 78660","Match","Non_Exact","17701 LIFFEY COVE, PFLUGERVILLE, TX, 78660",63991672,"L"
261499,"17701 NW 14 COURT","MIAMI","FL",33169,25.9365959630001,-80.225750591,499,"17701 NW 14 COURT, MIAMI, FL, 33169","Match","Non_Exact","17701 NW 14TH CT, MIAMI, FL, 33169",116029381,"R"
261500,"17701 NW 14 CT","MIAMI","FL",33169,25.9365959630001,-80.225750591,500,"17701 NW 14 CT, MIAMI, FL, 33169","Match","Exact","17701 NW 14TH CT, MIAMI, FL, 33169",116029381,"R"
